business_id,raw_business_id,entity,latitude,longitude,geo,name,city,state
10675,I13c2-Yo7hn2BKwCI81HSQ,b_I13c2-Yo7hn2BKwCI81HSQ,38.59159,-90.29389,"38.5915900000,-90.2938900000",Bellacino's Pizza & Grinders,Saint Louis,MO
10676,p6JxfR9ebAlIlpm674F-dg,b_p6JxfR9ebAlIlpm674F-dg,38.6495456873,-90.3004635439,"38.6495456873,-90.3004635439",Kaldi's Coffee Roasting,Saint Louis,MO
10677,ohs__H1zNoF4CAjrK1s3IA,b_ohs__H1zNoF4CAjrK1s3IA,38.586802,-90.276549,"38.5868020000,-90.2765490000",Lily's Mexican Restaurant,Saint Louis,MO
10678,8ZFC_TnP_hAsn0rgoK7KAA,b_8ZFC_TnP_hAsn0rgoK7KAA,38.5700361,-90.2533917,"38.5700361000,-90.2533917000",Chimichangas Mexican Restaurant,Saint Louis,MO
10679,p24n1vScP_MHxJVPrao-jA,b_p24n1vScP_MHxJVPrao-jA,38.6277365,-90.2932686,"38.6277365000,-90.2932686000",Cairdeas Coffee,Saint Louis,MO
10680,KWh_hyPZjJDEuzBmRJLF6A,b_KWh_hyPZjJDEuzBmRJLF6A,38.6559181,-90.3029439,"38.6559181000,-90.3029439000",Riddle's Penultimate Cafe & Wine Bar,Saint Louis,MO
10681,GV-e7Op4aU98xkjjoKlRhA,b_GV-e7Op4aU98xkjjoKlRhA,38.6184272,-90.2741883,"38.6184272000,-90.2741883000",Modesto Tapas Bar & Restaurant,Saint Louis,MO
10682,o2uKA4DbVaM2Daha0lVX9w,b_o2uKA4DbVaM2Daha0lVX9w,38.6194079,-90.2739469,"38.6194079000,-90.2739469000",Pop's Blue Moon,Saint Louis,MO
10683,oARO_YL29khMPJE5fVlLog,b_oARO_YL29khMPJE5fVlLog,38.6714712,-90.4392362,"38.6714712000,-90.4392362000",Provisions Gourmet Market,Saint Louis,MO
10684,qsuoiCiQQWH46D4kWGB7Ag,b_qsuoiCiQQWH46D4kWGB7Ag,38.7257047,-90.3582508,"38.7257047000,-90.3582508000",Las Palmas Mexican Restaurant,Saint Louis,MO
10685,Yvft9JHTRTIB2bgs4OZxsA,b_Yvft9JHTRTIB2bgs4OZxsA,38.690635,-90.381886,"38.6906350000,-90.3818860000",Las Palmas Mexican Restaurant,Saint Louis,MO
10686,PwiFfUAwzDXbMGt0OnrB-g,b_PwiFfUAwzDXbMGt0OnrB-g,38.6334604,-90.3191441,"38.6334604000,-90.3191441000",Harvest,Saint Louis,MO
10687,WzpWEuVWY-6Xh37wc44GiA,b_WzpWEuVWY-6Xh37wc44GiA,38.603495,-90.2177833,"38.6034950000,-90.2177833000",Sidney Street Cafe,Saint Louis,MO
10688,JkBiCY04rSSAa7qrawqUsg,b_JkBiCY04rSSAa7qrawqUsg,38.5908453708,-90.3396156425,"38.5908453708,-90.3396156425",The Boardwalk Cafe,Saint Louis,MO
10689,8YDJraW_cg5IPTPisPfB-A,b_8YDJraW_cg5IPTPisPfB-A,38.6336738558,-90.2006975021,"38.6336738558,-90.2006975021",City Museum,Saint Louis,MO
10690,-Xld662dL8WxrwP--bclIQ,b_-Xld662dL8WxrwP--bclIQ,38.651249,-90.339571,"38.6512490000,-90.3395710000",Miso On Meramec,Saint Louis,MO
10691,6JaHpWSKuJgTQTmxHxPe3A,b_6JaHpWSKuJgTQTmxHxPe3A,38.64853,-90.32746,"38.6485300000,-90.3274600000",Firestone Complete Auto Care,Saint Louis,MO
10692,WKjAuVKf-xK3tsXk-vt7vg,b_WKjAuVKf-xK3tsXk-vt7vg,38.6130539,-90.3636913,"38.6130539000,-90.3636913000",Lampert's Plush Pig BBQ,Saint Louis,MO
10693,X6ry8WkgUyBNPpNxIGpn5g,b_X6ry8WkgUyBNPpNxIGpn5g,38.6917328,-90.3950525,"38.6917328000,-90.3950525000",Ms. Piggies Smokehouse,Saint Louis,MO
10694,TtyEDhjxOU60y0AE2pGdWg,b_TtyEDhjxOU60y0AE2pGdWg,38.631079,-90.1884358,"38.6310790000,-90.1884358000",J F Sanfilippo's Italian Restaurant,Saint Louis,MO
10695,0QYWhij_YZ7Lyk9F6213Sg,b_0QYWhij_YZ7Lyk9F6213Sg,38.599449,-90.24299,"38.5994490000,-90.2429900000",Pho Grand Restaurant,Saint Louis,MO
10696,Dty7fGIonmXOmvZhnMAOQQ,b_Dty7fGIonmXOmvZhnMAOQQ,38.6014346,-90.2426266,"38.6014346000,-90.2426266000",Mangia Italiano,Saint Louis,MO
10697,uqXYVxIwoEsFFjEHBlMZQA,b_uqXYVxIwoEsFFjEHBlMZQA,38.5912237213,-90.3411353542,"38.5912237213,-90.3411353542",Cyrano's,Saint Louis,MO
10698,AjxjKRNin477A7nKAZciGg,b_AjxjKRNin477A7nKAZciGg,38.6076212,-90.2099776,"38.6076212000,-90.2099776000",McGurk's,Saint Louis,MO
10699,l8gsO8mMoVF7vqTDUNGeZw,b_l8gsO8mMoVF7vqTDUNGeZw,38.6256744,-90.1892739,"38.6256744000,-90.1892739000",Gateway Arch National Park,Saint Louis,MO
10700,2QWJsN0yk0FkkSUO_xVMKw,b_2QWJsN0yk0FkkSUO_xVMKw,38.6487265,-90.3273234,"38.6487265000,-90.3273234000",Imo's Pizza,Saint Louis,MO
10701,mYTr8yUaoQY-9oDPmQHPiA,b_mYTr8yUaoQY-9oDPmQHPiA,38.61737,-90.1955767,"38.6173700000,-90.1955767000",Eat-Rite Diner,Saint Louis,MO
10702,EFql1oIf5JKaet3SdEpIQA,b_EFql1oIf5JKaet3SdEpIQA,38.630873,-90.18532,"38.6308730000,-90.1853200000",Morgan Street Brewery,Saint Louis,MO
10703,5vb5EPOdgUafr3ZP84Hbpw,b_5vb5EPOdgUafr3ZP84Hbpw,38.6210099,-90.1939383,"38.6210099000,-90.1939383000",Paddy O's,Saint Louis,MO
10704,SyAYFxPBjuaHajx9iE7wLQ,b_SyAYFxPBjuaHajx9iE7wLQ,38.634959,-90.348097,"38.6349590000,-90.3480970000",Saint Louis Galleria,Saint Louis,MO
10705,4gO9aOoORI678TM9bagX9g,b_4gO9aOoORI678TM9bagX9g,38.6305155,-90.1847814,"38.6305155000,-90.1847814000",Hannegan's Restaurant & Pub,Saint Louis,MO
10706,F4gvookXrKsBNCvK_xEt1g,b_F4gvookXrKsBNCvK_xEt1g,38.6329915093,-90.2098684685,"38.6329915093,-90.2098684685",The Schlafly Tap Room,Saint Louis,MO
10707,-lLEaycKOdFoPALPL33NFA,b_-lLEaycKOdFoPALPL33NFA,38.6689658,-90.4442089,"38.6689658000,-90.4442089000",Oishi Sushi,Saint Louis,MO
10708,UU503tMXdZR4oDZXuoKuGA,b_UU503tMXdZR4oDZXuoKuGA,38.6500987,-90.3377772,"38.6500987000,-90.3377772000",Blue Elephant Royal Thai Cuisine,Saint Louis,MO
10709,7s5ImgKYDMrwYtFuNZuLjw,b_7s5ImgKYDMrwYtFuNZuLjw,38.63181,-90.198211,"38.6318100000,-90.1982110000",Lucas Park Grille,Saint Louis,MO
10710,-kHHi8y4kaTI6WUVdJSdvQ,b_-kHHi8y4kaTI6WUVdJSdvQ,38.6562321,-90.3055584,"38.6562321000,-90.3055584000",Fitz's,Saint Louis,MO
10711,onoy4oiOSB-YhAGy1KCJ0A,b_onoy4oiOSB-YhAGy1KCJ0A,38.631731,-90.198111,"38.6317310000,-90.1981110000",Wasabi Sushi Bar,Saint Louis,MO
10712,oeGv2lfbSMfwZ0x7jvOQdQ,b_oeGv2lfbSMfwZ0x7jvOQdQ,38.6747357907,-90.3791660316,"38.6747357907,-90.3791660316",I Love Mr Sushi,Saint Louis,MO
10713,apdMwRvWyR-_ARuuKYeM3w,b_apdMwRvWyR-_ARuuKYeM3w,38.6295437,-90.2084706,"38.6295437000,-90.2084706000",Houlihan's,Saint Louis,MO
10714,wqXxljKfGErIHz3LQfuQlg,b_wqXxljKfGErIHz3LQfuQlg,38.6283101,-90.2078813,"38.6283101000,-90.2078813000",St Louis Union Station,Saint Louis,MO
10715,kBCB53psaoKcHwv4kNByOg,b_kBCB53psaoKcHwv4kNByOg,38.6279912,-90.2102467,"38.6279912000,-90.2102467000",Lombardo's Trattoria,Saint Louis,MO
10716,UI0Rcdl9x_GT8ZnIQS80SA,b_UI0Rcdl9x_GT8ZnIQS80SA,38.6276089538,-90.2082054107,"38.6276089538,-90.2082054107",Hard Rock Cafe,Saint Louis,MO
10717,hRHhP3fhMy3LktPyQa3s_A,b_hRHhP3fhMy3LktPyQa3s_A,38.6276882,-90.2089256,"38.6276882000,-90.2089256000",Landry's Seafood House,Saint Louis,MO
10718,YBncKq0rdijgeIyjuW_Czw,b_YBncKq0rdijgeIyjuW_Czw,38.6714545,-90.4401007,"38.6714545000,-90.4401007000",Il Bel Lago,Saint Louis,MO
10719,rPZ1335Wd0p3VViBJrnRrQ,b_rPZ1335Wd0p3VViBJrnRrQ,38.6685746,-90.4439426,"38.6685746000,-90.4439426000",Cuisine d'Art,Saint Louis,MO
10720,VGYWVWwuuNRzI2UcSNIw2g,b_VGYWVWwuuNRzI2UcSNIw2g,38.631274,-90.195935,"38.6312740000,-90.1959350000",Copia Restaurant & Wine Garden,Saint Louis,MO
10721,RZWy7iy0X-AkOiUIXiKhYw,b_RZWy7iy0X-AkOiUIXiKhYw,38.601679,-90.444885,"38.6016790000,-90.4448850000",Elephant Bar Restaurant,Saint Louis,MO
10722,FHlGmDE3eW9DASfwsOZiEw,b_FHlGmDE3eW9DASfwsOZiEw,38.730672,-90.3567062,"38.7306720000,-90.3567062000",Erio's Pizza & Restaurant,Saint Louis,MO
10723,QqvMMaeNJqaEJihkhdYiAQ,b_QqvMMaeNJqaEJihkhdYiAQ,38.6175572,-90.2703739,"38.6175572000,-90.2703739000",Guido's Pizzeria & Tapas,Saint Louis,MO
10724,nRKndeZLQ3eDL10UMwS2rQ,b_nRKndeZLQ3eDL10UMwS2rQ,38.5894286448,-90.3076404,"38.5894286448,-90.3076404000",Ted Drewes,Saint Louis,MO
10725,PQSKyyPttMRrxYwspHaNiw,b_PQSKyyPttMRrxYwspHaNiw,38.6703437,-90.4389882,"38.6703437000,-90.4389882000",Growlers Pub,Saint Louis,MO
10726,oOLxSrq4qYkZXPq18Es32g,b_oOLxSrq4qYkZXPq18Es32g,38.6319829,-90.1993272,"38.6319829000,-90.1993272000",Flannery's Pub,Saint Louis,MO
10727,BlI-twxwJnvqELP5tRCR7Q,b_BlI-twxwJnvqELP5tRCR7Q,38.6114474,-90.2739125,"38.6114474000,-90.2739125000",Favazza's,Saint Louis,MO
10728,XeuloGDcqfKza_qlKexzmw,b_XeuloGDcqfKza_qlKexzmw,38.6344131,-90.348859,"38.6344131000,-90.3488590000",Teavana,Saint Louis,MO
10729,HNV-1XtDJLX3ECoCpaQJLQ,b_HNV-1XtDJLX3ECoCpaQJLQ,38.6496934,-90.3366006,"38.6496934000,-90.3366006000",The Fatted Calf,Saint Louis,MO
10730,LixMNBoL8DfVYcwHH6UQwg,b_LixMNBoL8DfVYcwHH6UQwg,38.650834,-90.3382129,"38.6508340000,-90.3382129000",Portabella,Saint Louis,MO
10731,sXaiyPC1fT6ESl-6t7eSXg,b_sXaiyPC1fT6ESl-6t7eSXg,38.6558071,-90.3049558,"38.6558071000,-90.3049558000",Blueberry Hill Restaurant & Bar,Saint Louis,MO
10732,6-05BvgCWCOeyquY2V1zWw,b_6-05BvgCWCOeyquY2V1zWw,38.5795275,-90.2935766,"38.5795275000,-90.2935766000",Imo's Pizza,Saint Louis,MO
10733,rsDFJ05TiW7yBMdVuQ2tQQ,b_rsDFJ05TiW7yBMdVuQ2tQQ,38.58012,-90.24425,"38.5801200000,-90.2442500000",Ted Drewes Custard,Saint Louis,MO
10734,QH80jlBg7ZdzNOMtYhi6fA,b_QH80jlBg7ZdzNOMtYhi6fA,38.5920618,-90.2798512,"38.5920618000,-90.2798512000",The Famous Bar,Saint Louis,MO
10735,Q1-a1z67RdKHjTbIhHaW6A,b_Q1-a1z67RdKHjTbIhHaW6A,38.6324656877,-90.1991724721,"38.6324656877,-90.1991724721",Gelateria Tavolini,Saint Louis,MO
10736,jYJm1uJ8HR1PI1hejZu_Ew,b_jYJm1uJ8HR1PI1hejZu_Ew,38.63136,-90.1939379,"38.6313600000,-90.1939379000",Mosaic Restaurants,Saint Louis,MO
10737,20-EyTyDc2-a30iDAQj64g,b_20-EyTyDc2-a30iDAQj64g,38.6016372761,-90.2427568819,"38.6016372761,-90.2427568819",City Diner,Saint Louis,MO
10738,XFchuplA5RvxA4Da2PkZbQ,b_XFchuplA5RvxA4Da2PkZbQ,38.69252,-90.395279,"38.6925200000,-90.3952790000",Gokul Snacks & Sweets,Saint Louis,MO
10739,B-NqcrIhvzCIkLCCpmhdvg,b_B-NqcrIhvzCIkLCCpmhdvg,38.6170399,-90.2113414,"38.6170399000,-90.2113414000",Soda Fountain Square,Saint Louis,MO
10740,S7CHy4U1Mv-4JEb963ouPA,b_S7CHy4U1Mv-4JEb963ouPA,38.647983,-90.260704,"38.6479830000,-90.2607040000",Duff's Restaurant,Saint Louis,MO
10741,XdUIIp-NFQax3Kr6XitmMg,b_XdUIIp-NFQax3Kr6XitmMg,38.606786,-90.2936868,"38.6067860000,-90.2936868000",LoRusso's Cucina,Saint Louis,MO
10742,89SD5fNDDnJj-ITB40hLsQ,b_89SD5fNDDnJj-ITB40hLsQ,38.6011529,-90.242783,"38.6011529000,-90.2427830000",King & I Thai,Saint Louis,MO
10743,EgrnyJq6N1HSMWv4qbJ46w,b_EgrnyJq6N1HSMWv4qbJ46w,38.6197018,-90.1919247,"38.6197018000,-90.1919247000",BB's Jazz Blues & Soups,Saint Louis,MO
10744,-kqjc8DxxRac4cz2qTKCLw,b_-kqjc8DxxRac4cz2qTKCLw,38.643836,-90.263554,"38.6438360000,-90.2635540000",Chase Park Plaza Cinemas,Saint Louis,MO
10745,aPwcuk58Qa7L4YMUYeMnaA,b_aPwcuk58Qa7L4YMUYeMnaA,38.6246493118,-90.1847076416,"38.6246493118,-90.1847076416",Top of the Riverfront,Saint Louis,MO
10746,CLt1k_vtdU962GZGl5U48g,b_CLt1k_vtdU962GZGl5U48g,38.630971,-90.194489,"38.6309710000,-90.1944890000",Kitchen K,Saint Louis,MO
10747,Yz4BD3vf8-d14j2T2FgYxA,b_Yz4BD3vf8-d14j2T2FgYxA,38.6611271,-90.3559915,"38.6611271000,-90.3559915000",House Of India,Saint Louis,MO
10748,wlORwhEzCTEHari93WKc4Q,b_wlORwhEzCTEHari93WKc4Q,38.6094388,-90.3651086,"38.6094388000,-90.3651086000",Farotto's,Saint Louis,MO
10749,u4WC_qHGn03jwNdVmW5vaQ,b_u4WC_qHGn03jwNdVmW5vaQ,38.6174438,-90.212809,"38.6174438000,-90.2128090000",Baileys' Chocolate Bar,Saint Louis,MO
10750,oofqPUU1m0AkxR3t85PfXg,b_oofqPUU1m0AkxR3t85PfXg,38.648784,-90.310804,"38.6487840000,-90.3108040000",Washington University in St. Louis,Saint Louis,MO
10751,fVvlgMz91aQuFqa5d2RirA,b_fVvlgMz91aQuFqa5d2RirA,38.645457,-90.264367,"38.6454570000,-90.2643670000",Straub's,Saint Louis,MO
10752,yV6JdDdTduK4oEN0TlNwAQ,b_yV6JdDdTduK4oEN0TlNwAQ,38.6302299,-90.1968956,"38.6302299000,-90.1968956000",Papa John's Pizza,Saint Louis,MO
10753,hGWPSBxWwhhdaA04lAGUzw,b_hGWPSBxWwhhdaA04lAGUzw,38.6974168,-90.4404797374,"38.6974168000,-90.4404797374",Hardee's,Saint Louis,MO
10754,ocVshQ6YKIWsmmxAGXgBYQ,b_ocVshQ6YKIWsmmxAGXgBYQ,38.6402234,-90.2301092,"38.6402234000,-90.2301092000",Powell Symphony Hall,Saint Louis,MO
10755,j9xRmG5qnfwtJg4KIi1kCw,b_j9xRmG5qnfwtJg4KIi1kCw,38.6384134,-90.228099,"38.6384134000,-90.2280990000",Circus Flora,Saint Louis,MO
10756,-s2v3VWz1J1TvZOHbyuNvA,b_-s2v3VWz1J1TvZOHbyuNvA,38.6285399,-90.1915729,"38.6285399000,-90.1915729000",Executive Salon,Saint Louis,MO
10757,KA9WEoGHr9Ae0pFXZqzylQ,b_KA9WEoGHr9Ae0pFXZqzylQ,38.6322076,-90.1987397,"38.6322076000,-90.1987397000",Rue 13,Saint Louis,MO
10758,Y48swatqDZVRbWy16ecR3A,b_Y48swatqDZVRbWy16ecR3A,38.6556374,-90.2978898,"38.6556374000,-90.2978898000",The Pageant,Saint Louis,MO
10759,8n9SibOxPjKn9LwtTBkDWQ,b_8n9SibOxPjKn9LwtTBkDWQ,38.6484639,-90.2605773,"38.6484639000,-90.2605773000",Llywelyn's Pub,Saint Louis,MO
10760,ncwW7rgpLEfoR44IwAsOVQ,b_ncwW7rgpLEfoR44IwAsOVQ,38.6467206,-90.3370379,"38.6467206000,-90.3370379000",Remy's Kitchen & Wine Bar,Saint Louis,MO
10761,9mB67Nq2Shvx5Y7Jn48-tw,b_9mB67Nq2Shvx5Y7Jn48-tw,38.6291724,-90.4073326,"38.6291724000,-90.4073326000",Plaza Frontenac,Saint Louis,MO
10762,kyFsGq8Wnuoy3zWUWB-OkQ,b_kyFsGq8Wnuoy3zWUWB-OkQ,38.6293711089,-90.4070095518,"38.6293711089,-90.4070095518",Cardwell's At the Plaza,Saint Louis,MO
10763,cH8FSlctkiZ-f03BsQXlCQ,b_cH8FSlctkiZ-f03BsQXlCQ,38.6821044,-90.4791911,"38.6821044000,-90.4791911000",Tachibana,Saint Louis,MO
10764,MQo2LU5h8JhSpN-PBgvA_w,b_MQo2LU5h8JhSpN-PBgvA_w,38.6304729,-90.4073533,"38.6304729000,-90.4073533000",Bissinger's Handcrafted Chocolatier,Saint Louis,MO
10765,EvZxyqrR2xej3CT14pLa7w,b_EvZxyqrR2xej3CT14pLa7w,38.6307201,-90.1922467,"38.6307201000,-90.1922467000",An American Place,Saint Louis,MO
10766,WP5BrkoplwN8ae_jO7luGA,b_WP5BrkoplwN8ae_jO7luGA,38.739621,-90.302707,"38.7396210000,-90.3027070000",Thyme Table Café,Saint Louis,MO
10767,Ep0Uigw0EJrLwgiP_EOBgw,b_Ep0Uigw0EJrLwgiP_EOBgw,38.6288639,-90.1945171,"38.6288639000,-90.1945171000",City Grocers,Saint Louis,MO
10768,AixPbZxJkgRyjxVqrpPAmw,b_AixPbZxJkgRyjxVqrpPAmw,38.6159188,-90.274905,"38.6159188000,-90.2749050000",Zia's on the Hill,Saint Louis,MO
10769,BCPpFA_h3l4F73H7ouLrbQ,b_BCPpFA_h3l4F73H7ouLrbQ,38.6116887,-90.3582817,"38.6116887000,-90.3582817000",Trainwreck Saloon,Saint Louis,MO
10770,mIksftgiGClSurK7LT5Qtg,b_mIksftgiGClSurK7LT5Qtg,38.5447884,-90.357825,"38.5447884000,-90.3578250000",Anheuser-Busch Companies,Saint Louis,MO
10771,2CrM7eYAT_vnEQnd2zTf6Q,b_2CrM7eYAT_vnEQnd2zTf6Q,38.6070357,-90.3719208,"38.6070357000,-90.3719208000",Hacienda Mexican Restaurant,Saint Louis,MO
10772,ubrkUuNeJpGegZfpmMLJFA,b_ubrkUuNeJpGegZfpmMLJFA,38.6385397,-90.2618501,"38.6385397000,-90.2618501000",DoubleTree by Hilton St. Louis Forest Park,Saint Louis,MO
10773,c_cfKwpJz5GuPaNgBbFaIA,b_c_cfKwpJz5GuPaNgBbFaIA,38.554664,-90.408007,"38.5546640000,-90.4080070000",Fuddruckers,Saint Louis,MO
10774,Nvx2MceKWAtikcAxk_TBMg,b_Nvx2MceKWAtikcAxk_TBMg,38.60270283,-90.2427217728,"38.6027028300,-90.2427217728",MoKaBe's Coffee House,Saint Louis,MO
10775,6PlPI24lEzf3dOlUcAWgNQ,b_6PlPI24lEzf3dOlUcAWgNQ,38.5984833,-90.2428951,"38.5984833000,-90.2428951000",Urban,Saint Louis,MO
10776,Fl6uvu7t9Hu-ZYjKH6OkgA,b_Fl6uvu7t9Hu-ZYjKH6OkgA,38.574111,-90.463745,"38.5741110000,-90.4637450000",The National Museum of Transportation,Saint Louis,MO
10777,GqyOrF5X21ciTjnuSCH5PQ,b_GqyOrF5X21ciTjnuSCH5PQ,38.6170166,-90.2110242,"38.6170166000,-90.2110242000",Square One Brewery & Distillery,Saint Louis,MO
10778,b4YPBSnqU5_L6TUz147Dow,b_b4YPBSnqU5_L6TUz147Dow,38.6515931,-90.3409688,"38.6515931000,-90.3409688000",City Coffee & Crêperie,Saint Louis,MO
10779,jYN4hVj-9vzWPDEC96bEqg,b_jYN4hVj-9vzWPDEC96bEqg,38.5688938,-90.2548012,"38.5688938000,-90.2548012000",El Burrito Loco,Saint Louis,MO
10780,PbunaXxpRE8sXGkKn5FFYw,b_PbunaXxpRE8sXGkKn5FFYw,38.6162149,-90.2753258,"38.6162149000,-90.2753258000",Missouri Baking Company,Saint Louis,MO
10781,fBCv5Euudl9VieR870gwNg,b_fBCv5Euudl9VieR870gwNg,38.599328,-90.2426436,"38.5993280000,-90.2426436000",Absolutli Goosed,Saint Louis,MO
10782,peN9Gf4wTNsewXbNrjVznQ,b_peN9Gf4wTNsewXbNrjVznQ,38.6044081,-90.3833149,"38.6044081000,-90.3833149000",Sansui Japanese Restaurant,Saint Louis,MO
10783,QvLCd3XX-6qp_sdCIjdl5w,b_QvLCd3XX-6qp_sdCIjdl5w,38.6559279,-90.3045501,"38.6559279000,-90.3045501000",Brandt's Cafe,Saint Louis,MO
10784,GjpMXrlTWpADpyUR1WByNA,b_GjpMXrlTWpADpyUR1WByNA,38.6446320511,-90.2616977999,"38.6446320511,-90.2616977999",Coffee Cartel,Saint Louis,MO
10785,nfDNbJ3eWwudtQCyp2EpSw,b_nfDNbJ3eWwudtQCyp2EpSw,38.523937,-90.363259,"38.5239370000,-90.3632590000",Roberto's Trattoria & Chophouse,Saint Louis,MO
10786,nVxOIEEYhoQfSUkr8QhWmQ,b_nVxOIEEYhoQfSUkr8QhWmQ,38.610248,-90.280327,"38.6102480000,-90.2803270000",Cunetto House of Pasta,Saint Louis,MO
10787,N2pULwcdouGh3HwmMO67SA,b_N2pULwcdouGh3HwmMO67SA,38.616983,-90.276958,"38.6169830000,-90.2769580000",Gian-Tony's On The Hill,Saint Louis,MO
10788,Df60BZXw3Kj9Xt1UlAidqA,b_Df60BZXw3Kj9Xt1UlAidqA,38.6106494,-90.2010599,"38.6106494000,-90.2010599000",Soulard Farmers Market,Saint Louis,MO
10789,XCs66XxFXCKtpqqIvwo5Tg,b_XCs66XxFXCKtpqqIvwo5Tg,38.6007541,-90.2428824,"38.6007541000,-90.2428824000",CBGB,Saint Louis,MO
10790,8Q9oBnx2EAitoRYEeX7uNg,b_8Q9oBnx2EAitoRYEeX7uNg,38.562888,-90.406075,"38.5628880000,-90.4060750000",Best Western Kirkwood Inn,Saint Louis,MO
10791,jNl1J8EVcKY9TybC3NpivQ,b_jNl1J8EVcKY9TybC3NpivQ,38.638412,-90.307591,"38.6384120000,-90.3075910000",Jimmy's on the Park,Saint Louis,MO
10792,5bmMdTw_FtCKfbAwqDkaPA,b_5bmMdTw_FtCKfbAwqDkaPA,38.6559606,-90.3008233,"38.6559606000,-90.3008233000",Thai Pizza Company,Saint Louis,MO
10793,ixHivkdJqo_YR-w0ePPwCA,b_ixHivkdJqo_YR-w0ePPwCA,38.586954,-90.406693,"38.5869540000,-90.4066930000",Fortel's Pizza Den,Saint Louis,MO
10794,60xFUHDmopm4FRzK6bPRTw,b_60xFUHDmopm4FRzK6bPRTw,38.63931,-90.29449,"38.6393100000,-90.2944900000",Saint Louis Art Museum,Saint Louis,MO
10795,AShaZXEMp3BkkREG-FiGBg,b_AShaZXEMp3BkkREG-FiGBg,38.613072,-90.319967,"38.6130720000,-90.3199670000",Monarch Restaurant & Wine Bar,Saint Louis,MO
10796,cL8PbQ_k1pke_IQEjNEvGg,b_cL8PbQ_k1pke_IQEjNEvGg,38.6308252,-90.1981444,"38.6308252000,-90.1981444000",Sen Thai-Asian Bistro,Saint Louis,MO
10797,O3M5Hl8DJFZZ-7EW1WqghQ,b_O3M5Hl8DJFZZ-7EW1WqghQ,38.6401757,-90.2624661,"38.6401757000,-90.2624661000",The Majestic Restaurant & Bar,Saint Louis,MO
10798,az2djKhRGkFhPRKjtedOjw,b_az2djKhRGkFhPRKjtedOjw,38.616421,-90.271007,"38.6164210000,-90.2710070000",Pizzeria Della Piazza,Saint Louis,MO
10799,amZz4IPFbGLKrnL-bmM5Tg,b_amZz4IPFbGLKrnL-bmM5Tg,38.6409777,-90.2527163,"38.6409777000,-90.2527163000",Savor,Saint Louis,MO
10800,TXuAuEWYISQjqv7Z_fHI7w,b_TXuAuEWYISQjqv7Z_fHI7w,38.5852996,-90.262353,"38.5852996000,-90.2623530000",Taft Street Restaurant and Bar,Saint Louis,MO
10801,Raqeg8TYCCAqvlng6IM46g,b_Raqeg8TYCCAqvlng6IM46g,38.6328108,-90.2371459,"38.6328108000,-90.2371459000",Fair Saint Louis,Saint Louis,MO
10802,KChWMIHxMChTE11ZVsIVZw,b_KChWMIHxMChTE11ZVsIVZw,38.6450615,-90.2611929,"38.6450615000,-90.2611929000",Sub Zero Vodka Bar,Saint Louis,MO
10803,OrgT05tCfUi88UAmzzqioA,b_OrgT05tCfUi88UAmzzqioA,38.6556587,-90.3033799,"38.6556587000,-90.3033799000",Tivoli Theatre,Saint Louis,MO
10804,SSZDGl2J-CEyIzuIbEiYNQ,b_SSZDGl2J-CEyIzuIbEiYNQ,38.62644,-90.1897829,"38.6264400000,-90.1897829000",Caleco's Bar & Grill,Saint Louis,MO
10805,rfbfSleg64ObTGGRMZgt3A,b_rfbfSleg64ObTGGRMZgt3A,38.5844441,-90.2931362,"38.5844441000,-90.2931362000",Pueblo Solis,Saint Louis,MO
10806,ezi4MDv0X1XfmkQ_D5_lGQ,b_ezi4MDv0X1XfmkQ_D5_lGQ,38.751037,-90.278345,"38.7510370000,-90.2783450000",St Vincent De Paul Society of St Louis Thrift Store,Saint Louis,MO
10807,lj--ezYgqdGv_0YF5Gf84A,b_lj--ezYgqdGv_0YF5Gf84A,38.5811223533,-90.407979614,"38.5811223533,-90.4079796140",Custard Station,Saint Louis,MO
10808,61yOHKjRUdpDgYFHetE5QQ,b_61yOHKjRUdpDgYFHetE5QQ,38.6301012,-90.1832634,"38.6301012000,-90.1832634000",Show-Me's,Saint Louis,MO
10809,i9E45E2RGZo-2XY66pDPeQ,b_i9E45E2RGZo-2XY66pDPeQ,38.6303714,-90.1844936,"38.6303714000,-90.1844936000",Jake's Steak,Saint Louis,MO
10810,cIJLAa7jOCV_CzbpHE6V2A,b_cIJLAa7jOCV_CzbpHE6V2A,38.6351625,-90.1814352,"38.6351625000,-90.1814352000",President Casino,Saint Louis,MO
10811,ZQIv6GEyNpSd0kGVU7UJHw,b_ZQIv6GEyNpSd0kGVU7UJHw,38.6174673,-90.2660205,"38.6174673000,-90.2660205000",O'Connell's Pub,Saint Louis,MO
10812,LmKpHMXSsm36viJOGVodFw,b_LmKpHMXSsm36viJOGVodFw,38.616109,-90.258071,"38.6161090000,-90.2580710000",Missouri Botanical Garden,Saint Louis,MO
10813,OcCrSDYR5cETO4FZ7R2iEg,b_OcCrSDYR5cETO4FZ7R2iEg,38.628257,-90.2927691,"38.6282570000,-90.2927691000",Seamus McDaniel's,Saint Louis,MO
10814,_OMGZ3TXOfN2By7skat_bw,b__OMGZ3TXOfN2By7skat_bw,38.6449378578,-90.2616628976,"38.6449378578,-90.2616628976",Drunken Fish - Central West End,Saint Louis,MO
10815,j-sQ70FAmLACDBlgOMoQ8Q,b_j-sQ70FAmLACDBlgOMoQ8Q,38.62749,-90.18771,"38.6274900000,-90.1877100000",Bamboo Bistro,Saint Louis,MO
10816,MiBsTEUaR6svmvGJnieVCg,b_MiBsTEUaR6svmvGJnieVCg,38.6294625,-90.1846668,"38.6294625000,-90.1846668000",Drunken Fish,Saint Louis,MO
10817,DJFxBTBIgYErzKS5cA_LiQ,b_DJFxBTBIgYErzKS5cA_LiQ,38.7009505134,-90.4464337214,"38.7009505134,-90.4464337214",Drunken Fish - Westport Plaza,Saint Louis,MO
10818,wMWRpzjKgwIef2yJ41RCGw,b_wMWRpzjKgwIef2yJ41RCGw,38.672512,-90.456796,"38.6725120000,-90.4567960000",La Bonne Bouchee,Saint Louis,MO
10819,xF7GTgvAvUpMtuYy5gtt0g,b_xF7GTgvAvUpMtuYy5gtt0g,38.6559241,-90.3045022,"38.6559241000,-90.3045022000",Red Sea Restaurant,Saint Louis,MO
10820,pP5IoCQ06QXCadQebHCIzg,b_pP5IoCQ06QXCadQebHCIzg,38.5993681,-90.2174868,"38.5993681000,-90.2174868000",Venice Cafe,Saint Louis,MO
10821,CVqpTp3Cmud3rwAuKj15gw,b_CVqpTp3Cmud3rwAuKj15gw,38.6563945,-90.3078702,"38.6563945000,-90.3078702000",St. Louis Bubble Tea,Saint Louis,MO
10822,iKxULnOA8_CO0OwmpZ_MyQ,b_iKxULnOA8_CO0OwmpZ_MyQ,38.6065501,-90.2932096,"38.6065501000,-90.2932096000",Spiro's Restaurant,Saint Louis,MO
10823,oI2aOEXBeDC3mfqwwZGWwA,b_oI2aOEXBeDC3mfqwwZGWwA,38.6563628,-90.3071822,"38.6563628000,-90.3071822000",Racanelli's,Saint Louis,MO
10824,twkLDWfN08pwjSojwc9wnQ,b_twkLDWfN08pwjSojwc9wnQ,38.6056088,-90.2231838,"38.6056088000,-90.2231838000",The Way Out Club,Saint Louis,MO
10825,IwfENkeFeyO4a4EnDDugGQ,b_IwfENkeFeyO4a4EnDDugGQ,38.6297996,-90.2123244,"38.6297996000,-90.2123244000",Harry's Restaurant & Bar,Saint Louis,MO
10826,-H8ryT3wGAoHMa9NeZ4tNQ,b_-H8ryT3wGAoHMa9NeZ4tNQ,38.625458,-90.192127,"38.6254580000,-90.1921270000",Mike Shannon's Steaks and Seafood,Saint Louis,MO
10827,BdHadrVCRSsBaTYrBUpBgQ,b_BdHadrVCRSsBaTYrBUpBgQ,38.6248897,-90.1895268,"38.6248897000,-90.1895268000",Anthony's Bar,Saint Louis,MO
10828,YYqRjbCVyoRfTV1R16eqxw,b_YYqRjbCVyoRfTV1R16eqxw,38.5967855,-90.2174502,"38.5967855000,-90.2174502000",Gus' Pretzels,Saint Louis,MO
10829,Qh3pgzg9jYjxoIf9kpyeSg,b_Qh3pgzg9jYjxoIf9kpyeSg,38.7374013,-90.3655493,"38.7374013000,-90.3655493000",The Parking Spot,Saint Louis,MO
10830,8O35ji_yOMVJmZ6bl96yhQ,b_8O35ji_yOMVJmZ6bl96yhQ,38.7499109942,-90.374754629,"38.7499109942,-90.3747546290",St. Louis Lambert International Airport - STL,Saint Louis,MO
10831,DEvzu8OF9hw0QbINP65yKw,b_DEvzu8OF9hw0QbINP65yKw,38.6448632,-90.2613605,"38.6448632000,-90.2613605000",Culpeppers Grill and Bar,Saint Louis,MO
10832,QsxDgLLRXaneBe5DelFpOw,b_QsxDgLLRXaneBe5DelFpOw,38.6467532,-90.4057785,"38.6467532000,-90.4057785000",Kreis Restaurant,Saint Louis,MO
10833,kpK6SmxIiNoGPNhlEGiL4w,b_kpK6SmxIiNoGPNhlEGiL4w,38.597361,-90.300388,"38.5973610000,-90.3003880000",Trattoria Marcella,Saint Louis,MO
10834,bWp49jZ2Nyw-RI7FJNyzMQ,b_bWp49jZ2Nyw-RI7FJNyzMQ,38.6315461,-90.1939456,"38.6315461000,-90.1939456000",Infuz,Saint Louis,MO
10835,YpMEDBDkz49VOiueB4OOlQ,b_YpMEDBDkz49VOiueB4OOlQ,38.5917894,-90.3093633,"38.5917894000,-90.3093633000",Mom's Deli,Saint Louis,MO
10836,NgCDBhNiVpUDwvpi0F9C5g,b_NgCDBhNiVpUDwvpi0F9C5g,38.6158352,-90.2727117,"38.6158352000,-90.2727117000",Amighetti's Bakery & Cafe,Saint Louis,MO
10837,0V83Aus5ar-eZiBHaZggSQ,b_0V83Aus5ar-eZiBHaZggSQ,38.6380662,-90.2465294,"38.6380662000,-90.2465294000",Terrene,Saint Louis,MO
10838,oaXCDG4UwU4zeUkOqJtoyA,b_oaXCDG4UwU4zeUkOqJtoyA,38.60237508,-90.2424502373,"38.6023750800,-90.2424502373",Dunaway Books,Saint Louis,MO
10839,Im203DgoWCdkAx1qEY7DgA,b_Im203DgoWCdkAx1qEY7DgA,38.577039,-90.2743179,"38.5770390000,-90.2743179000",Lemmons,Saint Louis,MO
10840,yGFkdrYdndizAPymvyq2WQ,b_yGFkdrYdndizAPymvyq2WQ,38.5852238,-90.4070879,"38.5852238000,-90.4070879000",Global Foods Market,Saint Louis,MO
10841,gSLWjGwRqXSq5HzsoP183g,b_gSLWjGwRqXSq5HzsoP183g,38.6320878,-90.4053394,"38.6320878000,-90.4053394000",Schneithorst Restaurant & Bar,Saint Louis,MO
10842,1YflE3DkiCZGgLnf3paLnA,b_1YflE3DkiCZGgLnf3paLnA,38.6390472884,-90.2841629994,"38.6390472884,-90.2841629994",Forest Park,Saint Louis,MO
10843,cBJDlgPptOmYqHhpha6bEw,b_cBJDlgPptOmYqHhpha6bEw,38.6087486,-90.2090261,"38.6087486000,-90.2090261000",Arcelia's Mexicana Restaurant,Saint Louis,MO
10844,ud-jYRqe0opK6js4e1LRrQ,b_ud-jYRqe0opK6js4e1LRrQ,38.579264,-90.406567,"38.5792640000,-90.4065670000",Imo's Pizza,Saint Louis,MO
10845,YIFOvtfJBPCLx5X9M-hHvw,b_YIFOvtfJBPCLx5X9M-hHvw,38.5773025,-90.4069374,"38.5773025000,-90.4069374000",Blue Water Grill,Saint Louis,MO
10846,qfABDeMSCirVPeG6BfcUEA,b_qfABDeMSCirVPeG6BfcUEA,38.6364243785,-90.2466976484,"38.6364243785,-90.2466976484",The Scottish Arms,Saint Louis,MO
10847,RpFCCPbTSDWFL_nT7KKLvg,b_RpFCCPbTSDWFL_nT7KKLvg,38.6505322,-90.3391347,"38.6505322000,-90.3391347000",Chez Leon,Saint Louis,MO
10848,eVUP_iOwvsLk6daEmyhESA,b_eVUP_iOwvsLk6daEmyhESA,38.6001819,-90.2214435,"38.6001819000,-90.2214435000",Yemanja Brasil,Saint Louis,MO
10849,9HeIgi1et9tgNkyn1krkvg,b_9HeIgi1et9tgNkyn1krkvg,38.6319159,-90.194509,"38.6319159000,-90.1945090000",Mcmurphy's Grill,Saint Louis,MO
10850,HTSsRjVLvqa07O-N98EM-w,b_HTSsRjVLvqa07O-N98EM-w,38.6315694,-90.1946125,"38.6315694000,-90.1946125000",The Dubliner,Saint Louis,MO
10851,4aSj0fmfFT2iqxr4-AzalA,b_4aSj0fmfFT2iqxr4-AzalA,38.6439651,-90.2616152,"38.6439651000,-90.2616152000",Liluma,Saint Louis,MO
10852,5aCDDeHLSyXwfSsmKzKhpg,b_5aCDDeHLSyXwfSsmKzKhpg,38.6483315,-90.2606484,"38.6483315000,-90.2606484000",Zoe's Pan-Asian Cafe,Saint Louis,MO
10853,QaOTMn7BVBx3xXrjRlVnCw,b_QaOTMn7BVBx3xXrjRlVnCw,38.6226303902,-90.1928125,"38.6226303902,-90.1928125000",Busch Stadium,Saint Louis,MO
10854,Xr3BxnODoNDrTlBiR-uFwA,b_Xr3BxnODoNDrTlBiR-uFwA,38.6284067,-90.1914484,"38.6284067000,-90.1914484000",Teutenberg's,Saint Louis,MO
10855,SnRYAUijeWNxfi8IMNGT0A,b_SnRYAUijeWNxfi8IMNGT0A,38.6563048,-90.308307,"38.6563048000,-90.3083070000",Cicero's,Saint Louis,MO
10856,wywx6CORdqCeSfYLD2cHqQ,b_wywx6CORdqCeSfYLD2cHqQ,38.63127,-90.188359,"38.6312700000,-90.1883590000",Drury Inn & Suites St. Louis Convention Center,Saint Louis,MO
10857,511w7d4H9BRXovw6hB_3iA,b_511w7d4H9BRXovw6hB_3iA,38.6242128,-90.2022684,"38.6242128000,-90.2022684000",St. Louis City Center Hotel,Saint Louis,MO
10858,xxuqYcnGC6EuQNKl-696LA,b_xxuqYcnGC6EuQNKl-696LA,38.616518,-90.268696,"38.6165180000,-90.2686960000",Rigazzi's,Saint Louis,MO
10859,VHGAlhyKKnipe0Ck5yBglA,b_VHGAlhyKKnipe0Ck5yBglA,38.6480113,-90.260804,"38.6480113000,-90.2608040000",Kopperman's Specialty Food & Delicatessen,Saint Louis,MO
10860,TeP60DIUUa6VQuvCEvoTsw,b_TeP60DIUUa6VQuvCEvoTsw,38.6777880535,-90.4645884817,"38.6777880535,-90.4645884817",Pastries of Denmark,Saint Louis,MO
10861,BtTVHiY1AH5iHzTlx5HqZw,b_BtTVHiY1AH5iHzTlx5HqZw,38.565974,-90.319993,"38.5659740000,-90.3199930000",Fortel's Pizza Den,Saint Louis,MO
10862,W01WtvzePJomYmSwetsubQ,b_W01WtvzePJomYmSwetsubQ,38.6483623,-90.2612115,"38.6483623000,-90.2612115000",Left Bank Books,Saint Louis,MO
10863,SMt_Yh3pKbr4RnK2WU8ZHQ,b_SMt_Yh3pKbr4RnK2WU8ZHQ,38.6820191,-90.4755885,"38.6820191000,-90.4755885000",Pink Galleon Billiards & Games,Saint Louis,MO
10864,QVpQ_-e8t-ZX7man4ryCEQ,b_QVpQ_-e8t-ZX7man4ryCEQ,38.6173663079,-90.3347608156,"38.6173663079,-90.3347608156",Artmart,Saint Louis,MO
10865,aUZys3AlGeiiQSIGHCggGg,b_aUZys3AlGeiiQSIGHCggGg,38.550188,-90.412764,"38.5501880000,-90.4127640000",Laumeier Sculpture Park,Saint Louis,MO
10866,noYjWEY5R7k_wTtHUkt0dw,b_noYjWEY5R7k_wTtHUkt0dw,38.62813,-90.208034,"38.6281300000,-90.2080340000",The Station Grille,Saint Louis,MO
10867,NgqIyv9Ld8i_rMPaEmGexw,b_NgqIyv9Ld8i_rMPaEmGexw,38.7381658,-90.3626352,"38.7381658000,-90.3626352000",The Parking Spot 2,Saint Louis,MO
10868,Md5JqMAGPLEaQBAdfOD7JA,b_Md5JqMAGPLEaQBAdfOD7JA,38.5290097,-90.2909523,"38.5290097000,-90.2909523000",First Missouri Credit Union,Saint Louis,MO
10869,Ic7DyKReZONn5IXUSB42Ew,b_Ic7DyKReZONn5IXUSB42Ew,38.598921,-90.292513,"38.5989210000,-90.2925130000",Brazie's Italian Restaurant,Saint Louis,MO
10870,Q8SeKCyxI18ZycvZbgt7VQ,b_Q8SeKCyxI18ZycvZbgt7VQ,38.5912521,-90.2738629282,"38.5912521000,-90.2738629282",Jack in the Box,Saint Louis,MO
10871,hxyedIXhDM48mLF8LAnX0Q,b_hxyedIXhDM48mLF8LAnX0Q,38.6166679,-90.2728993,"38.6166679000,-90.2728993000",DiGregorio's Market,Saint Louis,MO
10872,EnTQFU-nMpUISISJ-HI-AA,b_EnTQFU-nMpUISISJ-HI-AA,38.6147741,-90.272658,"38.6147741000,-90.2726580000",Vitale's Bakery,Saint Louis,MO
10873,sZp1QfIpQ6Zp1zsosykVpA,b_sZp1QfIpQ6Zp1zsosykVpA,38.6330591,-90.2021004,"38.6330591000,-90.2021004000",Windows On Washington,Saint Louis,MO
10874,N_7nJa49ueh_0vPDRP3Jew,b_N_7nJa49ueh_0vPDRP3Jew,38.6560522,-90.304452,"38.6560522000,-90.3044520000",Ranoush,Saint Louis,MO
10875,kdHR8xgiURiZF7m2No1ckw,b_kdHR8xgiURiZF7m2No1ckw,38.582098,-90.266685,"38.5820980000,-90.2666850000",The  Bevo Mill,Saint Louis,MO
10876,6r9FNW0-4aKqbPCX7UxTZg,b_6r9FNW0-4aKqbPCX7UxTZg,38.6353685093,-90.3447542712,"38.6353685093,-90.3447542712",Maggiano's Little Italy,Saint Louis,MO
10877,0GSUrqeDBwJoZXxTAnmy-A,b_0GSUrqeDBwJoZXxTAnmy-A,38.633345,-90.202838,"38.6333450000,-90.2028380000",Cummel's Cafe & Coffee,Saint Louis,MO
10878,pG5hLBK49Oz2TLX2qY6UQw,b_pG5hLBK49Oz2TLX2qY6UQw,38.6008134,-90.2427651,"38.6008134000,-90.2427651000",LemonGrass,Saint Louis,MO
10879,79pzxfiblK7h9qQKMyzkDw,b_79pzxfiblK7h9qQKMyzkDw,38.6026012,-90.2414534,"38.6026012000,-90.2414534000",Sekisui,Saint Louis,MO
10880,oLT78MXXeVeaJLMcbV8m3Q,b_oLT78MXXeVeaJLMcbV8m3Q,38.6724501464,-90.3410442295,"38.6724501464,-90.3410442295",Asiana Garden,Saint Louis,MO
10881,VpL_ekb6rSPYzmmLj4bysA,b_VpL_ekb6rSPYzmmLj4bysA,38.6003241,-90.2422409,"38.6003241000,-90.2422409000",Jay International Food Co,Saint Louis,MO
10882,lZGm58OR5Yr3EnVHhCBvyA,b_lZGm58OR5Yr3EnVHhCBvyA,38.6374631641,-90.2155707466,"38.6374631641,-90.2155707466",St Louis Auto & Truck Repair,Saint Louis,MO
10883,uasMzMp00F9azoVpqq-xOw,b_uasMzMp00F9azoVpqq-xOw,38.6557508,-90.2991774,"38.6557508000,-90.2991774000",Pin-Up Bowl,Saint Louis,MO
10884,M4ME5ir-QwnRdM4fhjZtTA,b_M4ME5ir-QwnRdM4fhjZtTA,38.6736475,-90.3597578,"38.6736475000,-90.3597578000",Bob's Seafood,Saint Louis,MO
10885,O1yOaZXGvAVb7d2YXL5L-A,b_O1yOaZXGvAVb7d2YXL5L-A,38.652307,-90.3419552,"38.6523070000,-90.3419552000",The Posh Nosh,Saint Louis,MO
10886,tHvIEpWnAJdv4gVPriP0Pw,b_tHvIEpWnAJdv4gVPriP0Pw,38.635906,-90.341981,"38.6359060000,-90.3419810000",Tropicana Lanes,Saint Louis,MO
10887,EpREWeEpmR8f1qLHzzF0AA,b_EpREWeEpmR8f1qLHzzF0AA,38.6130896,-90.3147605,"38.6130896000,-90.3147605000",Schlafly Bottleworks,Saint Louis,MO
10888,LGYIhGqbYakMMdsn_GCzJg,b_LGYIhGqbYakMMdsn_GCzJg,38.6143661,-90.2778698,"38.6143661000,-90.2778698000",Anthonino's Taverna,Saint Louis,MO
10889,cwUYrV2rG4k2dZmspqaRlQ,b_cwUYrV2rG4k2dZmspqaRlQ,38.6729715769,-90.4232311249,"38.6729715769,-90.4232311249",Pumpernickles Delicatessen,Saint Louis,MO
10890,Y8MkrQrmSQ0vVdcqiyrBRg,b_Y8MkrQrmSQ0vVdcqiyrBRg,38.6738461,-90.344489,"38.6738461000,-90.3444890000",Olive Supermarket,Saint Louis,MO
10891,BJXK4B2N8CLoc__SoDNPjg,b_BJXK4B2N8CLoc__SoDNPjg,38.6550792,-90.2980354,"38.6550792000,-90.2980354000",Gyro House,Saint Louis,MO
10892,6KsJ2zN2jdgEiQidiRczxQ,b_6KsJ2zN2jdgEiQidiRczxQ,38.6830079,-90.4788814,"38.6830079000,-90.4788814000",Pita Plus,Saint Louis,MO
10893,Ec6yQgiZ-j90CkbreCSTiw,b_Ec6yQgiZ-j90CkbreCSTiw,38.7016676918,-90.4466090138,"38.7016676918,-90.4466090138",Trainwreck Saloon,Saint Louis,MO
10894,TOKSekUFgQrRxCpEt_KRVw,b_TOKSekUFgQrRxCpEt_KRVw,38.708658,-90.3174737,"38.7086580000,-90.3174737000",Spiro's Restaurant,Saint Louis,MO
10895,0mB9cFxpq-vAKh1MhYYtsg,b_0mB9cFxpq-vAKh1MhYYtsg,38.6550023007,-90.297597888,"38.6550023007,-90.2975978880",Chinese Noodle Café,Saint Louis,MO
10896,uv3yhJ9Ffhuz_2AR5SmOjQ,b_uv3yhJ9Ffhuz_2AR5SmOjQ,38.59236,-90.2952,"38.5923600000,-90.2952000000",Target,Saint Louis,MO
10897,JJBLzh26iiU7ZHeIEO6-hg,b_JJBLzh26iiU7ZHeIEO6-hg,38.637319,-90.268535,"38.6373190000,-90.2685350000",Steinberg Skating Rink,Saint Louis,MO
10898,Jt95Rxh1kRZ-5AezlCX96A,b_Jt95Rxh1kRZ-5AezlCX96A,38.6559996,-90.3036413,"38.6559996000,-90.3036413000",Good Works,Saint Louis,MO
10899,g6rcVXjeLT6Y_kAFhbbJRg,b_g6rcVXjeLT6Y_kAFhbbJRg,38.6391319,-90.23901,"38.6391319000,-90.2390100000",Moolah Theatre & Lounge,Saint Louis,MO
10900,AN_ryHhHBlzf8oRddO8A6A,b_AN_ryHhHBlzf8oRddO8A6A,38.6322626,-90.1989956,"38.6322626000,-90.1989956000",Sidebar,Saint Louis,MO
10901,3vk51Q5F-TRiLsMqtugSKQ,b_3vk51Q5F-TRiLsMqtugSKQ,38.6267893,-90.3416299,"38.6267893000,-90.3416299000",Shane Co.,Saint Louis,MO
10902,EqxhaoiYFRle8l8QboJE1A,b_EqxhaoiYFRle8l8QboJE1A,38.6300827,-90.4074323,"38.6300827000,-90.4074323000",Tiffany & Co,Saint Louis,MO
10903,aDm4JESclYP_L2tY_sqaDA,b_aDm4JESclYP_L2tY_sqaDA,38.674526,-90.35774,"38.6745260000,-90.3577400000",Pho Long,Saint Louis,MO
10904,9PSg27_eo9WBmC_7msPz3Q,b_9PSg27_eo9WBmC_7msPz3Q,38.6714706,-90.428813,"38.6714706000,-90.4288130000",The Bagel Factory,Saint Louis,MO
10905,ssVh86UstRVGUi9ZLQGb7A,b_ssVh86UstRVGUi9ZLQGb7A,38.7010182199,-90.4462337494,"38.7010182199,-90.4462337494",Pujols 5 Grill,Saint Louis,MO
10906,_9XxcMTZbDFRJZkMo4WDZA,b__9XxcMTZbDFRJZkMo4WDZA,38.6823505996,-90.4772335101,"38.6823505996,-90.4772335101",Happy China,Saint Louis,MO
10907,Qwx9M_B-VIPz9dUEp7UnAQ,b_Qwx9M_B-VIPz9dUEp7UnAQ,38.7092021,-90.3002336,"38.7092021000,-90.3002336000",Normandy Animal Hospital,Saint Louis,MO
10908,wEI-j7yCt-voSHgbjgnhIg,b_wEI-j7yCt-voSHgbjgnhIg,38.655879,-90.302339,"38.6558790000,-90.3023390000",Meshuggah Café,Saint Louis,MO
10909,okhBCJxARxIylc0CsJf5DA,b_okhBCJxARxIylc0CsJf5DA,38.650889,-90.3378539,"38.6508890000,-90.3378539000",Kilkenny's Pub,Saint Louis,MO
10910,JbQcL7TYEusiq4Tco1Ls0w,b_JbQcL7TYEusiq4Tco1Ls0w,38.5689039,-90.2871529,"38.5689039000,-90.2871529000",South Side Cyclery,Saint Louis,MO
10911,LXtmmAiQjiMzUiZGCqYutQ,b_LXtmmAiQjiMzUiZGCqYutQ,38.618363,-90.1924922,"38.6183630000,-90.1924922000",White Castle,Saint Louis,MO
10912,viUC9r6rHDu6dQqzB5fsBw,b_viUC9r6rHDu6dQqzB5fsBw,38.5257053,-90.3620558,"38.5257053000,-90.3620558000",Waffle House,Saint Louis,MO
10913,YPTYOQO8Lg9BtHsRwYBY7g,b_YPTYOQO8Lg9BtHsRwYBY7g,38.627621,-90.337439,"38.6276210000,-90.3374390000",Mai Lee,Saint Louis,MO
10914,Xk2MNo4Kg9tikCM9Q4K13w,b_Xk2MNo4Kg9tikCM9Q4K13w,38.6559979,-90.30124,"38.6559979000,-90.3012400000",609 Restaurant & U Lounge,Saint Louis,MO
10915,8Fle1S0vvwzvDIR8851lAg,b_8Fle1S0vvwzvDIR8851lAg,38.6036386,-90.2979265,"38.6036386000,-90.2979265000",Knitorious,Saint Louis,MO
10916,QPU2DcnQrkD7cvXB-2pjAA,b_QPU2DcnQrkD7cvXB-2pjAA,38.6405839,-90.26189,"38.6405839000,-90.2618900000",Cha Yoon Sushi & Tea Bar,Saint Louis,MO
10917,iKV83dI9jNc5h6L41aaUdw,b_iKV83dI9jNc5h6L41aaUdw,38.6370063,-90.2305993,"38.6370063000,-90.2305993000",Vito's Sicilian Pizzeria & Ristorante,Saint Louis,MO
10918,F-Jr7-BsXJ4LWWEUkdl0yg,b_F-Jr7-BsXJ4LWWEUkdl0yg,38.634976,-90.237456,"38.6349760000,-90.2374560000",Humphrey's Restaurant & Tavern,Saint Louis,MO
10919,YV32ObbYe10BXeIydrnuOQ,b_YV32ObbYe10BXeIydrnuOQ,38.630821146,-90.4070088138,"38.6308211460,-90.4070088138",Canyon Cafe,Saint Louis,MO
10920,tEf_BkzhmPBrP5DzKKBPgw,b_tEf_BkzhmPBrP5DzKKBPgw,38.6322691,-90.2085664,"38.6322691000,-90.2085664000",Imo's Pizza,Saint Louis,MO
10921,cN8F-BmoHoS9eCqIHMtlHA,b_cN8F-BmoHoS9eCqIHMtlHA,38.6385628,-90.3902411,"38.6385628000,-90.3902411000",Companion Ladue Cafe,Saint Louis,MO
10922,xSn2d1RTvK7e4KM0bI2NLg,b_xSn2d1RTvK7e4KM0bI2NLg,38.6087681,-90.3684727,"38.6087681000,-90.3684727000",Nachomamas Tex-Mex,Saint Louis,MO
10923,Llu8_Lx2DFthmr99_eiOLA,b_Llu8_Lx2DFthmr99_eiOLA,38.6002991,-90.2429828,"38.6002991000,-90.2429828000",Wei Hong Bakery & Restaurant,Saint Louis,MO
10924,RBujFM-QxuMU_YorRW8_0Q,b_RBujFM-QxuMU_YorRW8_0Q,38.6407622314,-90.2619760354,"38.6407622314,-90.2619760354",Saigon Cafe,Saint Louis,MO
10925,AAjsTbz1LKynOCyEo9xRAQ,b_AAjsTbz1LKynOCyEo9xRAQ,38.6560374,-90.3041273,"38.6560374000,-90.3041273000",Seki's Japanese Restaurant,Saint Louis,MO
10926,-godNl358x6Hco_sw6DMXQ,b_-godNl358x6Hco_sw6DMXQ,38.598864,-90.2431024,"38.5988640000,-90.2431024000",TRX Tattoos,Saint Louis,MO
10927,wVykyNJZPyMqxCBpesXRZQ,b_wVykyNJZPyMqxCBpesXRZQ,38.5553495,-90.4044365,"38.5553495000,-90.4044365000",Sesame Chinese Restaurant,Saint Louis,MO
10928,7IrEIg4OqRFjAUvZbmA1XQ,b_7IrEIg4OqRFjAUvZbmA1XQ,38.6019644,-90.2425131,"38.6019644000,-90.2425131000",Mekong Restaurant,Saint Louis,MO
10929,awN-Lg5jlhFpsMdXe9WXvw,b_awN-Lg5jlhFpsMdXe9WXvw,38.64374,-90.3352138,"38.6437400000,-90.3352138000",Cafe Manhattan,Saint Louis,MO
10930,BXXdejmA_rJpMD2MBKCyGA,b_BXXdejmA_rJpMD2MBKCyGA,38.6425078,-90.2547064,"38.6425078000,-90.2547064000",Cathedral Basilica of Saint Louis,Saint Louis,MO
10931,6NYi9Uj5j0jQgNYpEfl2xg,b_6NYi9Uj5j0jQgNYpEfl2xg,38.644776,-90.262964,"38.6447760000,-90.2629640000",Mandarin,Saint Louis,MO
10932,VpE4JZU7gXscJyBJxmmHHA,b_VpE4JZU7gXscJyBJxmmHHA,38.6823345912,-90.4754658043,"38.6823345912,-90.4754658043",Asia Market,Saint Louis,MO
10933,dErRyqeDl412olyS6FlDgA,b_dErRyqeDl412olyS6FlDgA,38.6559325,-90.3030688,"38.6559325000,-90.3030688000",Iron Age Studios,Saint Louis,MO
10934,PGD5ot7CFDM4WeqMV4GMZQ,b_PGD5ot7CFDM4WeqMV4GMZQ,38.6560269,-90.3039918,"38.6560269000,-90.3039918000",Phoenix Rising,Saint Louis,MO
10935,M0arFg1IeInLZi49p27N6g,b_M0arFg1IeInLZi49p27N6g,38.5905166508,-90.3451438325,"38.5905166508,-90.3451438325",Webster University,Saint Louis,MO
10936,ARd49aYs1sioDV7Sy3lvwA,b_ARd49aYs1sioDV7Sy3lvwA,38.672339,-90.458342,"38.6723390000,-90.4583420000",Ichiban Sushi Bar Japanese Restaurant,Saint Louis,MO
10937,AzJxYiN1OmEphaCPMP2wWA,b_AzJxYiN1OmEphaCPMP2wWA,38.6719532,-90.3373726,"38.6719532000,-90.3373726000",Wei Hong Seafood Restaurant,Saint Louis,MO
10938,vdR9dCBu7snPWHnWVV8XxA,b_vdR9dCBu7snPWHnWVV8XxA,38.5506559,-90.4076217,"38.5506559000,-90.4076217000",Tokyo Sushi,Saint Louis,MO
10939,8D5ods6WefFYk2fB18a94A,b_8D5ods6WefFYk2fB18a94A,38.593926,-90.360912,"38.5939260000,-90.3609120000",Natural Fact Deli,Saint Louis,MO
10940,XHbaHX2uBGIn3uw37jl7Og,b_XHbaHX2uBGIn3uw37jl7Og,38.606387,-90.2184709,"38.6063870000,-90.2184709000",Hodak's,Saint Louis,MO
10941,3Af-OJOl70z2Oi_iTLoUuQ,b_3Af-OJOl70z2Oi_iTLoUuQ,38.6439562,-90.2616165,"38.6439562000,-90.2616165000",Cecil Whittaker's Pizzeria,Saint Louis,MO
10942,yZYx6GiDN9pc8hutC_1qIg,b_yZYx6GiDN9pc8hutC_1qIg,38.638443,-90.236653,"38.6384430000,-90.2366530000",Nadoz Bakery Cafe,Saint Louis,MO
10943,-Mv885wiVkF5LByWUo-XjA,b_-Mv885wiVkF5LByWUo-XjA,38.6347528,-90.1968124,"38.6347528000,-90.1968124000",Randall Gallery,Saint Louis,MO
10944,-avab463zBaQuHi5Xl2vpA,b_-avab463zBaQuHi5Xl2vpA,38.6104747,-90.2026146,"38.6104747000,-90.2026146000",The Porch,Saint Louis,MO
10945,oEbpO3vmcrGDW2mtb_s8cQ,b_oEbpO3vmcrGDW2mtb_s8cQ,38.6295275995,-90.2084375636,"38.6295275995,-90.2084375636",St. Louis Union Station Marriott,Saint Louis,MO
10946,BA3IeQf3wQHixCGWS-O_YQ,b_BA3IeQf3wQHixCGWS-O_YQ,38.5984666,-90.2099141,"38.5984666000,-90.2099141000",Anheuser-Busch Companies,Saint Louis,MO
10947,jDO4n9lAZNlQTcTFEObfyg,b_jDO4n9lAZNlQTcTFEObfyg,38.6025778,-90.2524147,"38.6025778000,-90.2524147000",Hartford Coffee Co,Saint Louis,MO
10948,ZoPCe0kiN7wr-fkdZdUxfg,b_ZoPCe0kiN7wr-fkdZdUxfg,38.6342659,-90.3098556,"38.6342659000,-90.3098556000",Carl's Delicatessen Restaurant,Saint Louis,MO
10949,NghIUbFjp683iyVJtF8u-g,b_NghIUbFjp683iyVJtF8u-g,38.6327671,-90.2022956,"38.6327671000,-90.2022956000",The London Tea Room,Saint Louis,MO
10950,Cg5dPGWwDaaMRhENv78HnQ,b_Cg5dPGWwDaaMRhENv78HnQ,38.6719532,-90.3373726,"38.6719532000,-90.3373726000",Wei Hong Bakery,Saint Louis,MO
10951,LyKmlIjywMnijhBHypHM8g,b_LyKmlIjywMnijhBHypHM8g,38.5996278,-90.2429163,"38.5996278000,-90.2429163000",Sameem,Saint Louis,MO
10952,8V9G6dC9sLCGp1LQVrmXwA,b_8V9G6dC9sLCGp1LQVrmXwA,38.5903953,-90.3068663,"38.5903953000,-90.3068663000",Aya Sofia,Saint Louis,MO
10953,RwOV1rfT7vA1qw8vgf-yBA,b_RwOV1rfT7vA1qw8vgf-yBA,38.6024149,-90.2618122,"38.6024149000,-90.2618122000",Tin Can Tavern and Grille,Saint Louis,MO
10954,rR2mWg0ybsUe5smIedz4Gg,b_rR2mWg0ybsUe5smIedz4Gg,38.6303999,-90.1919974,"38.6303999000,-90.1919974000",Marriott St. Louis Grand,Saint Louis,MO
10955,j4byE3dWqJ590uKJ0Z2Z_A,b_j4byE3dWqJ590uKJ0Z2Z_A,38.605706,-90.3775942,"38.6057060000,-90.3775942000",El Indio,Saint Louis,MO
10956,9GOhfsY3eclk4zUfuNk_yA,b_9GOhfsY3eclk4zUfuNk_yA,38.6218441,-90.2413978,"38.6218441000,-90.2413978000",Harry's Bar & Grill,Saint Louis,MO
10957,SJEtfe8kL60bh3D40KTRMw,b_SJEtfe8kL60bh3D40KTRMw,38.5990991,-90.2165807,"38.5990991000,-90.2165807000",Frazer's Restaurant & Lounge,Saint Louis,MO
10958,ECO_mndf0wzJu-Db1viTrA,b_ECO_mndf0wzJu-Db1viTrA,38.675912,-90.4085895,"38.6759120000,-90.4085895000",Kohn's Kosher Meat & Deli,Saint Louis,MO
10959,AoaQIboLkuj0xi7g6q9-2A,b_AoaQIboLkuj0xi7g6q9-2A,38.640170956,-90.2801513672,"38.6401709560,-90.2801513672",The Muny,Saint Louis,MO
10960,hru2wpiFdQiBR2wKcglV0A,b_hru2wpiFdQiBR2wKcglV0A,38.5982155,-90.2693034,"38.5982155000,-90.2693034000",G & W Meat & Bavarian Style Sausage Co Inc,Saint Louis,MO
10961,alTvm0fLTIAT6Ouw9i7Dpg,b_alTvm0fLTIAT6Ouw9i7Dpg,38.679023,-90.4618101,"38.6790230000,-90.4618101000",Tj Maxx,Saint Louis,MO
10962,nMHM74eFQuJyS_a7EVV1zA,b_nMHM74eFQuJyS_a7EVV1zA,38.6403537,-90.262164,"38.6403537000,-90.2621640000",Tortillaria Mexican Kitchen,Saint Louis,MO
10963,CdRaRQzf1xsaH9lcjslWvg,b_CdRaRQzf1xsaH9lcjslWvg,38.655788,-90.30437,"38.6557880000,-90.3043700000",Star Clipper,Saint Louis,MO
10964,-Z70ibBSzLNEs-KVJXPEHQ,b_-Z70ibBSzLNEs-KVJXPEHQ,38.602258,-90.465756,"38.6022580000,-90.4657560000",Pleats Cleaners,Saint Louis,MO
10965,q2gRx1K1mbk6zHV4ZOCChQ,b_q2gRx1K1mbk6zHV4ZOCChQ,38.6196041687,-90.2129194075,"38.6196041687,-90.2129194075",Eleven Eleven Mississippi,Saint Louis,MO
10966,H2sO6NwVq2bBqL2uCY0D8g,b_H2sO6NwVq2bBqL2uCY0D8g,38.563406,-90.266099,"38.5634060000,-90.2660990000",Carondelet Park,Saint Louis,MO
10967,EzHUZ4OqRKASptcx4qiYjA,b_EzHUZ4OqRKASptcx4qiYjA,38.6100525,-90.3636773,"38.6100525000,-90.3636773000",Cafe Brasil,Saint Louis,MO
10968,WEleUrOfjE_yFNlyBOnZOQ,b_WEleUrOfjE_yFNlyBOnZOQ,38.6448623,-90.262797,"38.6448623000,-90.2627970000",Bissinger's at Maryland Plaza,Saint Louis,MO
10969,0vj-32tNtrQ98SX8oCG60w,b_0vj-32tNtrQ98SX8oCG60w,38.630927,-90.2439639,"38.6309270000,-90.2439639000",Laclede Cab,Saint Louis,MO
10970,mjXIEy_xVd36aJqj9L2gBw,b_mjXIEy_xVd36aJqj9L2gBw,38.645345,-90.261297,"38.6453450000,-90.2612970000",Brennan's,Saint Louis,MO
10971,URNDmqSU80Ig-930yfKHoQ,b_URNDmqSU80Ig-930yfKHoQ,38.602896,-90.2152357,"38.6028960000,-90.2152357000",Trueman's Sports Bar,Saint Louis,MO
10972,Ek_y6KBZs-4-qZ-6YQCEnQ,b_Ek_y6KBZs-4-qZ-6YQCEnQ,38.5337294,-90.2864449,"38.5337294000,-90.2864449000",Bean House,Saint Louis,MO
10973,Zb1GEV4aAbe2lQsyBUhdlg,b_Zb1GEV4aAbe2lQsyBUhdlg,38.632616,-90.233904,"38.6326160000,-90.2339040000",Del Taco,Saint Louis,MO
10974,nCaieiIIxRwFc-kwzJohfQ,b_nCaieiIIxRwFc-kwzJohfQ,38.6737067,-90.3538386,"38.6737067000,-90.3538386000",Royal Chinese BBQ,Saint Louis,MO
10975,Asa49WIxwA8drxM3KUitOw,b_Asa49WIxwA8drxM3KUitOw,38.6333195,-90.2082928,"38.6333195000,-90.2082928000",The Pepper Lounge,Saint Louis,MO
10976,cX0iIvy5ZYD-JEc_aKSM-w,b_cX0iIvy5ZYD-JEc_aKSM-w,38.6168795,-90.2747749,"38.6168795000,-90.2747749000",Volpi Foods,Saint Louis,MO
10977,HKweD7jQQpZgc6NaoltH2Q,b_HKweD7jQQpZgc6NaoltH2Q,38.592676,-90.276518,"38.5926760000,-90.2765180000",La Tropicana Market,Saint Louis,MO
10978,KUcbgmjh_eR33wB7T9vTcw,b_KUcbgmjh_eR33wB7T9vTcw,38.6482019,-90.2787224,"38.6482019000,-90.2787224000",Atlas Restaurant,Saint Louis,MO
10979,p_6THXiGLViyxYnOY8BzZQ,b_p_6THXiGLViyxYnOY8BzZQ,38.6213664,-90.2129261,"38.6213664000,-90.2129261000",Vin de Set,Saint Louis,MO
10980,FgdCAjV5Lud_jKCAKyK4Og,b_FgdCAjV5Lud_jKCAKyK4Og,38.6242895,-90.3471211,"38.6242895000,-90.3471211000",Applegate's,Saint Louis,MO
10981,ISDVzdF4WZ4SXQdhyet9nQ,b_ISDVzdF4WZ4SXQdhyet9nQ,38.6163132,-90.3104832,"38.6163132000,-90.3104832000",Michael's Bar & Grill,Saint Louis,MO
10982,uiLHEHh1VZ6u8Wx1kXcROg,b_uiLHEHh1VZ6u8Wx1kXcROg,38.638415,-90.2318139,"38.6384150000,-90.2318139000",The Fox Theatre,Saint Louis,MO
10983,XmpbEmS7PRdg5sIbGpjt7g,b_XmpbEmS7PRdg5sIbGpjt7g,38.6400702927,-90.2848707288,"38.6400702927,-90.2848707288",The Boathouse at Forest Park,Saint Louis,MO
10984,9m6FEbg7mXTRf-H3u8ylmQ,b_9m6FEbg7mXTRf-H3u8ylmQ,38.6273084319,-90.1882964373,"38.6273084319,-90.1882964373",Hilton St. Louis Downtown at the Arch,Saint Louis,MO
10985,EfXTQPiVBym_2KoG7-XeSw,b_EfXTQPiVBym_2KoG7-XeSw,38.5828678,-90.2448596,"38.5828678000,-90.2448596000",Banh Mi So 1,Saint Louis,MO
10986,HVFvOKM8fIlxzIH970tZsA,b_HVFvOKM8fIlxzIH970tZsA,38.5931237,-90.2232885,"38.5931237000,-90.2232885000",Shangri La Diner,Saint Louis,MO
10987,XjefavpGhkhpJlRZBbtWIA,b_XjefavpGhkhpJlRZBbtWIA,38.6486759,-90.2607718,"38.6486759000,-90.2607718000",Club Viva!,Saint Louis,MO
10988,DARRZEgCUmuyf95uqYIA1A,b_DARRZEgCUmuyf95uqYIA1A,38.636163,-90.226212,"38.6361630000,-90.2262120000",Dante's,Saint Louis,MO
10989,_UQboRjXotzBhwsbfn6puQ,b__UQboRjXotzBhwsbfn6puQ,38.6087553,-90.2090967,"38.6087553000,-90.2090967000",Juniper Grill,Saint Louis,MO
10990,uUYdSFS091ZrWbekp_YTiA,b_uUYdSFS091ZrWbekp_YTiA,38.649004,-90.333841,"38.6490040000,-90.3338410000",Wine Merchant,Saint Louis,MO
10991,utJRw1T1_zjBuCIFFIbe-w,b_utJRw1T1_zjBuCIFFIbe-w,38.6383609519,-90.3077356483,"38.6383609519,-90.3077356483",Sasha's,Saint Louis,MO
10992,JOfBsNewE5J0rHG5LdlZeg,b_JOfBsNewE5J0rHG5LdlZeg,38.6439586883,-90.2642834307,"38.6439586883,-90.2642834307",Eau Cafe,Saint Louis,MO
10993,6kP_X6j0Pu7XDVFNWKsi7Q,b_6kP_X6j0Pu7XDVFNWKsi7Q,38.6399505,-90.2619647,"38.6399505000,-90.2619647000",St. Louis Coffee Oasis & Mediterranean Café,Saint Louis,MO
10994,OQBgwnIHY7vOrbjft8RM8w,b_OQBgwnIHY7vOrbjft8RM8w,38.648705,-90.327343,"38.6487050000,-90.3273430000",Blackberry Cafe,Saint Louis,MO
10995,D_yOtY3N32iXf9RqelHVlw,b_D_yOtY3N32iXf9RqelHVlw,38.6275276,-90.2517796,"38.6275276000,-90.2517796000",Atomic Cowboy,Saint Louis,MO
10996,3Y5rFbzRT1kUky7KSlMhPQ,b_3Y5rFbzRT1kUky7KSlMhPQ,38.6730655,-90.4237489,"38.6730655000,-90.4237489000",Thai Nivas Cafe,Saint Louis,MO
10997,cXEx8dhmoFZcsJjXS2lLuQ,b_cXEx8dhmoFZcsJjXS2lLuQ,38.555204,-90.313131,"38.5552040000,-90.3131310000",The Pasta House,Saint Louis,MO
10998,95Ovc1lSnOQwSrjIFhpYrA,b_95Ovc1lSnOQwSrjIFhpYrA,38.6402038017,-90.2620669032,"38.6402038017,-90.2620669032",Wild Flower Restaurant & Catering,Saint Louis,MO
10999,WMFZiQDAEph9k2uC3YFRug,b_WMFZiQDAEph9k2uC3YFRug,38.6400308,-90.2619107,"38.6400308000,-90.2619107000",Moxy Bistro,Saint Louis,MO
11000,Yu3z-6kGRTYg82F7wRmvPA,b_Yu3z-6kGRTYg82F7wRmvPA,38.598929,-90.24272,"38.5989290000,-90.2427200000",Cafe Natasha's,Saint Louis,MO
11001,I2ZzoBfuFrA8s3Fdh3BAEw,b_I2ZzoBfuFrA8s3Fdh3BAEw,38.6298542,-90.1951458,"38.6298542000,-90.1951458000",Ten14,Saint Louis,MO
11002,DT_ZjeS2ZvBuzZvt9h48fg,b_DT_ZjeS2ZvBuzZvt9h48fg,38.6730682206,-90.3465963881,"38.6730682206,-90.3465963881",Wonton King,Saint Louis,MO
11003,pZPp4gWPJ46WyDxLCM2c3A,b_pZPp4gWPJ46WyDxLCM2c3A,38.603479,-90.2698594,"38.6034790000,-90.2698594000",Courtesy Diner,Saint Louis,MO
11004,OOtMbkngmDcJrsfMlJzK9Q,b_OOtMbkngmDcJrsfMlJzK9Q,38.635446,-90.240346,"38.6354460000,-90.2403460000",Laclede Street Bar & Grill,Saint Louis,MO
11005,sCo3YovGDt8fINYJo9UBCQ,b_sCo3YovGDt8fINYJo9UBCQ,38.6227674932,-90.2865370895,"38.6227674932,-90.2865370895",Nick's Pub,Saint Louis,MO
11006,vRj1rgF4ZpwGt97MbcRzqg,b_vRj1rgF4ZpwGt97MbcRzqg,38.5917238,-90.3379128,"38.5917238000,-90.3379128000",Serendipity Homemade Ice Cream,Saint Louis,MO
11007,NBQ3cohPneJe1I40O9QGuw,b_NBQ3cohPneJe1I40O9QGuw,38.5217196,-90.3459723,"38.5217196000,-90.3459723000",Bartolino's South,Saint Louis,MO
11008,MMeXX74ym25wLB_IlhXxSQ,b_MMeXX74ym25wLB_IlhXxSQ,38.600981,-90.433833,"38.6009810000,-90.4338330000",Michael Isaiah Designs For Hair,Saint Louis,MO
11009,H3wLTQaia2vD2SHi4oV7vA,b_H3wLTQaia2vD2SHi4oV7vA,38.4867822,-90.3049717,"38.4867822000,-90.3049717000",Irene's Floral Design,Saint Louis,MO
11010,EuMmXmWLrD28dVzjKDbqRQ,b_EuMmXmWLrD28dVzjKDbqRQ,38.628681,-90.190342,"38.6286810000,-90.1903420000",Macy's,Saint Louis,MO
11011,98UbvTQAixUEdLzz0XZdhQ,b_98UbvTQAixUEdLzz0XZdhQ,38.6320572,-90.1980402,"38.6320572000,-90.1980402000",The Jive and Wail,Saint Louis,MO
11012,fBf15i9sn2TMmI7A7Wy_ag,b_fBf15i9sn2TMmI7A7Wy_ag,38.6039,-90.4383795,"38.6039000000,-90.4383795000",Einstein Bros Bagels,Saint Louis,MO
11013,Af2UlNzQSiZCapJ6qtwu6g,b_Af2UlNzQSiZCapJ6qtwu6g,38.5919028,-90.3023313,"38.5919028000,-90.3023313000",TFA The Future Antiques,Saint Louis,MO
11014,snOcakQo2Qzq1xJelFjaLg,b_snOcakQo2Qzq1xJelFjaLg,38.629971,-90.1955511,"38.6299710000,-90.1955511000",UMA,Saint Louis,MO
11015,TElXBof_tc4QXxr5iFmdzA,b_TElXBof_tc4QXxr5iFmdzA,38.742516,-90.365768,"38.7425160000,-90.3657680000",The Great American Bagel Bakery,Saint Louis,MO
11016,waX0gYlRwGrdfXCsgR_9xA,b_waX0gYlRwGrdfXCsgR_9xA,38.632824751,-90.1885081435,"38.6328247510,-90.1885081435",The Dome At America’s Center,Saint Louis,MO
11017,HEW_x9ZoAj-uNgEiOTcnjw,b_HEW_x9ZoAj-uNgEiOTcnjw,38.5906648,-90.2444221,"38.5906648000,-90.2444221000",Buttery Restaurant,Saint Louis,MO
11018,fN24yLGFI0R-ILt_5l422w,b_fN24yLGFI0R-ILt_5l422w,38.6488102082,-90.3330804272,"38.6488102082,-90.3330804272",Lusso,Saint Louis,MO
11019,cljHYek6vHtqUgUsnJBqmA,b_cljHYek6vHtqUgUsnJBqmA,38.6514594,-90.3378156,"38.6514594000,-90.3378156000",Pomme Cafe & Wine Bar,Saint Louis,MO
11020,cX-EgImZhF12MiayVcE_eg,b_cX-EgImZhF12MiayVcE_eg,38.6303371,-90.1843959,"38.6303371000,-90.1843959000",Joey B's,Saint Louis,MO
11021,kDp2YGII-IuL4v-_GPHoQw,b_kDp2YGII-IuL4v-_GPHoQw,38.6270025,-90.1994042,"38.6270025000,-90.1994042000",Club Buca,Saint Louis,MO
11022,q5dSzxE6grwCzu23_PlesA,b_q5dSzxE6grwCzu23_PlesA,38.674368,-90.3584893,"38.6743680000,-90.3584893000",Nobu's Japanese Restaurant,Saint Louis,MO
11023,_geBSCsu-QEoO64rpEZYiA,b__geBSCsu-QEoO64rpEZYiA,38.6311126,-90.1843912,"38.6311126000,-90.1843912000",Big Bang - Dueling Piano Bar,Saint Louis,MO
11024,yHFGJe0-Vd8SrEr7OHBW-Q,b_yHFGJe0-Vd8SrEr7OHBW-Q,38.6451156,-90.2614699,"38.6451156000,-90.2614699000",The Pasta House,Saint Louis,MO
11025,1P_mGUY1PyPq7_ZabrzpBw,b_1P_mGUY1PyPq7_ZabrzpBw,38.6243584,-90.1886849,"38.6243584000,-90.1886849000",Carmine's Steakhouse,Saint Louis,MO
11026,OiEsbS3bLm1gXK7k9kBu1Q,b_OiEsbS3bLm1gXK7k9kBu1Q,38.54843393,-90.3434944153,"38.5484339300,-90.3434944153",Sam's Steakhouse,Saint Louis,MO
11027,PHdkmST4x79cJIiweKP65A,b_PHdkmST4x79cJIiweKP65A,38.6284741,-90.2610597,"38.6284741000,-90.2610597000",La Dolce Via Bakery & Cafe,Saint Louis,MO
11028,RHV0F2NYApxB0F1dStwP4A,b_RHV0F2NYApxB0F1dStwP4A,38.6562947,-90.3068355,"38.6562947000,-90.3068355000",Tantrum,Saint Louis,MO
11029,klUsdGRUcg3KIV7dXOtI2A,b_klUsdGRUcg3KIV7dXOtI2A,38.6558858,-90.304384,"38.6558858000,-90.3043840000",Ziezo,Saint Louis,MO
11030,QDzbz1NqQkFd-I4lV9Df_A,b_QDzbz1NqQkFd-I4lV9Df_A,38.5567722,-90.3887908,"38.5567722000,-90.3887908000",Las Margaritas,Saint Louis,MO
11031,F6HCLpKegKxE6g1jyUaqiQ,b_F6HCLpKegKxE6g1jyUaqiQ,38.604148,-90.261073,"38.6041480000,-90.2610730000",Local Harvest Grocery,Saint Louis,MO
11032,L9sNYgV-TKTQdkaeEZBqEg,b_L9sNYgV-TKTQdkaeEZBqEg,38.6556383394,-90.3004878779,"38.6556383394,-90.3004878779",Thai Country Cafe,Saint Louis,MO
11033,ks0vrdxxoiwhZSeu-pzHxQ,b_ks0vrdxxoiwhZSeu-pzHxQ,38.641128,-90.249574,"38.6411280000,-90.2495740000",The Grind,Saint Louis,MO
11034,Ji8_dSNb9yYxXl6YWl9KVw,b_Ji8_dSNb9yYxXl6YWl9KVw,38.6174158,-90.2126614,"38.6174158000,-90.2126614000",33 Wine Shop & Bar,Saint Louis,MO
11035,xJ0oBfH0dZK69ctr7KQYZw,b_xJ0oBfH0dZK69ctr7KQYZw,38.5491236,-90.4064131,"38.5491236000,-90.4064131000",Growler's Pub,Saint Louis,MO
11036,tWcxRNHEls69WInCibtqHQ,b_tWcxRNHEls69WInCibtqHQ,38.630223,-90.1834507,"38.6302230000,-90.1834507000",Metro,Saint Louis,MO
11037,yBeND4UKlYhsAdUOQ5DM5g,b_yBeND4UKlYhsAdUOQ5DM5g,38.6404384,-90.2616855,"38.6404384000,-90.2616855000",Philip Johnson Salon and Spa,Saint Louis,MO
11038,lJdfvjtx-i6uszixXxeuWw,b_lJdfvjtx-i6uszixXxeuWw,38.6550575,-90.298618,"38.6550575000,-90.2986180000",Thai Cafe,Saint Louis,MO
11039,Nj9XbH55RlOQ8yrK32R60w,b_Nj9XbH55RlOQ8yrK32R60w,38.6306142,-90.2865752,"38.6306142000,-90.2865752000",Imo's Pizza,Saint Louis,MO
11040,P7XX9Kf4-RxnkmUvrTQGLw,b_P7XX9Kf4-RxnkmUvrTQGLw,38.612440517,-90.3199727565,"38.6124405170,-90.3199727565",Tiffany's Original Diner,Saint Louis,MO
11041,tWJ3DwufXIKdlLTEw7K96g,b_tWJ3DwufXIKdlLTEw7K96g,38.641305,-90.26225,"38.6413050000,-90.2622500000",India Rasoi,Saint Louis,MO
11042,DJBqJaszqdZyvBn79fQzlg,b_DJBqJaszqdZyvBn79fQzlg,38.6554815,-90.3015684,"38.6554815000,-90.3015684000",Thai Gai Yang Cafe,Saint Louis,MO
11043,9D9eiCkbXblAeaJH_x3KSg,b_9D9eiCkbXblAeaJH_x3KSg,38.632413,-90.207081,"38.6324130000,-90.2070810000",Club 15,Saint Louis,MO
11044,QYPornWtiB1k0xS3Fm-jwA,b_QYPornWtiB1k0xS3Fm-jwA,38.701215,-90.446441,"38.7012150000,-90.4464410000",Kobe Steak House of Japan,Saint Louis,MO
11045,Gzu6TBtFEXvaPxYbkJfF0w,b_Gzu6TBtFEXvaPxYbkJfF0w,38.566982,-90.407392,"38.5669820000,-90.4073920000",Steak And Rice,Saint Louis,MO
11046,E97mf8QfK5NWwqSiac_IAw,b_E97mf8QfK5NWwqSiac_IAw,38.6018468528,-90.2616119385,"38.6018468528,-90.2616119385",The Vintage Haberdashery,Saint Louis,MO
11047,vB6RTjuDxOlfh6xWegVt0w,b_vB6RTjuDxOlfh6xWegVt0w,38.607067,-90.2078237,"38.6070670000,-90.2078237000",Joanie's Pizzeria,Saint Louis,MO
11048,5hibBmr_GSPD0WM7avG-DA,b_5hibBmr_GSPD0WM7avG-DA,38.6332872,-90.3063993,"38.6332872000,-90.3063993000",Cheshire Lodge,Saint Louis,MO
11049,6zHnMgOxiuqgeA41woLU2A,b_6zHnMgOxiuqgeA41woLU2A,38.6310026,-90.1936519,"38.6310026000,-90.1936519000",10th Street Italian,Saint Louis,MO
11050,_mNAqzA2zW7zYVxkZA3lRw,b__mNAqzA2zW7zYVxkZA3lRw,38.70094853,-90.4466050143,"38.7009485300,-90.4466050143",Funny Bone Comedy Club,Saint Louis,MO
11051,2IahpaBR4U2Kdy9HF28EQA,b_2IahpaBR4U2Kdy9HF28EQA,38.6174115,-90.2129005,"38.6174115000,-90.2129005000",Park Avenue Coffee - Lafayette Square,Saint Louis,MO
11052,AL_UmDL0QF_mFmoFt5vWxg,b_AL_UmDL0QF_mFmoFt5vWxg,38.6742414,-90.3544097,"38.6742414000,-90.3544097000",In Soo Restaurant,Saint Louis,MO
11053,b3H2Az-n0jP1wixh5Sde4g,b_b3H2Az-n0jP1wixh5Sde4g,38.674576,-90.357386,"38.6745760000,-90.3573860000",East East Oriental Grocery Store,Saint Louis,MO
11054,VrGxoSNZfSiT-G4OqRRGIw,b_VrGxoSNZfSiT-G4OqRRGIw,38.5832229,-90.4071872,"38.5832229000,-90.4071872000",Sunset 44 Bistro,Saint Louis,MO
11055,gq08c7NqUR2pqSSM_CeHYA,b_gq08c7NqUR2pqSSM_CeHYA,38.6332786367,-90.3164464065,"38.6332786367,-90.3164464065",Mike Duffy's Pub & Grill,Saint Louis,MO
11056,p7UGlPkE3Gagm9Mq7aHfYg,b_p7UGlPkE3Gagm9Mq7aHfYg,38.5993362212,-90.2430074274,"38.5993362212,-90.2430074274",The Gelateria Coffee Company,Saint Louis,MO
11057,3SXVOvnZsk7MunzbFFig1A,b_3SXVOvnZsk7MunzbFFig1A,38.6508604,-90.3382096,"38.6508604000,-90.3382096000",Zuzu Handmade Mexican Food,Saint Louis,MO
11058,2LNe_uHb_oGyptVOti7k0w,b_2LNe_uHb_oGyptVOti7k0w,38.6385691,-90.3451821,"38.6385691000,-90.3451821000","Roy D Bedrock, MS, DMD, MD",Saint Louis,MO
11059,o7H8b_rQHzzxSMC7wM9Tiw,b_o7H8b_rQHzzxSMC7wM9Tiw,38.6563675,-90.3079695,"38.6563675000,-90.3079695000",D-Zine Hair & Art Studio,Saint Louis,MO
11060,zT072g-FrErnrxU6_wuJZw,b_zT072g-FrErnrxU6_wuJZw,38.5949207,-90.2369742,"38.5949207000,-90.2369742000",Southside Garden Stop,Saint Louis,MO
11061,ON7W2ZFyuMNQZov0MZ1U9Q,b_ON7W2ZFyuMNQZov0MZ1U9Q,38.6552732,-90.2979037,"38.6552732000,-90.2979037000",Knitty Couture,Saint Louis,MO
11062,06mrRuzYE3zTcVqDDPvzNQ,b_06mrRuzYE3zTcVqDDPvzNQ,38.6440225,-90.2616268,"38.6440225000,-90.2616268000",Banh Mi Boba Tea & Creperie,Saint Louis,MO
11063,_eT4D7Rc1LAcHFLIekrp-g,b__eT4D7Rc1LAcHFLIekrp-g,38.6088313,-90.3679394,"38.6088313000,-90.3679394000",Crazy Bowls & Wraps,Saint Louis,MO
11064,ECWAKPoR6i2vdtJtU0FjJw,b_ECWAKPoR6i2vdtJtU0FjJw,38.6024904,-90.3868089,"38.6024904000,-90.3868089000",Kangaroo Kids,Saint Louis,MO
11065,og1t1ofmT-WdzY7xMoYgYg,b_og1t1ofmT-WdzY7xMoYgYg,38.6553214,-90.2961799,"38.6553214000,-90.2961799000",Miss Saigon,Saint Louis,MO
11066,A-IQHp386-gSIDPLv4-dDA,b_A-IQHp386-gSIDPLv4-dDA,38.6495516,-90.3294742,"38.6495516000,-90.3294742000",Sekisui Pacific Rim,Saint Louis,MO
11067,yZXkEDgpmIX7Ektc3F9zJw,b_yZXkEDgpmIX7Ektc3F9zJw,38.675803,-90.4631362,"38.6758030000,-90.4631362000",Ruchi Indian Cuisine,Saint Louis,MO
11068,8vwdDagJc8bJR0ZojFGZxw,b_8vwdDagJc8bJR0ZojFGZxw,38.6445876525,-90.2624983856,"38.6445876525,-90.2624983856",The Cup,Saint Louis,MO
11069,FFhS5dhkyRdLhqQo8Q5WTQ,b_FFhS5dhkyRdLhqQo8Q5WTQ,38.6060267,-90.3038189,"38.6060267000,-90.3038189000",Pizza-A-Go-Go,Saint Louis,MO
11070,PYLrpZ92pmI04uxUoWGwSA,b_PYLrpZ92pmI04uxUoWGwSA,38.5274877,-90.3720291,"38.5274877000,-90.3720291000",America's Incredible Pizza Company,Saint Louis,MO
11071,ab2F3-0As4ZCPX5dXLKiiQ,b_ab2F3-0As4ZCPX5dXLKiiQ,38.5577729,-90.3064441,"38.5577729000,-90.3064441000",Dirt Cheap Cigarettes Beer & Liquor,Saint Louis,MO
11072,24_GowpZ79St53rpxsKqsQ,b_24_GowpZ79St53rpxsKqsQ,38.5242366,-90.3552356,"38.5242366000,-90.3552356000",P'sghetti's Pasta & Sandwiches,Saint Louis,MO
11073,EbmndUffLAYfJBsO2iu8cQ,b_EbmndUffLAYfJBsO2iu8cQ,38.6316791343,-90.1955512951,"38.6316791343,-90.1955512951",Flamingo Bowl,Saint Louis,MO
11074,98MWGHFybDPH1lcTIJp9DA,b_98MWGHFybDPH1lcTIJp9DA,38.6742565,-90.3547393,"38.6742565000,-90.3547393000",Shu Feng Restaurant,Saint Louis,MO
11075,ETsopXa5Sk_pvfy3-grE9g,b_ETsopXa5Sk_pvfy3-grE9g,38.6021958,-90.4648699,"38.6021958000,-90.4648699000",Hunan Star,Saint Louis,MO
11076,1MeIwdbTnZOBFCKOrgaxuw,b_1MeIwdbTnZOBFCKOrgaxuw,38.6172724,-90.2127841,"38.6172724000,-90.2127841000",Ricardo's Italian Cafe,Saint Louis,MO
11077,-iyh8GIz8oNZbpFpu3Y49Q,b_-iyh8GIz8oNZbpFpu3Y49Q,38.6556374,-90.2978898,"38.6556374000,-90.2978898000",Halo Bar,Saint Louis,MO
11078,VYTFqb1NVLleeStQaUEP0Q,b_VYTFqb1NVLleeStQaUEP0Q,38.6318800295,-90.1843530734,"38.6318800295,-90.1843530734",Burger Bar at Lumiere Place,Saint Louis,MO
11079,M14IAXCIOppu2swaMc12tQ,b_M14IAXCIOppu2swaMc12tQ,38.6518,-90.341814,"38.6518000000,-90.3418140000",Cardwell's Restaurant & Bar,Saint Louis,MO
11080,G6Drpd_t48w4qTVfOZ4QHw,b_G6Drpd_t48w4qTVfOZ4QHw,38.5938355,-90.2955972,"38.5938355000,-90.2955972000",Barney's Sport Pub,Saint Louis,MO
11081,4cqTZdRAPN3qddlX4kKddA,b_4cqTZdRAPN3qddlX4kKddA,38.5657147,-90.2564971,"38.5657147000,-90.2564971000",DOC Holloway's Auto Repair,Saint Louis,MO
11082,9U76lq1i3qzNZfRPSMceZg,b_9U76lq1i3qzNZfRPSMceZg,38.6127332,-90.319027,"38.6127332000,-90.3190270000",El Scorcho,Saint Louis,MO
11083,QAdaeyJlY8deDP_QbN9ycA,b_QAdaeyJlY8deDP_QbN9ycA,38.6088527,-90.2054727,"38.6088527000,-90.2054727000",Chava's Mexican Restaurant,Saint Louis,MO
11084,lQ58_4SzdETRSw0h8tilhA,b_lQ58_4SzdETRSw0h8tilhA,38.5968992,-90.271211,"38.5968992000,-90.2712110000",Uncle Bill's Pancake & Dinner House,Saint Louis,MO
11085,k1_j2d6W8Ij4FIAuYf7-rg,b_k1_j2d6W8Ij4FIAuYf7-rg,38.6320826,-90.4047651,"38.6320826000,-90.4047651000",POPtions!,Saint Louis,MO
11086,yrr7jg2oC46Bf-xbwtCI7g,b_yrr7jg2oC46Bf-xbwtCI7g,38.7017931394,-90.4474416398,"38.7017931394,-90.4474416398",Paul Mineo's Trattoria,Saint Louis,MO
11087,f3TAMps_VtoXLs563hGB6A,b_f3TAMps_VtoXLs563hGB6A,38.627983,-90.190316,"38.6279830000,-90.1903160000",Carlos' Hot Dogs,Saint Louis,MO
11088,FtGvIankbtTeC7YMflVgqg,b_FtGvIankbtTeC7YMflVgqg,38.579998,-90.294021,"38.5799980000,-90.2940210000",Del Pietros Ristorante D'italiano,Saint Louis,MO
11089,jwZVvDOinXgCQrUxXr9alw,b_jwZVvDOinXgCQrUxXr9alw,38.6268568,-90.2587222,"38.6268568000,-90.2587222000",Newstead Tower Public House,Saint Louis,MO
11090,78Z_nKGG4IjHw-yVCQbLYA,b_78Z_nKGG4IjHw-yVCQbLYA,38.614228,-90.319124,"38.6142280000,-90.3191240000",Shop 'n Save,Saint Louis,MO
11091,k9Ms586e_elwkuSfku4Q1w,b_k9Ms586e_elwkuSfku4Q1w,38.6087962316,-90.2886201316,"38.6087962316,-90.2886201316",Elicia's Pizza,Saint Louis,MO
11092,1jSL90jj7k95OsSaQL5O-A,b_1jSL90jj7k95OsSaQL5O-A,38.6330885,-90.3047184,"38.6330885000,-90.3047184000",Amoco,Saint Louis,MO
11093,ELUxZOuHj2MrMXV3mg3zVQ,b_ELUxZOuHj2MrMXV3mg3zVQ,38.6026628,-90.2616698,"38.6026628000,-90.2616698000",Three Monkeys,Saint Louis,MO
11094,1XNty4tSuboMNiJarhdP8A,b_1XNty4tSuboMNiJarhdP8A,38.641128,-90.249574,"38.6411280000,-90.2495740000",SOL,Saint Louis,MO
11095,_aKr7POnacW_VizRKBpCiA,b__aKr7POnacW_VizRKBpCiA,38.605024,-90.2181096,"38.6050240000,-90.2181096000",Blues City Deli,Saint Louis,MO
11096,ilMm5DJviWLqakujmBFGvQ,b_ilMm5DJviWLqakujmBFGvQ,38.639014,-90.185523,"38.6390140000,-90.1855230000",Shady Jack's Saloon,Saint Louis,MO
11097,IrfB_rEkkMXdruJElu_a1w,b_IrfB_rEkkMXdruJElu_a1w,38.6385408,-90.2315385,"38.6385408000,-90.2315385000",Best Steak House,Saint Louis,MO
11098,uIYodhuKvXEWd6jEGK9l0g,b_uIYodhuKvXEWd6jEGK9l0g,38.6282349581,-90.1948130497,"38.6282349581,-90.1948130497",Cafe Breve,Saint Louis,MO
11099,paBWJ6VBIy4-eXVH3iGFFA,b_paBWJ6VBIy4-eXVH3iGFFA,38.6288088,-90.2875885,"38.6288088000,-90.2875885000",Courtesy Diner,Saint Louis,MO
11100,ULReFPrCIDRbGKwP3ZsHwg,b_ULReFPrCIDRbGKwP3ZsHwg,38.5857552,-90.2768425,"38.5857552000,-90.2768425000",Eddie's Southtown Donuts,Saint Louis,MO
11101,wOTgc9SPrAtFS1qagWQyNw,b_wOTgc9SPrAtFS1qagWQyNw,38.6362225,-90.44652,"38.6362225000,-90.4465200000",Missouri Baptist Medical Center,Saint Louis,MO
11102,EtmJPrFbI-Q_Ww7t_DOzMw,b_EtmJPrFbI-Q_Ww7t_DOzMw,38.65588,-90.3056797,"38.6558800000,-90.3056797000",Twisted Olive,Saint Louis,MO
11103,Qqo7TItt-GRiNNXahVQXMw,b_Qqo7TItt-GRiNNXahVQXMw,38.6541223,-90.2634346,"38.6541223000,-90.2634346000",Popeyes Louisiana Kitchen,Saint Louis,MO
11104,rirTJSLLC06EfwGG2l_H3A,b_rirTJSLLC06EfwGG2l_H3A,38.6181131,-90.2726441,"38.6181131000,-90.2726441000",Giovanni's On the Hill,Saint Louis,MO
11105,D1LrSilfiSfZmNwkf6e7Zg,b_D1LrSilfiSfZmNwkf6e7Zg,38.5940199,-90.2476849,"38.5940199000,-90.2476849000",Grey Fox Pub,Saint Louis,MO
11106,F1Kb-3QR-VG0KknDP-8t0w,b_F1Kb-3QR-VG0KknDP-8t0w,38.6272675,-90.1910258,"38.6272675000,-90.1910258000",Zuzu Handmade Mexican Food,Saint Louis,MO
11107,NfO40ce0Z2M_IuRY7s_-XQ,b_NfO40ce0Z2M_IuRY7s_-XQ,38.6556913,-90.3036679,"38.6556913000,-90.3036679000",HSB Tobacconist,Saint Louis,MO
11108,KaegbIAoE43daoall4B0kQ,b_KaegbIAoE43daoall4B0kQ,38.588797,-90.344154,"38.5887970000,-90.3441540000",Repertory Theatre of St Louis,Saint Louis,MO
11109,rtZ0gvjmT48R1ogYADLp1Q,b_rtZ0gvjmT48R1ogYADLp1Q,38.6390693,-90.2336274,"38.6390693000,-90.2336274000",St. Louis Public Radio 90.7 KWMU,Saint Louis,MO
11110,RKVZbcCKNcAM5Jk_cV7I9A,b_RKVZbcCKNcAM5Jk_cV7I9A,38.5999553,-90.2118706,"38.5999553000,-90.2118706000",Sage,Saint Louis,MO
11111,iDZmCTXMxZi_HlAmOKyEeQ,b_iDZmCTXMxZi_HlAmOKyEeQ,38.6150126,-90.2751171,"38.6150126000,-90.2751171000",Mama's On the Hill,Saint Louis,MO
11112,7qqpg10EDC5N_eRElxwdfQ,b_7qqpg10EDC5N_eRElxwdfQ,38.6115039,-90.339729,"38.6115039000,-90.3397290000",Sports Attic,Saint Louis,MO
11113,I_3LMZ_1m2mzR0oLIOePIg,b_I_3LMZ_1m2mzR0oLIOePIg,38.6351465972,-90.2240032723,"38.6351465972,-90.2240032723",Pappy's Smokehouse,Saint Louis,MO
11114,YDZYS4lKc_N7uZiWUDLO4g,b_YDZYS4lKc_N7uZiWUDLO4g,38.6277503967,-90.1995620728,"38.6277503967,-90.1995620728",Diversity Gallery,Saint Louis,MO
11115,e_MwdYi4aF8jAH158YiTNA,b_e_MwdYi4aF8jAH158YiTNA,38.6557466,-90.3008124,"38.6557466000,-90.3008124000",The Delmar Restaurant & Lounge,Saint Louis,MO
11116,MuA75bQiofYBisrS7bzqww,b_MuA75bQiofYBisrS7bzqww,38.6483492,-90.2607243,"38.6483492000,-90.2607243000",Sapphire Pan-Asian,Saint Louis,MO
11117,myg9wV_3IgHGa-pVKVjijA,b_myg9wV_3IgHGa-pVKVjijA,38.5987284,-90.2426342,"38.5987284000,-90.2426342000",Meskerem Ethiopian Restaurant,Saint Louis,MO
11118,33l2XVp01d8kltTs_UMJ8A,b_33l2XVp01d8kltTs_UMJ8A,38.6409404,-90.3678962,"38.6409404000,-90.3678962000",Truffles,Saint Louis,MO
11119,bAUQSI186koK1aP8k3z9Ug,b_bAUQSI186koK1aP8k3z9Ug,38.636629,-90.348493,"38.6366290000,-90.3484930000",Galleria 6 Cinemas,Saint Louis,MO
11120,qKTjtjNSHNj8g2ugXlmkTA,b_qKTjtjNSHNj8g2ugXlmkTA,38.6381056,-90.3425969,"38.6381056000,-90.3425969000",Kitchen Conservatory,Saint Louis,MO
11121,nB4hE3jJFUmtQSuwk8ODiQ,b_nB4hE3jJFUmtQSuwk8ODiQ,38.530865,-90.429184,"38.5308650000,-90.4291840000",Tapawingo National Golf Club,Saint Louis,MO
11122,ypiSCGSM54TYtlqovhu4nQ,b_ypiSCGSM54TYtlqovhu4nQ,38.584359,-90.2636715,"38.5843590000,-90.2636715000",Luna Lounge,Saint Louis,MO
11123,6zmgUO4X9XN0vV_XY-pgSg,b_6zmgUO4X9XN0vV_XY-pgSg,38.6335758,-90.2004238,"38.6335758000,-90.2004238000",Windows Off Washington,Saint Louis,MO
11124,aHHK_n_wGElui6oDmRCL4A,b_aHHK_n_wGElui6oDmRCL4A,38.6427816,-90.3335356,"38.6427816000,-90.3335356000",Protzel's Delicatessen,Saint Louis,MO
11125,FryXEasH74MQDnj5Bvz3QA,b_FryXEasH74MQDnj5Bvz3QA,38.5929471724,-90.2221437,"38.5929471724,-90.2221437000",The Mud House,Saint Louis,MO
11126,WE3D52UfHvvVdTHgzJ_1vw,b_WE3D52UfHvvVdTHgzJ_1vw,38.6260867635,-90.346276589,"38.6260867635,-90.3462765890",Double D Lounge,Saint Louis,MO
11127,iN-dxbDqVDHmbYlT-JksKw,b_iN-dxbDqVDHmbYlT-JksKw,38.6351743,-90.1814549,"38.6351743000,-90.1814549000",North Riverfront Trail,Saint Louis,MO
11128,Xk6GSFf8KGGZ3cyYijwRcw,b_Xk6GSFf8KGGZ3cyYijwRcw,38.629913,-90.186535,"38.6299130000,-90.1865350000",Tigin Irish Pub,Saint Louis,MO
11129,lgkSe600gjOqHe0q50mr8Q,b_lgkSe600gjOqHe0q50mr8Q,38.6001454,-90.2201659,"38.6001454000,-90.2201659000",McLozzi Deli and Marketplace,Saint Louis,MO
11130,WasJguDWjpFKcImCRxYsCQ,b_WasJguDWjpFKcImCRxYsCQ,38.5379535749,-90.2824610072,"38.5379535749,-90.2824610072",The Dry Dock,Saint Louis,MO
11131,t15pblhsTMQqp7Rh7KgHVA,b_t15pblhsTMQqp7Rh7KgHVA,38.5244804,-90.3560444,"38.5244804000,-90.3560444000",Schottzie's Bar & Grill,Saint Louis,MO
11132,IAUTACBuUqSdFDcL2GsZ8Q,b_IAUTACBuUqSdFDcL2GsZ8Q,38.6278884,-90.2927083,"38.6278884000,-90.2927083000",Urban Breath Yoga,Saint Louis,MO
11133,8UsBkPCDyBIR8xgIA9Moiw,b_8UsBkPCDyBIR8xgIA9Moiw,38.6158523,-90.2730366,"38.6158523000,-90.2730366000",Milo's Tavern,Saint Louis,MO
11134,QT3kpKdyFrUFD7vuQWXbHQ,b_QT3kpKdyFrUFD7vuQWXbHQ,38.5097131,-90.3752167,"38.5097131000,-90.3752167000",Hunan Royal,Saint Louis,MO
11135,IJjpo6_n4nZWG25kDIFfBA,b_IJjpo6_n4nZWG25kDIFfBA,38.6075894,-90.2047769,"38.6075894000,-90.2047769000",The Shanti,Saint Louis,MO
11136,lWBBSxkvozGBXk0gC2SgCA,b_lWBBSxkvozGBXk0gC2SgCA,38.6373465,-90.3451989,"38.6373465000,-90.3451989000",Yen Ching Restaurant,Saint Louis,MO
11137,1TEEvTBN-41nOpFFd1vmOw,b_1TEEvTBN-41nOpFFd1vmOw,38.5905664542,-90.3393225889,"38.5905664542,-90.3393225889",Webster Garden,Saint Louis,MO
11138,YobaJD8A-K80qKzYsKhlEg,b_YobaJD8A-K80qKzYsKhlEg,38.640012,-90.476098,"38.6400120000,-90.4760980000",AAA Motor Club,Saint Louis,MO
11139,H91qZiLaUQEHNkDP4DO5pg,b_H91qZiLaUQEHNkDP4DO5pg,38.6346551,-90.3148277,"38.6346551000,-90.3148277000",Katie's Pizza,Saint Louis,MO
11140,6RsOLmgiwyhdzl-ajCo6vA,b_6RsOLmgiwyhdzl-ajCo6vA,38.561397,-90.4069039,"38.5613970000,-90.4069039000",Plato's Closet,Saint Louis,MO
11141,GCdX9u-msiqKqim1A2B4-A,b_GCdX9u-msiqKqim1A2B4-A,38.521642,-90.362807,"38.5216420000,-90.3628070000",Rollercade Skating Rink,Saint Louis,MO
11142,H8vEXnLCkKMtTlXwcRltYA,b_H8vEXnLCkKMtTlXwcRltYA,38.6161989,-90.2854112,"38.6161989000,-90.2854112000",Catering St Louis,Saint Louis,MO
11143,lcXCGpX7rvrvvjrfncWytQ,b_lcXCGpX7rvrvvjrfncWytQ,38.6735906,-90.3603729,"38.6735906000,-90.3603729000",Bavarian Enterprises,Saint Louis,MO
11144,tOS3RnobKqDaRQXw5UMnyQ,b_tOS3RnobKqDaRQXw5UMnyQ,38.601067,-90.452895,"38.6010670000,-90.4528950000",Casa Gallardo Mexican Restaurant & Cantina,Saint Louis,MO
11145,wh1FRxZaHNBimZ2gjk_C9g,b_wh1FRxZaHNBimZ2gjk_C9g,38.5844184,-90.2927516,"38.5844184000,-90.2927516000",Xtreme Tan,Saint Louis,MO
11146,PwbaCaNFxHwiB2Q9Nwo90w,b_PwbaCaNFxHwiB2Q9Nwo90w,38.6563928,-90.3067378,"38.6563928000,-90.3067378000",Sole & Blues,Saint Louis,MO
11147,NMY2ZYOYLfQyp4k_YIz5sQ,b_NMY2ZYOYLfQyp4k_YIz5sQ,38.6760959,-90.4616873,"38.6760959000,-90.4616873000",Penn Station East Coast Subs,Saint Louis,MO
11148,4oe5dLfE283zx0aw6BHKTA,b_4oe5dLfE283zx0aw6BHKTA,38.649127,-90.261073,"38.6491270000,-90.2610730000",Dressel's Public House,Saint Louis,MO
11149,r6dpLTFHAs2MxuXxH1FT6w,b_r6dpLTFHAs2MxuXxH1FT6w,38.60546,-90.223183,"38.6054600000,-90.2231830000",Trader Bob's Tattoo Shop,Saint Louis,MO
11150,_TbQ5yv_U5COLgRfWtYPNQ,b__TbQ5yv_U5COLgRfWtYPNQ,38.6237826,-90.3358115,"38.6237826000,-90.3358115000",Animal Protective Association,Saint Louis,MO
11151,0DPQukWX45rqOIfDV40e3g,b_0DPQukWX45rqOIfDV40e3g,38.6150248,-90.3124099,"38.6150248000,-90.3124099000",Agave Mexican Table & Tequileria,Saint Louis,MO
11152,ueJFblv3esW2xjqO7IepGg,b_ueJFblv3esW2xjqO7IepGg,38.6703663,-90.203434,"38.6703663000,-90.2034340000",Bissell Mansion Restaurant and Murder Mystery Dinner Theatre,Saint Louis,MO
11153,AmkJvX5mAQQ-4cPNJsVnOQ,b_AmkJvX5mAQQ-4cPNJsVnOQ,38.4874937,-90.381751,"38.4874937000,-90.3817510000",South County Antique Mall,Saint Louis,MO
11154,8hno9fk-l7r5r8HdouKoew,b_8hno9fk-l7r5r8HdouKoew,38.6558961,-90.3025079,"38.6558961000,-90.3025079000",Subterranean Books,Saint Louis,MO
11155,7glfum-JcIAjxD5fJ92Wig,b_7glfum-JcIAjxD5fJ92Wig,38.6116554,-90.3350209,"38.6116554000,-90.3350209000",Joy Luck Buffet,Saint Louis,MO
11156,cFk2SMsJ-2cmXKLFFkP9JA,b_cFk2SMsJ-2cmXKLFFkP9JA,38.6096531,-90.2217016,"38.6096531000,-90.2217016000",Fritanga,Saint Louis,MO
11157,1EdfURQCj75UbcLPh9rdSw,b_1EdfURQCj75UbcLPh9rdSw,38.4673084,-90.3062955,"38.4673084000,-90.3062955000",Garvey's Grill,Saint Louis,MO
11158,akexLKOOA1jkesWms9M0wg,b_akexLKOOA1jkesWms9M0wg,38.6005295,-90.2241406,"38.6005295000,-90.2241406000",Park West Grille,Saint Louis,MO
11159,zmqVhqlw8RTqSPwNYZYzjg,b_zmqVhqlw8RTqSPwNYZYzjg,38.5238231,-90.3624784,"38.5238231000,-90.3624784000",Klipper's Pub & Grill,Saint Louis,MO
11160,1Gm0k-SzLB-jTZxVxuvcOg,b_1Gm0k-SzLB-jTZxVxuvcOg,38.5765406,-90.2404238,"38.5765406000,-90.2404238000",Crusoe's Original,Saint Louis,MO
11161,8NKKQv7GL-S3je-A2IQThA,b_8NKKQv7GL-S3je-A2IQThA,38.6180427,-90.2722666,"38.6180427000,-90.2722666000",Shaw's Coffee,Saint Louis,MO
11162,wDvsPzEg3uJoGXai_4y2AA,b_wDvsPzEg3uJoGXai_4y2AA,38.586142,-90.240628,"38.5861420000,-90.2406280000",Dad's Cookie Company,Saint Louis,MO
11163,YHHGQiH06KH4XSlNm_XsEQ,b_YHHGQiH06KH4XSlNm_XsEQ,38.5826958,-90.2928838,"38.5826958000,-90.2928838000",The Record Exchange,Saint Louis,MO
11164,14Fe3B0g4Z6a_6NT2z0c-A,b_14Fe3B0g4Z6a_6NT2z0c-A,38.617783,-90.299791,"38.6177830000,-90.2997910000",Kmart,Saint Louis,MO
11165,5FjDmwLx0sqTjyxfwatnIw,b_5FjDmwLx0sqTjyxfwatnIw,38.593962,-90.297005,"38.5939620000,-90.2970050000",IHOP,Saint Louis,MO
11166,hw0O24rFx1BU5ZLlKBZYNg,b_hw0O24rFx1BU5ZLlKBZYNg,38.496951,-90.338226,"38.4969510000,-90.3382260000",Keller Plaza Cinema,Saint Louis,MO
11167,w8tS6xq3k3lmySn-L3FrEw,b_w8tS6xq3k3lmySn-L3FrEw,38.6813611,-90.4760971,"38.6813611000,-90.4760971000",St. Louis Bubble Tea,Saint Louis,MO
11168,RzwkGWtvkFb0ro3cpSgm4w,b_RzwkGWtvkFb0ro3cpSgm4w,38.6048531,-90.3322017,"38.6048531000,-90.3322017000",Cousin Hugo's Bar & Grill,Saint Louis,MO
11169,cGkaTLdpyOd-LW9xCoICqw,b_cGkaTLdpyOd-LW9xCoICqw,38.6694928,-90.3524784,"38.6694928000,-90.3524784000",Ruth Park Golf Course,Saint Louis,MO
11170,VpJzlz3bKOJtiI1rb9kTpw,b_VpJzlz3bKOJtiI1rb9kTpw,38.597769,-90.4756217,"38.5977690000,-90.4756217000",Saffron,Saint Louis,MO
11171,QBr5lv1G-017qXzX0lBiOg,b_QBr5lv1G-017qXzX0lBiOg,38.653904,-90.3519459,"38.6539040000,-90.3519459000",Maggiemoo's,Saint Louis,MO
11172,InLml1zs6WgAaxpB7ZfMbw,b_InLml1zs6WgAaxpB7ZfMbw,38.7439085534,-90.3666687012,"38.7439085534,-90.3666687012",Super Park,Saint Louis,MO
11173,uEOQXyrBXrfEFL_GgsxNMA,b_uEOQXyrBXrfEFL_GgsxNMA,38.5942047,-90.231318,"38.5942047000,-90.2313180000",Apop Records,Saint Louis,MO
11174,WCa5jq5LG-wuwpUQVsktTA,b_WCa5jq5LG-wuwpUQVsktTA,38.5066059,-90.3802465,"38.5066059000,-90.3802465000",Mercy Hospital South,Saint Louis,MO
11175,cvmlCw0J6R5KtAlPgkO5Rw,b_cvmlCw0J6R5KtAlPgkO5Rw,38.6333623,-90.3191872,"38.6333623000,-90.3191872000",Hank's Cheesecakes,Saint Louis,MO
11176,xSGdaoOEbEUf4AqFQCKWxA,b_xSGdaoOEbEUf4AqFQCKWxA,38.619088,-90.2692022,"38.6190880000,-90.2692022000",Chocolate Chocolate Chocolate,Saint Louis,MO
11177,MaYb7qMN6BomP1zQGj3Wjg,b_MaYb7qMN6BomP1zQGj3Wjg,38.6550126,-90.2977613,"38.6550126000,-90.2977613000",Pi Pizzeria - Delmar Loop,Saint Louis,MO
11178,Q_Gw7v7jPL7yRinOaLCeOQ,b_Q_Gw7v7jPL7yRinOaLCeOQ,38.6452993998,-90.2859020233,"38.6452993998,-90.2859020233",Missouri History Museum,Saint Louis,MO
11179,giEJm-5fmEyf_s3_9tgTKg,b_giEJm-5fmEyf_s3_9tgTKg,38.6553318,-90.3056024,"38.6553318000,-90.3056024000",Wong's Wok,Saint Louis,MO
11180,ZcSdZkosdUL3mFAaNS2xAA,b_ZcSdZkosdUL3mFAaNS2xAA,38.6385014,-90.2507484,"38.6385014000,-90.2507484000",Northwest Coffee Roasting Company,Saint Louis,MO
11181,lUibr06avmSFjpXcBR1c7g,b_lUibr06avmSFjpXcBR1c7g,38.608855,-90.2013687,"38.6088550000,-90.2013687000",Soulard's Restaurant & Bar,Saint Louis,MO
11182,GeYXCxwMKLGVOACFXcsMdQ,b_GeYXCxwMKLGVOACFXcsMdQ,38.6786185285,-90.4610667826,"38.6786185285,-90.4610667826",Marshalls,Saint Louis,MO
11183,aB87dhUScrx4zW_mJD7jKw,b_aB87dhUScrx4zW_mJD7jKw,38.6742338,-90.3547588,"38.6742338000,-90.3547588000",Imo's Pizza,Saint Louis,MO
11184,ikONTzFKwachQtFtoMGeIQ,b_ikONTzFKwachQtFtoMGeIQ,38.6288201,-90.293166,"38.6288201000,-90.2931660000",Felix's Pizza Pub,Saint Louis,MO
11185,lyek6DDpmba7SWw2STSKHw,b_lyek6DDpmba7SWw2STSKHw,38.6493866,-90.2572121,"38.6493866000,-90.2572121000",Bowood Farms,Saint Louis,MO
11186,yGKeP2m3RefZY-kFqjTNGQ,b_yGKeP2m3RefZY-kFqjTNGQ,38.5917154579,-90.2937792102,"38.5917154579,-90.2937792102",Noodles & Company,Saint Louis,MO
11187,aFzz6Y6xJrVz5D5EDgpgvg,b_aFzz6Y6xJrVz5D5EDgpgvg,38.5932533,-90.2996745,"38.5932533000,-90.2996745000",Fazoli's,Saint Louis,MO
11188,oizFhdG9op9AuIhmXB6vbA,b_oizFhdG9op9AuIhmXB6vbA,38.6171282417,-90.2728371166,"38.6171282417,-90.2728371166",Bertarelli,Saint Louis,MO
11189,uFQ9ZDsdImCjqA_Uzyl-zg,b_uFQ9ZDsdImCjqA_Uzyl-zg,38.6606728,-90.3486075,"38.6606728000,-90.3486075000",Perfect Fit Tailor Shop & Alterations,Saint Louis,MO
11190,cC8PZ_FhQNnMm2YCYyOA1A,b_cC8PZ_FhQNnMm2YCYyOA1A,38.6251396528,-90.1909276843,"38.6251396528,-90.1909276843",Hilton St. Louis at the Ballpark,Saint Louis,MO
11191,tJY4vxNuEXpLlWLD7SvQZQ,b_tJY4vxNuEXpLlWLD7SvQZQ,38.627655,-90.28712,"38.6276550000,-90.2871200000",Smokin Al's BBQ,Saint Louis,MO
11192,iK_T56DTbThoxtI7mJpzPA,b_iK_T56DTbThoxtI7mJpzPA,38.592103,-90.3364863,"38.5921030000,-90.3364863000",Webster Groves Animal Hospital & Urgent Care Center,Saint Louis,MO
11193,oO2ZNCM4nJXV62TJDGHPww,b_oO2ZNCM4nJXV62TJDGHPww,38.5937065,-90.3597945,"38.5937065000,-90.3597945000",Euclid Records,Saint Louis,MO
11194,Z7Dy49LlcTD92rfJfA8NTw,b_Z7Dy49LlcTD92rfJfA8NTw,38.565221,-90.353315,"38.5652210000,-90.3533150000",Sappington Farmers' Market,Saint Louis,MO
11195,h_RQXD7IKwDkVU_n67UG4w,b_h_RQXD7IKwDkVU_n67UG4w,38.6084576,-90.2051703,"38.6084576000,-90.2051703000",Soulard Coffee Garden,Saint Louis,MO
11196,7mGSN_GuelvKVYnqmvprnQ,b_7mGSN_GuelvKVYnqmvprnQ,38.5918351,-90.3376933,"38.5918351000,-90.3376933000",The Natural Way,Saint Louis,MO
11197,PxtxYG-Mo0XSWM46MCQ7pQ,b_PxtxYG-Mo0XSWM46MCQ7pQ,38.581082,-90.4083519,"38.5810820000,-90.4083519000",Down by the Station,Saint Louis,MO
11198,gWiLMICKe655Xrs_RpxS2Q,b_gWiLMICKe655Xrs_RpxS2Q,38.6155455,-90.349942,"38.6155455000,-90.3499420000",The Face and The Body Spa & Salon,Saint Louis,MO
11199,lTNknj73Idb-dSlrDJ6qjw,b_lTNknj73Idb-dSlrDJ6qjw,38.639387,-90.262068,"38.6393870000,-90.2620680000",Tom's Bar & Grill,Saint Louis,MO
11200,aTb1Kn6to6o9DJ3OoDOcJg,b_aTb1Kn6to6o9DJ3OoDOcJg,38.6107368,-90.3571307,"38.6107368000,-90.3571307000",Schiller's Camera,Saint Louis,MO
11201,Uo7DwnBqlkRVZedFHlTRCg,b_Uo7DwnBqlkRVZedFHlTRCg,38.6387101,-90.2584303,"38.6387101000,-90.2584303000",Imo's Pizza,Saint Louis,MO
11202,iESLDNx67PpLDnMFR8eDPw,b_iESLDNx67PpLDnMFR8eDPw,38.6167548,-90.2618173,"38.6167548000,-90.2618173000",World's Fair Donuts,Saint Louis,MO
11203,Gv1viz1bePCzeWDNc4tosA,b_Gv1viz1bePCzeWDNc4tosA,38.6169681,-90.2609338311,"38.6169681000,-90.2609338311",Gringo Jones Imports,Saint Louis,MO
11204,IED_PMc7gbscojJjKpSxhw,b_IED_PMc7gbscojJjKpSxhw,38.6169611,-90.261127,"38.6169611000,-90.2611270000",The Bug Store,Saint Louis,MO
11205,LlZtkQlmFx6GcF-kyz7gqA,b_LlZtkQlmFx6GcF-kyz7gqA,38.524062,-90.357412,"38.5240620000,-90.3574120000",Eat-Rite Diner,Saint Louis,MO
11206,6JekbYlD5cGNBEEhZRHKAQ,b_6JekbYlD5cGNBEEhZRHKAQ,38.4786376,-90.3051404,"38.4786376000,-90.3051404000",Frankie Gs Grill & Bar,Saint Louis,MO
11207,05ZNtpZKsBqtVAS-f3xg7Q,b_05ZNtpZKsBqtVAS-f3xg7Q,38.5244585,-90.356504,"38.5244585000,-90.3565040000",Breuer Auto Service,Saint Louis,MO
11208,RHWUf8xoLQUioWn5syliVw,b_RHWUf8xoLQUioWn5syliVw,38.6775632,-90.4608283,"38.6775632000,-90.4608283000",Cecil Whittaker's Pizzeria,Saint Louis,MO
11209,fOuAWiTxrkkMbowcfo1L1Q,b_fOuAWiTxrkkMbowcfo1L1Q,38.632093,-90.305588,"38.6320930000,-90.3055880000",Del Taco,Saint Louis,MO
11210,sjE5w4MiRYJ9Sw1UPh6tWw,b_sjE5w4MiRYJ9Sw1UPh6tWw,38.6103223,-90.2027676,"38.6103223000,-90.2027676000",Carson’s,Saint Louis,MO
11211,P2hXKZohTtKkLir8SVBbYQ,b_P2hXKZohTtKkLir8SVBbYQ,38.580294,-90.268975,"38.5802940000,-90.2689750000",Berix Coffee & Deli,Saint Louis,MO
11212,KkWQcqDPsZb6K5R5T-XJCg,b_KkWQcqDPsZb6K5R5T-XJCg,38.593772,-90.243397,"38.5937720000,-90.2433970000",Taco Bell,Saint Louis,MO
11213,CIZiGL2t5x-WcmWMyzuKaA,b_CIZiGL2t5x-WcmWMyzuKaA,38.6174881,-90.192364,"38.6174881000,-90.1923640000",Imo's Pizza,Saint Louis,MO
11214,MSVZaUMtfPr4q8lFsiu-Cg,b_MSVZaUMtfPr4q8lFsiu-Cg,38.632948,-90.308953,"38.6329480000,-90.3089530000",Parker's Table,Saint Louis,MO
11215,eQjN4s90I1fr-0DiLvEGTg,b_eQjN4s90I1fr-0DiLvEGTg,38.6348582,-90.2242288,"38.6348582000,-90.2242288000",Buffalo Brewing Co,Saint Louis,MO
11216,o7ITqk3OJvSm-kJRdd4VOQ,b_o7ITqk3OJvSm-kJRdd4VOQ,38.6324654,-90.1984158,"38.6324654000,-90.1984158000",Boxers,Saint Louis,MO
11217,bRF8nyWgzrzhQ31NoflMBA,b_bRF8nyWgzrzhQ31NoflMBA,38.628419,-90.193352,"38.6284190000,-90.1933520000",Cafe Cioccolato,Saint Louis,MO
11218,1_ZVtdiZpBNsXaO4ObPtbw,b_1_ZVtdiZpBNsXaO4ObPtbw,38.6013692,-90.2991089,"38.6013692000,-90.2991089000",Stellina Pasta Cafe,Saint Louis,MO
11219,ZmLNChQtn_P2Mnl9lFfLrQ,b_ZmLNChQtn_P2Mnl9lFfLrQ,38.6315433,-90.1956301,"38.6315433000,-90.1956301000",Bridge & Tunnel Pizza,Saint Louis,MO
11220,LB1Jh6yrslRT-X88AyhWkQ,b_LB1Jh6yrslRT-X88AyhWkQ,38.541206,-90.3003528,"38.5412060000,-90.3003528000",The Lodge at Grant's Trail,Saint Louis,MO
11221,rdtx0kMDoC15FvNyom6W_g,b_rdtx0kMDoC15FvNyom6W_g,38.6164351,-90.2709037,"38.6164351000,-90.2709037000",J Devoti Trattoria,Saint Louis,MO
11222,jcID5BHm5-RINzRWmwr9Rg,b_jcID5BHm5-RINzRWmwr9Rg,38.592205,-90.218867,"38.5922050000,-90.2188670000",O'Malley's Irish Pub,Saint Louis,MO
11223,5hCJhM18wNeNV4SbMDlZJQ,b_5hCJhM18wNeNV4SbMDlZJQ,38.6352147,-90.2241684,"38.6352147000,-90.2241684000",The U,Saint Louis,MO
11224,2qvblNY9_owsn7v_YtY_nw,b_2qvblNY9_owsn7v_YtY_nw,38.638847,-90.2420944,"38.6388470000,-90.2420944000",Govinda's,Saint Louis,MO
11225,w0fzygQfK87lITYDMPiCSg,b_w0fzygQfK87lITYDMPiCSg,38.5945422,-90.2540313,"38.5945422000,-90.2540313000",Friendly's Restaurant & Bar,Saint Louis,MO
11226,JRUrOUg6XnvwONPZsd7BtA,b_JRUrOUg6XnvwONPZsd7BtA,38.562592,-90.372224,"38.5625920000,-90.3722240000",Monkey Joe's,Saint Louis,MO
11227,aSfbQpDswUF18wT5pTFB9g,b_aSfbQpDswUF18wT5pTFB9g,38.5914661365,-90.338543566,"38.5914661365,-90.3385435660",Webster Wok,Saint Louis,MO
11228,YOqryoMizFh1xMHRPnyCLw,b_YOqryoMizFh1xMHRPnyCLw,38.591577,-90.338026,"38.5915770000,-90.3380260000",The Grove Deli,Saint Louis,MO
11229,87Ib1kJWiaULafXY1lFcIg,b_87Ib1kJWiaULafXY1lFcIg,38.570146,-90.476857,"38.5701460000,-90.4768570000",Super Wok,Saint Louis,MO
11230,qj5NGHlVMxO2P00krUD0kw,b_qj5NGHlVMxO2P00krUD0kw,38.6326367,-90.3051223,"38.6326367000,-90.3051223000",Hi-Pointe Theatre,Saint Louis,MO
11231,1Ob3XOZ9LqmGSc1sB4cLVA,b_1Ob3XOZ9LqmGSc1sB4cLVA,38.6022147,-90.2398216,"38.6022147000,-90.2398216000",Riley's Pub,Saint Louis,MO
11232,feepVXAWaozuV9OlXmXmcQ,b_feepVXAWaozuV9OlXmXmcQ,38.5959003,-90.3606586,"38.5959003000,-90.3606586000",Big Bend Yoga Center,Saint Louis,MO
11233,BFc5IuSKo8ISyMI-nKiYCg,b_BFc5IuSKo8ISyMI-nKiYCg,38.6760193,-90.4650114,"38.6760193000,-90.4650114000",Creve Coeur Animal Hospital,Saint Louis,MO
11234,yTs82afNaGIJ4LzZq9Z65A,b_yTs82afNaGIJ4LzZq9Z65A,38.603306,-90.2152909,"38.6033060000,-90.2152909000",Veruca Bakehouse and Cafe,Saint Louis,MO
11235,NiljjvbIIzQPxIPqeLLg2Q,b_NiljjvbIIzQPxIPqeLLg2Q,38.607224,-90.210163,"38.6072240000,-90.2101630000",Tucker's Place,Saint Louis,MO
11236,iCli98lWdEh_5xyWzBvE5g,b_iCli98lWdEh_5xyWzBvE5g,38.6400817,-90.2491855,"38.6400817000,-90.2491855000",Walgreens,Saint Louis,MO
11237,O88D3UXolC40wsSpYNhvUw,b_O88D3UXolC40wsSpYNhvUw,38.6405635,-90.2349529,"38.6405635000,-90.2349529000",Contemporary Art Museum St Louis,Saint Louis,MO
11238,R-DO1ffBbXzWru-UcSJaLw,b_R-DO1ffBbXzWru-UcSJaLw,38.6304079,-90.1962815,"38.6304079000,-90.1962815000",Salt of the Earth,Saint Louis,MO
11239,tSkopkuxZ6s-UYKCMRHJLg,b_tSkopkuxZ6s-UYKCMRHJLg,38.5917302286,-90.3386272784,"38.5917302286,-90.3386272784",Racanelli's,Saint Louis,MO
11240,DkePId_VZgMx7skQ7aqMGw,b_DkePId_VZgMx7skQ7aqMGw,38.5581411,-90.3741244,"38.5581411000,-90.3741244000",Z E N Thai & Japanese Cuisine,Saint Louis,MO
11241,hXtXBZAP30-9dgxpzpBekQ,b_hXtXBZAP30-9dgxpzpBekQ,38.6732978,-90.3887598,"38.6732978000,-90.3887598000",Land of Smile,Saint Louis,MO
11242,xmyyCbcUhXaiYqzejO0Sgg,b_xmyyCbcUhXaiYqzejO0Sgg,38.6731041206,-90.3871559758,"38.6731041206,-90.3871559758",Olivette Diner,Saint Louis,MO
11243,rY13Vl2Nu7uTp3EhBwQ2Ew,b_rY13Vl2Nu7uTp3EhBwQ2Ew,38.5490768,-90.4048136,"38.5490768000,-90.4048136000",O'Learys Restaurant,Saint Louis,MO
11244,Vw1H8ixLSUCkj42G6CM16A,b_Vw1H8ixLSUCkj42G6CM16A,38.521277,-90.3614407,"38.5212770000,-90.3614407000",Tj's Diner,Saint Louis,MO
11245,Vtdv2E8LBEB7K6tyn5ufrg,b_Vtdv2E8LBEB7K6tyn5ufrg,38.6446491,-90.2610019,"38.6446491000,-90.2610019000",Gelato Di Riso,Saint Louis,MO
11246,nX2105_S9lUhB5rbhC2n2w,b_nX2105_S9lUhB5rbhC2n2w,38.5921995,-90.3028367,"38.5921995000,-90.3028367000",Donut Drive-In,Saint Louis,MO
11247,PHqdr_WeMufgEbtxFZ-CYA,b_PHqdr_WeMufgEbtxFZ-CYA,38.5988965,-90.3971868,"38.5988965000,-90.3971868000",Sugar Creek Gardens,Saint Louis,MO
11248,6OpPLHicjkkPfNdapUCvaw,b_6OpPLHicjkkPfNdapUCvaw,38.6030385,-90.2419567,"38.6030385000,-90.2419567000",Botanicals Design Studio,Saint Louis,MO
11249,B1L6-hN63I1S_cAijI5Otg,b_B1L6-hN63I1S_cAijI5Otg,38.4785391229,-90.305397549,"38.4785391229,-90.3053975490",Bill Gianino's Restaurant,Saint Louis,MO
11250,kpl3H_sgfTm-tH3Aa-ML7g,b_kpl3H_sgfTm-tH3Aa-ML7g,38.5993867,-90.2186015,"38.5993867000,-90.2186015000",Benton Park Café & Coffee Bar,Saint Louis,MO
11251,yMfbFFpGgDDbY_s3_FNi3Q,b_yMfbFFpGgDDbY_s3_FNi3Q,38.6072602,-90.2070115,"38.6072602000,-90.2070115000",Johnny's Restaurant & Bar,Saint Louis,MO
11252,HFmlJjgjlzrJClvF8dgrIQ,b_HFmlJjgjlzrJClvF8dgrIQ,38.607958,-90.203868,"38.6079580000,-90.2038680000",Norton's Cafe,Saint Louis,MO
11253,_4y59Z-edhsfmLfGAFBjxQ,b__4y59Z-edhsfmLfGAFBjxQ,38.6487828,-90.2606899,"38.6487828000,-90.2606899000",Patty Long Catering,Saint Louis,MO
11254,JjVWAjv9D9NSjTQQ36PD9w,b_JjVWAjv9D9NSjTQQ36PD9w,38.6073315,-90.2077434,"38.6073315000,-90.2077434000",Bastille,Saint Louis,MO
11255,Cu6tRoryxKNSR5aFv18wzQ,b_Cu6tRoryxKNSR5aFv18wzQ,38.5931547,-90.2159165,"38.5931547000,-90.2159165000",Lemp Mansion Restaurant & Inn,Saint Louis,MO
11256,UNtta3w643ZWsJ7JDxhC9g,b_UNtta3w643ZWsJ7JDxhC9g,38.6066346,-90.2051672,"38.6066346000,-90.2051672000",Hammerstone's,Saint Louis,MO
11257,Z72KDGgmPZV7Aii1L8Mxtw,b_Z72KDGgmPZV7Aii1L8Mxtw,38.586689,-90.284507,"38.5866890000,-90.2845070000",Murdoch Perk,Saint Louis,MO
11258,mPH5-AnH9SAvW8ydmw6TGQ,b_mPH5-AnH9SAvW8ydmw6TGQ,38.673006,-90.4563863,"38.6730060000,-90.4563863000",Culpepper's,Saint Louis,MO
11259,vioEmUkycXuPF5VUK7zbJg,b_vioEmUkycXuPF5VUK7zbJg,38.6117786,-90.3202524,"38.6117786000,-90.3202524000",Saratoga Lanes,Saint Louis,MO
11260,KTO-BW4qbXF3VGpEo3-sMw,b_KTO-BW4qbXF3VGpEo3-sMw,38.5309514,-90.3862027,"38.5309514000,-90.3862027000",Bandana's Bar-B-Q,Saint Louis,MO
11261,IDmYZzB3yPjjs3baOX_ZoQ,b_IDmYZzB3yPjjs3baOX_ZoQ,38.478232,-90.305459,"38.4782320000,-90.3054590000",Glazed & Confused,Saint Louis,MO
11262,d40KMl0_Nje2iHH2Kf_M8A,b_d40KMl0_Nje2iHH2Kf_M8A,38.4869189,-90.3588845,"38.4869189000,-90.3588845000",Butler Hills Dry Cleaners,Saint Louis,MO
11263,WmyePVCuvAallUZVxdmtsw,b_WmyePVCuvAallUZVxdmtsw,38.590227937,-90.3394220505,"38.5902279370,-90.3394220505",Ben Franklin Stores,Saint Louis,MO
11264,nv3EMON9CVGvJCJ5C_ETww,b_nv3EMON9CVGvJCJ5C_ETww,38.6538601294,-90.3501429409,"38.6538601294,-90.3501429409",Dominic Michael Salon,Saint Louis,MO
11265,YRqYwjYls61ttBWRN2w5fA,b_YRqYwjYls61ttBWRN2w5fA,38.6511736,-90.338298,"38.6511736000,-90.3382980000",Busy Bee Shoe Repair & Alterations,Saint Louis,MO
11266,FKRUocue-_O2ITGumaCKOw,b_FKRUocue-_O2ITGumaCKOw,38.6281,-90.251051,"38.6281000000,-90.2510510000",Novak's Bar & Grill,Saint Louis,MO
11267,Fd0dsIf5ZzVdHxiPp8uTOg,b_Fd0dsIf5ZzVdHxiPp8uTOg,38.6077825,-90.2093549,"38.6077825000,-90.2093549000",Soulard Art Gallery,Saint Louis,MO
11268,fmltN_xSMyqlKGM7tlV4qg,b_fmltN_xSMyqlKGM7tlV4qg,38.5903508,-90.2191769,"38.5903508000,-90.2191769000",Off Broadway,Saint Louis,MO
11269,970rqGlDhhZXbupib60x1A,b_970rqGlDhhZXbupib60x1A,38.5918669,-90.338356,"38.5918669000,-90.3383560000",Dvin Restaurant,Saint Louis,MO
11270,HbIVj8hfVf2O4GlqCTd7-g,b_HbIVj8hfVf2O4GlqCTd7-g,38.6091388,-90.2054619,"38.6091388000,-90.2054619000",Feraro's Jersey Style Pizza,Saint Louis,MO
11271,bBnIv9ZRWvEatpIB-vP9sw,b_bBnIv9ZRWvEatpIB-vP9sw,38.6497986,-90.3292544,"38.6497986000,-90.3292544000",The Wine & Cheese Place,Saint Louis,MO
11272,sxVKiPd39vLet2mU02WaeQ,b_sxVKiPd39vLet2mU02WaeQ,38.6019632,-90.2425131,"38.6019632000,-90.2425131000",Upstairs Lounge,Saint Louis,MO
11273,ZMDGN3CN602DIKaCDPmCZA,b_ZMDGN3CN602DIKaCDPmCZA,38.7311516,-90.3573439,"38.7311516000,-90.3573439000",Taqueria Los Tarascos,Saint Louis,MO
11274,ti88Y6uwIkIt2-m6i5XaSw,b_ti88Y6uwIkIt2-m6i5XaSw,38.610642,-90.452715,"38.6106420000,-90.4527150000",Assumption Greek Orthodox Festival,Saint Louis,MO
11275,76ouVMYq0nLRyY_xeq2v7Q,b_76ouVMYq0nLRyY_xeq2v7Q,38.6179877,-90.1999248,"38.6179877000,-90.1999248000",The Cedars at St Raymond's,Saint Louis,MO
11276,HcKLRIlRuhrUfWo41BkXdA,b_HcKLRIlRuhrUfWo41BkXdA,38.5252196,-90.3558974,"38.5252196000,-90.3558974000",Pathways New Age Books Music & Gifts,Saint Louis,MO
11277,E_wwKdlWHnjpuEpiOMKPfg,b_E_wwKdlWHnjpuEpiOMKPfg,38.6268118158,-90.2026247978,"38.6268118158,-90.2026247978",Enterprise Center,Saint Louis,MO
11278,E359ITHKa9CVe9cTOofZUQ,b_E359ITHKa9CVe9cTOofZUQ,38.6079521,-90.2571176,"38.6079521000,-90.2571176000",Tower Grove Park,Saint Louis,MO
11279,VB7fQC-f9TORBXav3yYz4g,b_VB7fQC-f9TORBXav3yYz4g,38.653989,-90.348961,"38.6539890000,-90.3489610000",City Sprouts,Saint Louis,MO
11280,yyxNH1v7ZMKT0ImdtR22qw,b_yyxNH1v7ZMKT0ImdtR22qw,38.6240095,-90.288682,"38.6240095000,-90.2886820000",Southampton Dental,Saint Louis,MO
11281,_KgJJx8GUZKdo1Jtb44hcw,b__KgJJx8GUZKdo1Jtb44hcw,38.6138776,-90.2869113,"38.6138776000,-90.2869113000",Southampton Healthcare,Saint Louis,MO
11282,qlVbQxYwvcFCCqtQTcCknQ,b_qlVbQxYwvcFCCqtQTcCknQ,38.6132565,-90.3228617,"38.6132565000,-90.3228617000",Wong's Inn Chinese Restaurant,Saint Louis,MO
11283,DZxerONFBdoY0zFYeeOc0Q,b_DZxerONFBdoY0zFYeeOc0Q,38.6851071813,-90.4069123754,"38.6851071813,-90.4069123754",St. Louis Kaplan Feldman Holocaust Museum,Saint Louis,MO
11284,7R5l6ScZ9c9UyTACMZp43Q,b_7R5l6ScZ9c9UyTACMZp43Q,38.7090893274,-90.4914665222,"38.7090893274,-90.4914665222",Creve Coeur Lake,Saint Louis,MO
11285,J_195G8K_MziKZEXj7Nxdw,b_J_195G8K_MziKZEXj7Nxdw,38.6213762,-90.3215217,"38.6213762000,-90.3215217000",Mr. Wizard's Frozen Custard,Saint Louis,MO
11286,Nssa2tsfDlSdiURc_0qDFg,b_Nssa2tsfDlSdiURc_0qDFg,38.610071,-90.2032713,"38.6100710000,-90.2032713000",Llywelyn's Pub,Saint Louis,MO
11287,hUvYWwAOSV-H1bR4i__Mow,b_hUvYWwAOSV-H1bR4i__Mow,38.6336467,-90.1839513,"38.6336467000,-90.1839513000",SLeeK,Saint Louis,MO
11288,lICPSPfT_VUp9F-HDx2kkw,b_lICPSPfT_VUp9F-HDx2kkw,38.5937433,-90.2269829,"38.5937433000,-90.2269829000",Black Bear Co-op,Saint Louis,MO
11289,bYkcnHFXQan2FgQ12ATlYQ,b_bYkcnHFXQan2FgQ12ATlYQ,38.643443,-90.335296,"38.6434430000,-90.3352960000",Preston Salon Ltd,Saint Louis,MO
11290,gMVr7mIlHGjFhW0DAaZ8Qw,b_gMVr7mIlHGjFhW0DAaZ8Qw,38.6364490782,-90.3478452169,"38.6364490782,-90.3478452169",Anthropologie,Saint Louis,MO
11291,RFa-PkIek6pDtb-1xHxfbw,b_RFa-PkIek6pDtb-1xHxfbw,38.5862943,-90.2845812,"38.5862943000,-90.2845812000",Macklind Avenue Deli,Saint Louis,MO
11292,y5o2VSvj42KrXrotY3GTgA,b_y5o2VSvj42KrXrotY3GTgA,38.66029492,-90.3585147858,"38.6602949200,-90.3585147858",Guo Bin Chinese Restaurant,Saint Louis,MO
11293,-FYgaeBm9xNhF4_m8bCC0A,b_-FYgaeBm9xNhF4_m8bCC0A,38.5918665,-90.3384934,"38.5918665000,-90.3384934000",Cravings,Saint Louis,MO
11294,IFKCqDKdrAOtph_TEi8ycw,b_IFKCqDKdrAOtph_TEi8ycw,38.6290317,-90.1949085,"38.6290317000,-90.1949085000",Jack Patrick's Bar & Grill,Saint Louis,MO
11295,P4O5VIbx9HtDm9GFgU_cPw,b_P4O5VIbx9HtDm9GFgU_cPw,38.639802,-90.293777,"38.6398020000,-90.2937770000",St. Louis Shakespeare Festival,Saint Louis,MO
11296,08LQAC48MVFa27YZKahEkg,b_08LQAC48MVFa27YZKahEkg,38.623893,-90.348316,"38.6238930000,-90.3483160000",OB Clark's,Saint Louis,MO
11297,4vRKXeFjdXvGZkmHYUdo6Q,b_4vRKXeFjdXvGZkmHYUdo6Q,38.6520275027,-90.2706166098,"38.6520275027,-90.2706166098",Third Degree Glass Factory,Saint Louis,MO
11298,FBo9ZUfGJStLAHxn131gNg,b_FBo9ZUfGJStLAHxn131gNg,38.6318159951,-90.2932749667,"38.6318159951,-90.2932749667",Turtle Playground,Saint Louis,MO
11299,jzNWN9kyK0b3MrYiBGKqag,b_jzNWN9kyK0b3MrYiBGKqag,38.6068123,-90.2561365,"38.6068123000,-90.2561365000",Festival of Nations,Saint Louis,MO
11300,tf5JMBd-HUackUePWPlawQ,b_tf5JMBd-HUackUePWPlawQ,38.6268269,-90.2567038,"38.6268269000,-90.2567038000",Sweetie Pie's Soul Food,Saint Louis,MO
11301,wIhooAkKDAzAo5VdiDDAuQ,b_wIhooAkKDAzAo5VdiDDAuQ,38.645057,-90.261036,"38.6450570000,-90.2610360000",Companion,Saint Louis,MO
11302,_PRReGRG73wT8edwsfWbuQ,b__PRReGRG73wT8edwsfWbuQ,38.6066657185,-90.2589388342,"38.6066657185,-90.2589388342",Tower Grove Farmers' Market,Saint Louis,MO
11303,_CZtbCO8IFCjZnScBh48cw,b__CZtbCO8IFCjZnScBh48cw,38.6161184983,-90.2580699822,"38.6161184983,-90.2580699822",Japanese Festival,Saint Louis,MO
11304,65gPy0c2_I8wxGZLRhrWEw,b_65gPy0c2_I8wxGZLRhrWEw,38.6036707,-90.211033,"38.6036707000,-90.2110330000",Vincent's 12th Street Market,Saint Louis,MO
11305,AYpd__D1VyXztNY_K74Tbw,b_AYpd__D1VyXztNY_K74Tbw,38.6072114,-90.2072486,"38.6072114000,-90.2072486000",Remember Me Vintage Clothing & Costumes,Saint Louis,MO
11306,nn5tvvgFtnoyCocACvXmJQ,b_nn5tvvgFtnoyCocACvXmJQ,38.6081234,-90.2040811,"38.6081234000,-90.2040811000",Molly's in Soulard,Saint Louis,MO
11307,y-XX_c8EVK4m3oQda42Y3A,b_y-XX_c8EVK4m3oQda42Y3A,38.5148298,-90.3147422,"38.5148298000,-90.3147422000",McArthur's Bakery Cafe,Saint Louis,MO
11308,iSGxLgf35ZW06zW7SWRkqA,b_iSGxLgf35ZW06zW7SWRkqA,38.655886,-90.3023916,"38.6558860000,-90.3023916000",Plowsharing Crafts,Saint Louis,MO
11309,baZ0LhMKHbaGd4dNJrCTaA,b_baZ0LhMKHbaGd4dNJrCTaA,38.6093404,-90.2021164,"38.6093404000,-90.2021164000",Phelan's Pub & Grill,Saint Louis,MO
11310,j4hG2S0IQYXYmasT5W1ThA,b_j4hG2S0IQYXYmasT5W1ThA,38.6555692,-90.3053814,"38.6555692000,-90.3053814000",Booster's Cafe,Saint Louis,MO
11311,9sgONH6Au51uRRYa-vSAcA,b_9sgONH6Au51uRRYa-vSAcA,38.6516062026,-90.2668046546,"38.6516062026,-90.2668046546",Craft Alliance,Saint Louis,MO
11312,4-QZUSNxoKj4zg79oyNOsw,b_4-QZUSNxoKj4zg79oyNOsw,38.6322884,-90.2004008,"38.6322884000,-90.2004008000",Levine Hat,Saint Louis,MO
11313,yPpZMwdzqkW5PiuKMNk6Vw,b_yPpZMwdzqkW5PiuKMNk6Vw,38.6111733,-90.3200476,"38.6111733000,-90.3200476000",Mezzanine Wearables,Saint Louis,MO
11314,F_vvrI1rYgLdAPys7C0L8w,b_F_vvrI1rYgLdAPys7C0L8w,38.619122,-90.301796,"38.6191220000,-90.3017960000",Jackson's,Saint Louis,MO
11315,jQBPO3rYkNwIaOdQS5ktgQ,b_jQBPO3rYkNwIaOdQS5ktgQ,38.636198412,-90.2230380318,"38.6361984120,-90.2230380318",The Fountain On Locust,Saint Louis,MO
11316,AitDslVo-TV_d5j1K4HcTQ,b_AitDslVo-TV_d5j1K4HcTQ,38.6314974,-90.1954857,"38.6314974000,-90.1954857000",Beso,Saint Louis,MO
11317,R0DIk9cfzolpobvV8Pw9-A,b_R0DIk9cfzolpobvV8Pw9-A,38.5926531,-90.2230631,"38.5926531000,-90.2230631000",Elder's Ltd,Saint Louis,MO
11318,vuzilOmzlFbrSTiwZfOSOA,b_vuzilOmzlFbrSTiwZfOSOA,38.6371224,-90.2467098,"38.6371224000,-90.2467098000",6 North Coffee Company,Saint Louis,MO
11319,5nGBo2covUY0PrDO_aNYbw,b_5nGBo2covUY0PrDO_aNYbw,38.6218769,-90.2353316,"38.6218769000,-90.2353316000",Crave Coffee House,Saint Louis,MO
11320,nrt_kZKsirgTFB3JY_bKpQ,b_nrt_kZKsirgTFB3JY_bKpQ,38.6312627,-90.2925884,"38.6312627000,-90.2925884000",Pat's Bar & Grill,Saint Louis,MO
11321,8dz-LJzw9FJ7II5PS2z8vA,b_8dz-LJzw9FJ7II5PS2z8vA,38.6393065,-90.2945546,"38.6393065000,-90.2945546000",Puck's,Saint Louis,MO
11322,OWVQwMK59coLok5_qsX3-w,b_OWVQwMK59coLok5_qsX3-w,38.5929161,-90.2238322,"38.5929161000,-90.2238322000",Retro 101,Saint Louis,MO
11323,wB02espTSn_K3q9fu959jg,b_wB02espTSn_K3q9fu959jg,38.6158517232,-90.4426453316,"38.6158517232,-90.4426453316",Silver Maple Pet Center,Saint Louis,MO
11324,gdPngoSC01_gbRsbTiKELw,b_gdPngoSC01_gbRsbTiKELw,38.5921647,-90.3378916,"38.5921647000,-90.3378916000",Stratton's Cafe,Saint Louis,MO
11325,yLKW0AVjH81V4RgjZcrvjw,b_yLKW0AVjH81V4RgjZcrvjw,38.6084226,-90.4864278,"38.6084226000,-90.4864278000",The American Kennel Club Museum of the Dog,Saint Louis,MO
11326,ENZxGPJa1KHfRfjwej6cOA,b_ENZxGPJa1KHfRfjwej6cOA,38.6324875,-90.1985742,"38.6324875000,-90.1985742000",Beverly's Hill,Saint Louis,MO
11327,YkgxyEgvsaKSuD4rUnpRBw,b_YkgxyEgvsaKSuD4rUnpRBw,38.6131074,-90.3176421,"38.6131074000,-90.3176421000",Charm Boutique,Saint Louis,MO
11328,rcIFKLwbmTdniOHIPfWIVQ,b_rcIFKLwbmTdniOHIPfWIVQ,38.6319728,-90.1988514,"38.6319728000,-90.1988514000",MacroSun International,Saint Louis,MO
11329,2GOVJ9ByXha0tXBq6r-DaQ,b_2GOVJ9ByXha0tXBq6r-DaQ,38.6280069,-90.1916146,"38.6280069000,-90.1916146000",Hunan Manor,Saint Louis,MO
11330,IHNKQZMZY8dmwsXKIvtz0g,b_IHNKQZMZY8dmwsXKIvtz0g,38.5988251,-90.2622889,"38.5988251000,-90.2622889000",Stella Blues,Saint Louis,MO
11331,48fVTqiBIBsqqlfTQwgkhg,b_48fVTqiBIBsqqlfTQwgkhg,38.603081,-90.4463337,"38.6030810000,-90.4463337000",Marble Slab Creamery,Saint Louis,MO
11332,_JXfCdMu1TFblbhJ5KT7fw,b__JXfCdMu1TFblbhJ5KT7fw,38.5998426,-90.2429018,"38.5998426000,-90.2429018000",Basil Spice Thai Cuisine,Saint Louis,MO
11333,Seae4RgXw8jlkUSi1LV13A,b_Seae4RgXw8jlkUSi1LV13A,38.623666,-90.308185,"38.6236660000,-90.3081850000",Mihalis Chop House,Saint Louis,MO
11334,d3OyW6UXr3_wgyTBZ6A0xQ,b_d3OyW6UXr3_wgyTBZ6A0xQ,38.6270377,-90.189955,"38.6270377000,-90.1899550000",Chili Mac's Diner,Saint Louis,MO
11335,lNTXXh_vrIt705lqDlDp5A,b_lNTXXh_vrIt705lqDlDp5A,38.5528349,-90.4062497,"38.5528349000,-90.4062497000",Helen Fitzgeralds,Saint Louis,MO
11336,OhHq33rmBih3fczFi8gSFQ,b_OhHq33rmBih3fczFi8gSFQ,38.644901,-90.264165,"38.6449010000,-90.2641650000",The Tenderloin Room,Saint Louis,MO
11337,YIzZe1ceKi34AXxvAEPqpg,b_YIzZe1ceKi34AXxvAEPqpg,38.6201526,-90.2092126,"38.6201526000,-90.2092126000",St Louis Gast Haus,Saint Louis,MO
11338,Ao-osjLWqUMcaiKUXej5IA,b_Ao-osjLWqUMcaiKUXej5IA,38.6450435,-90.2641419,"38.6450435000,-90.2641419000",Eau Bistro,Saint Louis,MO
11339,ay9zMsFHhwD483o8Zwdc_A,b_ay9zMsFHhwD483o8Zwdc_A,38.5702618,-90.2846056,"38.5702618000,-90.2846056000",Apollonia,Saint Louis,MO
11340,6l94PpuWW91PxOWHcfxdcw,b_6l94PpuWW91PxOWHcfxdcw,38.6273738,-90.1881564,"38.6273738000,-90.1881564000",400 Olive,Saint Louis,MO
11341,WnyiCJfpsl1RViIWafNwIA,b_WnyiCJfpsl1RViIWafNwIA,38.6124887346,-90.2197626967,"38.6124887346,-90.2197626967",Randall’s Wine & Spirits,Saint Louis,MO
11342,NDAD1hjsM_C7T9M9KPkLWg,b_NDAD1hjsM_C7T9M9KPkLWg,38.735312,-90.296337,"38.7353120000,-90.2963370000",Red the Bar-B-Que Man,Saint Louis,MO
11343,Z0U1M1qHh_SIEJ_3wjaWDA,b_Z0U1M1qHh_SIEJ_3wjaWDA,38.627589,-90.191094,"38.6275890000,-90.1910940000",Edible Difference,Saint Louis,MO
11344,kuctEDcZueZiS3Ah77PkBw,b_kuctEDcZueZiS3Ah77PkBw,38.5845578,-90.2446183,"38.5845578000,-90.2446183000",Merbs Candies,Saint Louis,MO
11345,STj3aVLhaVEM8prvNhzPnQ,b_STj3aVLhaVEM8prvNhzPnQ,38.682904,-90.477598,"38.6829040000,-90.4775980000",Astoria Russian Bistro,Saint Louis,MO
11346,wTWvByBZ9SQnidd1E1lERw,b_wTWvByBZ9SQnidd1E1lERw,38.6194,-90.3214492,"38.6194000000,-90.3214492000",Brody's Lamps & Lamp Shades,Saint Louis,MO
11347,bSNyo7HRslxnVOM18e_rYw,b_bSNyo7HRslxnVOM18e_rYw,38.6444999,-90.2617926,"38.6444999000,-90.2617926000",Big Sleep Books,Saint Louis,MO
11348,BMUAi-9RzjiRY7VFKqSnOg,b_BMUAi-9RzjiRY7VFKqSnOg,38.6555404,-90.3018261,"38.6555404000,-90.3018261000",Pizazz Furniture,Saint Louis,MO
11349,bpubkMudlrT5fGTstjEK3w,b_bpubkMudlrT5fGTstjEK3w,38.6558711,-90.3024338,"38.6558711000,-90.3024338000",MacroSun International,Saint Louis,MO
11350,tdSfBcMiPzEG1MFBDmPW8A,b_tdSfBcMiPzEG1MFBDmPW8A,38.472228,-90.391968,"38.4722280000,-90.3919680000",Suson Park,Saint Louis,MO
11351,4MobfSS7qIOr_GsWJ0j6jw,b_4MobfSS7qIOr_GsWJ0j6jw,38.6078457,-90.2002387,"38.6078457000,-90.2002387000",Billie's Fine Foods,Saint Louis,MO
11352,Qc-amJw7Mo4Orq8ph863EA,b_Qc-amJw7Mo4Orq8ph863EA,38.7419782,-90.3649791,"38.7419782000,-90.3649791000",American Airlines,Saint Louis,MO
11353,eJ7OFn6TmjiOHm2Dv_EPsw,b_eJ7OFn6TmjiOHm2Dv_EPsw,38.6004039,-90.3943714,"38.6004039000,-90.3943714000",Sho Wok,Saint Louis,MO
11354,b717QBL7SJ9jzfY1A-qwYw,b_b717QBL7SJ9jzfY1A-qwYw,38.6134089,-90.3160469,"38.6134089000,-90.3160469000",Femme,Saint Louis,MO
11355,JPs-_87uyc5OtvfJSCL_NA,b_JPs-_87uyc5OtvfJSCL_NA,38.6116954,-90.3197382,"38.6116954000,-90.3197382000",Focal Point,Saint Louis,MO
11356,G6h-9AZro_Ni_4eRR9CkRw,b_G6h-9AZro_Ni_4eRR9CkRw,38.6127264,-90.318435,"38.6127264000,-90.3184350000",Penzeys Spices,Saint Louis,MO
11357,DGQHEWtOeqHEAWxuSjzymQ,b_DGQHEWtOeqHEAWxuSjzymQ,38.653527,-90.350386,"38.6535270000,-90.3503860000",Cassie's,Saint Louis,MO
11358,V16fXJBymut-HNZqrMCgBA,b_V16fXJBymut-HNZqrMCgBA,38.6723629,-90.4571934,"38.6723629000,-90.4571934000",Simply Elegant Bridal,Saint Louis,MO
11359,1Bu2qyqv4quJ9YvABY76PA,b_1Bu2qyqv4quJ9YvABY76PA,38.6448814,-90.262917,"38.6448814000,-90.2629170000",AG Jeans,Saint Louis,MO
11360,rP6qJDfkT0-vs8Q7_G5IxA,b_rP6qJDfkT0-vs8Q7_G5IxA,38.6482766,-90.2608918,"38.6482766000,-90.2608918000",RothsChilds Antiques,Saint Louis,MO
11361,3ukycuG0QZDmeF3pqsiX6A,b_3ukycuG0QZDmeF3pqsiX6A,38.638335,-90.230507,"38.6383350000,-90.2305070000",KDHX FM 88,Saint Louis,MO
11362,1IhykWu1UEPHyQ3XT7xdsQ,b_1IhykWu1UEPHyQ3XT7xdsQ,38.6191146,-90.2982097,"38.6191146000,-90.2982097000",China Wok Express,Saint Louis,MO
11363,qwLkkDYyVR1t1cdoDGvwNg,b_qwLkkDYyVR1t1cdoDGvwNg,38.6556104,-90.3025573,"38.6556104000,-90.3025573000",Timeless Authentic Garments,Saint Louis,MO
11364,igrDOacqMn7mMn9ARiX5Og,b_igrDOacqMn7mMn9ARiX5Og,38.6139204,-90.3163591,"38.6139204000,-90.3163591000",Mystic Valley,Saint Louis,MO
11365,q7ZDtsWUnFySwkV5fC4xvw,b_q7ZDtsWUnFySwkV5fC4xvw,38.6735381344,-90.4591464049,"38.6735381344,-90.4591464049",St Louis Rotisserie,Saint Louis,MO
11366,4cspQUWFdvstp7xJmChYcA,b_4cspQUWFdvstp7xJmChYcA,38.656112,-90.3046858,"38.6561120000,-90.3046858000",Componere Gallery of Art,Saint Louis,MO
11367,34mMhG2VVLE_UTBAnZnAMw,b_34mMhG2VVLE_UTBAnZnAMw,38.6406891427,-90.2743478586,"38.6406891427,-90.2743478586",The Great Forest Park Balloon Race,Saint Louis,MO
11368,1BdGhKJdj5sphjySWAWj1w,b_1BdGhKJdj5sphjySWAWj1w,38.4944,-90.295893,"38.4944000000,-90.2958930000",Walmart Supercenter,Saint Louis,MO
11369,a1GY-xy-PKrPXlMbhBv5ZA,b_a1GY-xy-PKrPXlMbhBv5ZA,38.5765749,-90.2868378,"38.5765749000,-90.2868378000",Onesto Pizza & Trattoria,Saint Louis,MO
11370,QD_4xvbuSc-1U8wL6K4BEA,b_QD_4xvbuSc-1U8wL6K4BEA,38.6276766,-90.293168,"38.6276766000,-90.2931680000",La Gra Italian Tapas,Saint Louis,MO
11371,q01c2tT9dw-tI4K-7A9QsA,b_q01c2tT9dw-tI4K-7A9QsA,38.52247,-90.360296,"38.5224700000,-90.3602960000",Spanky's Frozen Custard,Saint Louis,MO
11372,hXPKz434rQ6sNbYNeutfWg,b_hXPKz434rQ6sNbYNeutfWg,38.6181246,-90.2719109,"38.6181246000,-90.2719109000",J. Viviano & Sons,Saint Louis,MO
11373,PM7L9Vt0MlDUZsEVDCIkhg,b_PM7L9Vt0MlDUZsEVDCIkhg,38.6370154,-90.2149774,"38.6370154000,-90.2149774000",Scott Joplin State Historic Site,Saint Louis,MO
11374,sC13uP4N2wXtmnCgExD--Q,b_sC13uP4N2wXtmnCgExD--Q,38.642027,-90.206103,"38.6420270000,-90.2061030000",St. Stanislaus Church,Saint Louis,MO
11375,tn3_76PZZLCmGBLgBWdTTw,b_tn3_76PZZLCmGBLgBWdTTw,38.6247994,-90.2932777,"38.6247994000,-90.2932777000",The Cakery,Saint Louis,MO
