business_id,raw_business_id,entity,latitude,longitude,geo,name,city,state
30899,XkQadWW9bUR855KvPZBNUw,b_XkQadWW9bUR855KvPZBNUw,29.948039,-90.064975,"29.9480390000,-90.0649750000",Gordon Biersch Brewery Restaurant,New Orleans,LA
30900,0uxg3_noVCE78Wgjb8DSyA,b_0uxg3_noVCE78Wgjb8DSyA,29.9576669,-90.0617022,"29.9576669000,-90.0617022000",Aunt Sally's Pralines,New Orleans,LA
30901,7n-8nhFq266slKmHJEY1-Q,b_7n-8nhFq266slKmHJEY1-Q,29.9539123,-90.0686731,"29.9539123000,-90.0686731000",Unique General Store,New Orleans,LA
30902,ZfiHVKQazjdPuwECrZ-dag,b_ZfiHVKQazjdPuwECrZ-dag,29.9570414,-90.0640372,"29.9570414000,-90.0640372000",The Alpine,New Orleans,LA
30903,8R-ObAoppiDpucPYjyncUw,b_8R-ObAoppiDpucPYjyncUw,29.9450562572,-90.0661786985,"29.9450562572,-90.0661786985",Embassy Suites by Hilton New Orleans,New Orleans,LA
30904,Gf6VxoCCxdbJkInNGH6l2A,b_Gf6VxoCCxdbJkInNGH6l2A,29.950913,-90.069146,"29.9509130000,-90.0691460000",La Quinta by Wyndham New Orleans Downtown,New Orleans,LA
30905,n_fUROdhfmLwd_mpBi55ew,b_n_fUROdhfmLwd_mpBi55ew,29.9588312294,-90.0610717688,"29.9588312294,-90.0610717688",Central Grocery & Deli,New Orleans,LA
30906,XScJI9exHgC0u_c3vmm1vQ,b_XScJI9exHgC0u_c3vmm1vQ,29.9481089763,-90.0655555353,"29.9481089763,-90.0655555353",Harrah's New Orleans,New Orleans,LA
30907,IZZ_uR2ps5KuuyE0n--jVA,b_IZZ_uR2ps5KuuyE0n--jVA,29.9615127,-90.0409119,"29.9615127000,-90.0409119000",Elizabeth's Restaurant,New Orleans,LA
30908,LuB-RHZQzmbAHXmykrN0BA,b_LuB-RHZQzmbAHXmykrN0BA,29.9647721503,-90.0513203165,"29.9647721503,-90.0513203165",Flora Gallery & Coffee Shop,New Orleans,LA
30909,ZTctPm8-lBy0iJ9dFhYhyQ,b_ZTctPm8-lBy0iJ9dFhYhyQ,29.9472977036,-90.0715089558,"29.9472977036,-90.0715089558",Herbsaint,New Orleans,LA
30910,YxzjYHBkWLwxpvOlcjKkhw,b_YxzjYHBkWLwxpvOlcjKkhw,29.9601503,-90.0599888,"29.9601503000,-90.0599888000",Molly's At the Market,New Orleans,LA
30911,lby9eFupu2hzjJ6PWwINDg,b_lby9eFupu2hzjJ6PWwINDg,29.9604283,-90.0597334,"29.9604283000,-90.0597334000",The Abbey,New Orleans,LA
30912,g1xRzUV-aLjAE4mkdhLwBQ,b_g1xRzUV-aLjAE4mkdhLwBQ,29.9618105,-90.0335351,"29.9618105000,-90.0335351000",Vaughan's Lounge,New Orleans,LA
30913,auZbZhgtKOppjDEikrIeNw,b_auZbZhgtKOppjDEikrIeNw,29.9544888,-90.0663571,"29.9544888000,-90.0663571000",Bacco Restaurant,New Orleans,LA
30914,kIMT0HWye1apfTH1-ITQAA,b_kIMT0HWye1apfTH1-ITQAA,29.9685111,-90.049592,"29.9685111000,-90.0495920000",Hanks Supermarket,New Orleans,LA
30915,3fVYGQr_ldW2_1QlXJjpaQ,b_3fVYGQr_ldW2_1QlXJjpaQ,29.956688376,-90.0684624875,"29.9566883760,-90.0684624875",The Bombay Club,New Orleans,LA
30916,dGeXdSMah56gEHwZNaRQKA,b_dGeXdSMah56gEHwZNaRQKA,29.9738161,-90.1008774,"29.9738161000,-90.1008774000",Juan's Flying Burrito,New Orleans,LA
30917,Ico4dH0EruGq5qt73JSRaA,b_Ico4dH0EruGq5qt73JSRaA,29.9303340359,-90.0749929998,"29.9303340359,-90.0749929998",Aidan Gill For Men,New Orleans,LA
30918,QOyQSgog61fY8kI4IxIBuA,b_QOyQSgog61fY8kI4IxIBuA,29.9481733,-90.1309807,"29.9481733000,-90.1309807000",Z'otz,New Orleans,LA
30919,Gq2o0at0DYCdOwWeDGDHFA,b_Gq2o0at0DYCdOwWeDGDHFA,29.9622217,-90.0579638,"29.9622217000,-90.0579638000",Igor's Checkpoint Charlie,New Orleans,LA
30920,KUYGwEEEM8yFkCf-CxpRPQ,b_KUYGwEEEM8yFkCf-CxpRPQ,29.9715909786,-90.087890625,"29.9715909786,-90.0878906250",Singha Thai Cafe,New Orleans,LA
30921,TIixkkVU3S56Txmi30xT2g,b_TIixkkVU3S56Txmi30xT2g,29.9601491,-90.0626522,"29.9601491000,-90.0626522000",Fifi Mahony's,New Orleans,LA
30922,xTfJYI2V7eTMf-5k8bviAg,b_xTfJYI2V7eTMf-5k8bviAg,29.9471166,-90.0715659,"29.9471166000,-90.0715659000",Le Chat Noir,New Orleans,LA
30923,s9A862mK1zV3a0SitKe0YQ,b_s9A862mK1zV3a0SitKe0YQ,29.9437547,-90.0718927,"29.9437547000,-90.0718927000",Le Cirque Hotel,New Orleans,LA
30924,W4bi5Yeo9ncXRqcxG58U9w,b_W4bi5Yeo9ncXRqcxG58U9w,29.9428822539,-90.0722989452,"29.9428822539,-90.0722989452",Circle Bar,New Orleans,LA
30925,j8JOZvfeHEfUWq3gEz6ABQ,b_j8JOZvfeHEfUWq3gEz6ABQ,29.959824,-90.033259,"29.9598240000,-90.0332590000",Bacchanal Fine Wine & Spirits,New Orleans,LA
30926,xJ3NSwE0xhdtA-tB_y_rNQ,b_xJ3NSwE0xhdtA-tB_y_rNQ,29.961515,-90.0327443,"29.9615150000,-90.0327443000",Jack Dempsey's Restaurant & Bar,New Orleans,LA
30927,RvTHIKHaPVVp8S9cihpi5w,b_RvTHIKHaPVVp8S9cihpi5w,29.964090153,-90.0577096829,"29.9640901530,-90.0577096829",The Spotted Cat Music Club,New Orleans,LA
30928,IOzaphUZD_cayny0LOIOVg,b_IOzaphUZD_cayny0LOIOVg,29.9650247237,-90.0564314898,"29.9650247237,-90.0564314898",United Hardware,New Orleans,LA
30929,SYt7k9UXqVjkmUEw6s2u-A,b_SYt7k9UXqVjkmUEw6s2u-A,29.9612943,-90.0674954,"29.9612943000,-90.0674954000",Donna's on Rampart,New Orleans,LA
30930,QCZD4h64f1QbTMn0MT-i5A,b_QCZD4h64f1QbTMn0MT-i5A,29.9594705,-90.0647355,"29.9594705000,-90.0647355000",Oz New Orleans,New Orleans,LA
30931,w7O9Sr3hz-qPOogSTDq3pw,b_w7O9Sr3hz-qPOogSTDq3pw,29.9596359355,-90.0648864061,"29.9596359355,-90.0648864061",Bourbon Pub and Parade,New Orleans,LA
30932,FSvFk1lWR0YBYP_-L_iLTQ,b_FSvFk1lWR0YBYP_-L_iLTQ,29.9473419,-90.1299849,"29.9473419000,-90.1299849000",Rue De La Course,New Orleans,LA
30933,dSv7qHrkYF4nmQQA0QRP_g,b_dSv7qHrkYF4nmQQA0QRP_g,29.948938,-90.1320839,"29.9489380000,-90.1320839000",Maple Leaf Bar,New Orleans,LA
30934,iIyIVlK4ZeIIp9RayXRrNw,b_iIyIVlK4ZeIIp9RayXRrNw,29.9605085,-90.0667025,"29.9605085000,-90.0667025000",Rawhide 2010,New Orleans,LA
30935,HCAEt5uZvcE3gU46bViwvA,b_HCAEt5uZvcE3gU46bViwvA,29.9572864,-90.0674261,"29.9572864000,-90.0674261000",Petunia's Restaurant,New Orleans,LA
30936,FPvwaSdVk5dN0Ya_FB9qKg,b_FPvwaSdVk5dN0Ya_FB9qKg,29.9520078,-90.0652761,"29.9520078000,-90.0652761000",Regal Cinebarre Canal Place,New Orleans,LA
30937,ChlcxTEoWBQJXJ2Xb2vm5g,b_ChlcxTEoWBQJXJ2Xb2vm5g,29.9555890874,-90.0650722308,"29.9555890874,-90.0650722308",NOLA Restaurant,New Orleans,LA
30938,UeYZgcORV2Veo_BZzdiaTg,b_UeYZgcORV2Veo_BZzdiaTg,29.9558463513,-90.0651807227,"29.9558463513,-90.0651807227",Napoleon House,New Orleans,LA
30939,6MCfj1Fwrh7hvSy2zNr12A,b_6MCfj1Fwrh7hvSy2zNr12A,29.946472,-90.071187,"29.9464720000,-90.0711870000",St Charles Bar & Tavern,New Orleans,LA
30940,6Ty-KKWq6hLZYW8DWEHYvg,b_6Ty-KKWq6hLZYW8DWEHYvg,29.9581828,-90.0652974,"29.9581828000,-90.0652974000",Pat O'Brien’s,New Orleans,LA
30941,R2I0DYnyEjn-Eu5eweuOQQ,b_R2I0DYnyEjn-Eu5eweuOQQ,29.9599591,-90.0657543,"29.9599591000,-90.0657543000",Good Friends Bar,New Orleans,LA
30942,iV0oX7XD-HAk6jPYX40_hg,b_iV0oX7XD-HAk6jPYX40_hg,29.9603886292,-90.0642254949,"29.9603886292,-90.0642254949",Cafe Lafitte In Exile,New Orleans,LA
30943,jXrhIVKcJ-upvglUmfC1pA,b_jXrhIVKcJ-upvglUmfC1pA,29.9602815,-90.0640023,"29.9602815000,-90.0640023000",Clover Grill,New Orleans,LA
30944,-jlPErSo5m-XoL2wP3xGNQ,b_-jlPErSo5m-XoL2wP3xGNQ,29.967471,-90.056349,"29.9674710000,-90.0563490000",Phoenix Bar,New Orleans,LA
30945,9kv9JpLhzkN3UeWZDrsmEA,b_9kv9JpLhzkN3UeWZDrsmEA,29.9629627,-90.044044,"29.9629627000,-90.0440440000",The Country Club,New Orleans,LA
30946,TzkVUJab9Sh0CqDk2sCF-w,b_TzkVUJab9Sh0CqDk2sCF-w,29.9573006,-90.0680821,"29.9573006000,-90.0680821000",Bayona,New Orleans,LA
30947,_39Ew9rR8S0YpOzWYhY0ow,b__39Ew9rR8S0YpOzWYhY0ow,29.959698,-90.0612293,"29.9596980000,-90.0612293000",French Quarter Gem & Lapidary,New Orleans,LA
30948,YwezxSSXcrT5GOTI5MddPg,b_YwezxSSXcrT5GOTI5MddPg,29.9205946,-90.1010561,"29.9205946000,-90.1010561000",Casamento's Restaurant,New Orleans,LA
30949,grjFEAN9gXOKQFEta4yBJg,b_grjFEAN9gXOKQFEta4yBJg,29.957821,-90.0661737,"29.9578210000,-90.0661737000",Tropical Isle Original,New Orleans,LA
30950,euLOqc_qzh-zsO1eNbyQvg,b_euLOqc_qzh-zsO1eNbyQvg,29.9663032,-90.0581281,"29.9663032000,-90.0581281000",The John,New Orleans,LA
30951,Yl7UIESx3gl10kEwP0Djhg,b_Yl7UIESx3gl10kEwP0Djhg,29.9205249,-90.1039658,"29.9205249000,-90.1039658000",La Boulangerie,New Orleans,LA
30952,HUcjSm1Lxdn8zSu-hQ7-sw,b_HUcjSm1Lxdn8zSu-hQ7-sw,29.9803386,-90.0841949,"29.9803386000,-90.0841949000",Cafe Degas,New Orleans,LA
30953,688utk-zc_7eA3HNhccevA,b_688utk-zc_7eA3HNhccevA,29.9441286,-90.1260739,"29.9441286000,-90.1260739000",Snake and Jake's Christmas Club Lounge,New Orleans,LA
30954,ARKqI0061oI44-7pvVDbLQ,b_ARKqI0061oI44-7pvVDbLQ,29.915955,-90.114058,"29.9159550000,-90.1140580000",PJ's Coffee,New Orleans,LA
30955,ldczA2r_LlKSfbrGxt3ThQ,b_ldczA2r_LlKSfbrGxt3ThQ,29.9207632,-90.1159242,"29.9207632000,-90.1159242000",PJ's Coffee,New Orleans,LA
30956,awVOmVnJj19k6fumwfih2w,b_awVOmVnJj19k6fumwfih2w,29.947124,-90.0697841,"29.9471240000,-90.0697841000",PJ's Coffee & Tea,New Orleans,LA
30957,ddOSzwvJSdM8inofl-ybdw,b_ddOSzwvJSdM8inofl-ybdw,29.9415118,-90.1292186,"29.9415118000,-90.1292186000",PJ's Coffee,New Orleans,LA
30958,07D-uYB0PrSYUVpbKeojJA,b_07D-uYB0PrSYUVpbKeojJA,29.94983947,-90.0664679724,"29.9498394700,-90.0664679724",Windsor Court Hotel,New Orleans,LA
30959,dJ1ihpr-XH-Nt-CVrnJE9A,b_dJ1ihpr-XH-Nt-CVrnJE9A,29.9561618,-90.0666393,"29.9561618000,-90.0666393000",Brennan's Restaurant,New Orleans,LA
30960,iJiNZw2TEwB579dr6LyVZQ,b_iJiNZw2TEwB579dr6LyVZQ,29.9423197,-90.1342523,"29.9423197000,-90.1342523000",Cooter Brown's,New Orleans,LA
30961,mhrW9O0O5hXGXGnEYBVoag,b_mhrW9O0O5hXGXGnEYBVoag,29.9490417,-90.1322295,"29.9490417000,-90.1322295000",Jacques-Imo's Cafe,New Orleans,LA
30962,T6OtDhpyfyI_ZCK5zE8UuA,b_T6OtDhpyfyI_ZCK5zE8UuA,29.952115,-90.068014,"29.9521150000,-90.0680140000",Starbucks,New Orleans,LA
30963,i2hgvg7Yag7Wfc3HVN-X1g,b_i2hgvg7Yag7Wfc3HVN-X1g,29.953577,-90.065898,"29.9535770000,-90.0658980000",Samurai Sushi,New Orleans,LA
30964,8NyDM-FDoWEEeEG9XUwnbg,b_8NyDM-FDoWEEeEG9XUwnbg,29.955179,-90.065354,"29.9551790000,-90.0653540000",K-Paul's Louisiana Kitchen,New Orleans,LA
30965,yGGaBvdHbzPCZCzR7s_uog,b_yGGaBvdHbzPCZCzR7s_uog,29.941822,-90.129717,"29.9418220000,-90.1297170000",Starbucks,New Orleans,LA
30966,eJYvM2Zy5BloOYGldWmAVw,b_eJYvM2Zy5BloOYGldWmAVw,30.0202243,-90.1114674,"30.0202243000,-90.1114674000",Chateau Cafe,New Orleans,LA
30967,MNwTcsnjhe22ShOLYbxm2A,b_MNwTcsnjhe22ShOLYbxm2A,29.9777579,-90.0810263,"29.9777579000,-90.0810263000",CC's Coffee House,New Orleans,LA
30968,gm5Y2Q_-MzsnjytoG1Oo2w,b_gm5Y2Q_-MzsnjytoG1Oo2w,29.9299856,-90.1099823,"29.9299856000,-90.1099823000",Neutral Ground Coffee House,New Orleans,LA
30969,5GtSeo2OyXeSveJn5Ojxig,b_5GtSeo2OyXeSveJn5Ojxig,29.9626308,-90.0578342,"29.9626308000,-90.0578342000",Mona's Cafe,New Orleans,LA
30970,Bf1cdbdHXi8Omlkc7KShkg,b_Bf1cdbdHXi8Omlkc7KShkg,29.9619675,-90.0573559,"29.9619675000,-90.0573559000",Siam Cafe,New Orleans,LA
30971,-e7vSLH84kk7mzHsesL0Qg,b_-e7vSLH84kk7mzHsesL0Qg,29.957997,-90.064118,"29.9579970000,-90.0641180000",Pirates Alley Cafe,New Orleans,LA
30972,24f-qQokEN2UvBNHMWLm3A,b_24f-qQokEN2UvBNHMWLm3A,29.9567368,-90.0663924,"29.9567368000,-90.0663924000",Antoine's Restaurant,New Orleans,LA
30973,w4K9raWb6XdiEcBcUVoA7A,b_w4K9raWb6XdiEcBcUVoA7A,29.9544186,-90.0645593,"29.9544186000,-90.0645593000",Hard Rock Cafe,New Orleans,LA
30974,lK-YaoQ670dGJrmaqyJTBA,b_lK-YaoQ670dGJrmaqyJTBA,29.9471376,-90.0656132,"29.9471376000,-90.0656132000",Ernst Cafe,New Orleans,LA
30975,kjyfX2Z3uInKr2WAyF7E0Q,b_kjyfX2Z3uInKr2WAyF7E0Q,29.9467641,-90.0672408,"29.9467641000,-90.0672408000",Vic's Kangaroo Cafe,New Orleans,LA
30976,iSRTaT9WngzB8JJ2YKJUig,b_iSRTaT9WngzB8JJ2YKJUig,29.9490569,-90.0670492,"29.9490569000,-90.0670492000",Mother's Restaurant,New Orleans,LA
30977,qjP2XXjtLdlZ20SISqtAAA,b_qjP2XXjtLdlZ20SISqtAAA,29.9495995,-90.068144,"29.9495995000,-90.0681440000",Bon Ton Cafe,New Orleans,LA
30978,_C7QiQQc47AOEv4PE3Kong,b__C7QiQQc47AOEv4PE3Kong,29.9287354418,-90.0841956098,"29.9287354418,-90.0841956098",Commander's Palace,New Orleans,LA
30979,vvOzblHBA2HHsCb7CMSDbQ,b_vvOzblHBA2HHsCb7CMSDbQ,29.9708307,-90.10091,"29.9708307000,-90.1009100000",Mona's Cafe,New Orleans,LA
30980,MCdFiLl3e7AWenLYzahnRg,b_MCdFiLl3e7AWenLYzahnRg,29.926135,-90.0939439,"29.9261350000,-90.0939439000",Bluebird Cafe,New Orleans,LA
30981,ZVEZPj5E2Myyks4duZSntw,b_ZVEZPj5E2Myyks4duZSntw,29.9255365,-90.0843625,"29.9255365000,-90.0843625000",Cafe Rani Bistro & Wine,New Orleans,LA
30982,103cmgKE0n1Cb8QCEXvbQQ,b_103cmgKE0n1Cb8QCEXvbQQ,29.92417,-90.086688,"29.9241700000,-90.0866880000",Balcony Bar & Cafe,New Orleans,LA
30983,6Y61FisC5lEVxLEaMzyUUQ,b_6Y61FisC5lEVxLEaMzyUUQ,29.9256451,-90.0830358,"29.9256451000,-90.0830358000",Sake Cafe Uptown,New Orleans,LA
30984,aeIWVa6G54UUo6yloJkyJg,b_aeIWVa6G54UUo6yloJkyJg,29.949729,-90.127641,"29.9497290000,-90.1276410000",Lebanon's Cafe,New Orleans,LA
30985,WtHNaPhVH6q1hKCvcjOc-w,b_WtHNaPhVH6q1hKCvcjOc-w,29.9415802,-90.1255543,"29.9415802000,-90.1255543000",Cafe Freret,New Orleans,LA
30986,fkEb56M3X6vDJZaoIaDObA,b_fkEb56M3X6vDJZaoIaDObA,29.9421237,-90.1301482,"29.9421237000,-90.1301482000",Babylon Cafe,New Orleans,LA
30987,Ti_HP5D0V_7z9_q43ayn7Q,b_Ti_HP5D0V_7z9_q43ayn7Q,29.9116854361,-90.000494701,"29.9116854361,-90.0004947010",Olive Branch Cafe,New Orleans,LA
30988,RLlOK2fL6xU1sfIPiP2QBw,b_RLlOK2fL6xU1sfIPiP2QBw,29.955347,-90.069806,"29.9553470000,-90.0698060000",Deanie's Seafood,New Orleans,LA
30989,ZMkZj5YsBW3XHH5fOBh6fw,b_ZMkZj5YsBW3XHH5fOBh6fw,29.956939,-90.0684907,"29.9569390000,-90.0684907000",Deja Vu Restaurant & Bar,New Orleans,LA
30990,C26xmwM2_OgJJi2BbL3KkQ,b_C26xmwM2_OgJJi2BbL3KkQ,29.9543923897,-90.0687410704,"29.9543923897,-90.0687410704",Dickie Brennan's Steakhouse,New Orleans,LA
30991,zvGNZF827KyzLupKiG4Xtw,b_zvGNZF827KyzLupKiG4Xtw,29.9575258,-90.0693665,"29.9575258000,-90.0693665000",Three Legged Dog,New Orleans,LA
30992,f64wvgLjQZEhSck9iYptSw,b_f64wvgLjQZEhSck9iYptSw,29.9640369511,-90.0595227571,"29.9640369511,-90.0595227571",The R Bar,New Orleans,LA
30993,ADgeB1sfOGbzCR3LIi-4lg,b_ADgeB1sfOGbzCR3LIi-4lg,29.9399302208,-90.0803697109,"29.9399302208,-90.0803697109",Cafe Reconcile,New Orleans,LA
30994,D8hXDsv3TG-i2dvzgY5kLQ,b_D8hXDsv3TG-i2dvzgY5kLQ,29.964167,-90.057912,"29.9641670000,-90.0579120000",Snug Harbor Jazz Bistro,New Orleans,LA
30995,2S_CEQYBbp8RO1bJm_1mng,b_2S_CEQYBbp8RO1bJm_1mng,29.9311501819,-90.0732097142,"29.9311501819,-90.0732097142",The Saint,New Orleans,LA
30996,e1WJ1qcgF2TBkoYzopeTgQ,b_e1WJ1qcgF2TBkoYzopeTgQ,29.9638188,-90.0576629,"29.9638188000,-90.0576629000",Adolfo's,New Orleans,LA
30997,aFspsMR_MbxaOOS58YUGOA,b_aFspsMR_MbxaOOS58YUGOA,29.9665653,-90.0581222,"29.9665653000,-90.0581222000",Wasabi Sushi  and Bar,New Orleans,LA
30998,ompDR5sUDpoI6gnTldmneQ,b_ompDR5sUDpoI6gnTldmneQ,29.9634035,-90.0579092,"29.9634035000,-90.0579092000",The Praline Connection,New Orleans,LA
30999,0jgDSv2SOvCiOuqShsNtlQ,b_0jgDSv2SOvCiOuqShsNtlQ,29.9652686,-90.0591493,"29.9652686000,-90.0591493000",La Peniche,New Orleans,LA
31000,ALjOBKvlyT-lcLFihD4P8g,b_ALjOBKvlyT-lcLFihD4P8g,29.960266,-90.0597512,"29.9602660000,-90.0597512000",Turtle Bay,New Orleans,LA
31001,036_95rJbB7PvCHfkCL6Nw,b_036_95rJbB7PvCHfkCL6Nw,29.958867,-90.0652891,"29.9588670000,-90.0652891000",Johnny White's Pub & Grill,New Orleans,LA
31002,dRhg8Pwh5-8bYqtt8Zuuzw,b_dRhg8Pwh5-8bYqtt8Zuuzw,29.960688,-90.059386,"29.9606880000,-90.0593860000",Angeli on Decatur,New Orleans,LA
31003,XnQ84ylyAZwh-XfHGGNBbQ,b_XnQ84ylyAZwh-XfHGGNBbQ,29.9601574248,-90.0598538142,"29.9601574248,-90.0598538142",Coop's Place,New Orleans,LA
31004,t9LiapsQABwMQeiF1Czl6w,b_t9LiapsQABwMQeiF1Czl6w,29.964442,-90.061776,"29.9644420000,-90.0617760000",Port Of Call,New Orleans,LA
31005,k1yDRDZ4QCvNW9Wm9-IOaA,b_k1yDRDZ4QCvNW9Wm9-IOaA,29.9621826,-90.0607914,"29.9621826000,-90.0607914000",Bennachin Restaurant,New Orleans,LA
31006,znBiWLCwpLGwdrgvZ7G6Hg,b_znBiWLCwpLGwdrgvZ7G6Hg,29.9600488,-90.0597162,"29.9600488000,-90.0597162000",Margaritaville,New Orleans,LA
31007,mnGRyIurwNLqPlQzJY1waQ,b_mnGRyIurwNLqPlQzJY1waQ,29.9638204,-90.0576615,"29.9638204000,-90.0576615000",Apple Barrel Bar,New Orleans,LA
31008,ufjjhbpzlG91sQCFFkbOIA,b_ufjjhbpzlG91sQCFFkbOIA,29.9380511,-90.0766294,"29.9380511000,-90.0766294000",Lucky's,New Orleans,LA
31009,agRssYozLGjGEsBZAo1Cbw,b_agRssYozLGjGEsBZAo1Cbw,29.9574432373,-90.0670471191,"29.9574432373,-90.0670471191",Razzoo Bar & Patio,New Orleans,LA
31010,uUQwrXJ7tqtlHl_iSgSJAg,b_uUQwrXJ7tqtlHl_iSgSJAg,29.9321791,-90.0742113,"29.9321791000,-90.0742113000",Half Moon Bar & Grill,New Orleans,LA
31011,7AeznT9XMDVRo6iAv7yB5g,b_7AeznT9XMDVRo6iAv7yB5g,29.9173976974,-90.1070554436,"29.9173976974,-90.1070554436",EATs @ Grit's Bar,New Orleans,LA
31012,68AYY0l4jZMAr3lOGHuLvA,b_68AYY0l4jZMAr3lOGHuLvA,29.916559,-90.1181586,"29.9165590000,-90.1181586000",Dos Jefes,New Orleans,LA
31013,nZOhwyYPsAmmjz1Wyoi2Kg,b_nZOhwyYPsAmmjz1Wyoi2Kg,29.9226766,-90.1235214,"29.9226766000,-90.1235214000",Monkey Hill Bar,New Orleans,LA
31014,2P6ck7jsvg2_t5u8sd5o7w,b_2P6ck7jsvg2_t5u8sd5o7w,29.9447252,-90.1328731,"29.9447252000,-90.1328731000",Madigan's Bar,New Orleans,LA
31015,O-XwsROwYk3JoWz7bMuW8g,b_O-XwsROwYk3JoWz7bMuW8g,29.9240492,-90.086055,"29.9240492000,-90.0860550000",Rue De La Course,New Orleans,LA
31016,aLOBrImLBlkspPSaqxeBpw,b_aLOBrImLBlkspPSaqxeBpw,29.9411871,-90.1283062,"29.9411871000,-90.1283062000",Maple Street Book Shop,New Orleans,LA
31017,Y2NFeGtConx1qciSPKcRlA,b_Y2NFeGtConx1qciSPKcRlA,29.9233127,-90.0875812,"29.9233127000,-90.0875812000",Reginelli's Pizzeria - Closed,New Orleans,LA
31018,mAgjr6kjRqCFk8JWPvobuw,b_mAgjr6kjRqCFk8JWPvobuw,29.967971,-90.0442306,"29.9679710000,-90.0442306000",Saturn Bar,New Orleans,LA
31019,4sTSg754V7-P-_Z97sT8Vw,b_4sTSg754V7-P-_Z97sT8Vw,30.003981,-90.104242,"30.0039810000,-90.1042420000",Parlay's,New Orleans,LA
31020,Gfegg1vwKJJo-EfEujQ-nw,b_Gfegg1vwKJJo-EfEujQ-nw,29.9264376,-90.0801336,"29.9264376000,-90.0801336000",Parasol's,New Orleans,LA
31021,tsaifr1x7MHWsUngvZ1SQA,b_tsaifr1x7MHWsUngvZ1SQA,29.943959,-90.065392,"29.9439590000,-90.0653920000",Rock-n-Saké Bar & Sushi,New Orleans,LA
31022,M2h3vq8WeSiQAmyJtrPvbQ,b_M2h3vq8WeSiQAmyJtrPvbQ,29.940252,-90.074216,"29.9402520000,-90.0742160000",Emeril's Delmonico,New Orleans,LA
31023,6bp2Emcb08eahoHRJ6yHPw,b_6bp2Emcb08eahoHRJ6yHPw,29.9398399,-90.0753579,"29.9398399000,-90.0753579000",Miyako Hibachi & Sushi Bar,New Orleans,LA
31024,pym7c6ZFEtmoH16xN2ApBg,b_pym7c6ZFEtmoH16xN2ApBg,29.9730943,-90.0959144,"29.9730943000,-90.0959144000",Katie's Restaurant & Bar,New Orleans,LA
31025,ahc6Wx3A9tmoHCtad_z3wg,b_ahc6Wx3A9tmoHCtad_z3wg,29.9745298,-90.1064752,"29.9745298000,-90.1064752000",Banks Street Bar,New Orleans,LA
31026,miRxzEzV7OIShLQ5x_Lvvg,b_miRxzEzV7OIShLQ5x_Lvvg,29.9174,-90.112366,"29.9174000000,-90.1123660000",Domilise Po-Boys & Bar,New Orleans,LA
31027,tBk-uwlYrLLqjzO3CPIKjg,b_tBk-uwlYrLLqjzO3CPIKjg,29.9208193,-90.1026267,"29.9208193000,-90.1026267000",Igor's Buddha Belly Bar & Grill,New Orleans,LA
31028,XFY-rv032rtKYNYVRWqQaA,b_XFY-rv032rtKYNYVRWqQaA,29.9404421003,-90.1279717635,"29.9404421003,-90.1279717635",Phillips Bar & Restaurant,New Orleans,LA
31029,lp0TmbJweMHcfdljcqnaWg,b_lp0TmbJweMHcfdljcqnaWg,29.944874,-90.133028,"29.9448740000,-90.1330280000",G B's Patio Bar & Grill,New Orleans,LA
31030,4cZsFnpFPWvPet0_X9imcQ,b_4cZsFnpFPWvPet0_X9imcQ,29.958928,-90.068153,"29.9589280000,-90.0681530000",Fahy's Irish Pub,New Orleans,LA
31031,NJTikPQCpas4q7HZInlykQ,b_NJTikPQCpas4q7HZInlykQ,29.9581469948,-90.0688748158,"29.9581469948,-90.0688748158",Corner Pocket,New Orleans,LA
31032,HSiktA5zdqPVULY3ThmXIg,b_HSiktA5zdqPVULY3ThmXIg,29.9549901,-90.0693372,"29.9549901000,-90.0693372000",The Alibi,New Orleans,LA
31033,3qEjUW12sH6KOBm86ZDmTA,b_3qEjUW12sH6KOBm86ZDmTA,29.9565666,-90.0679341,"29.9565666000,-90.0679341000",Erin Rose,New Orleans,LA
31034,XrSCucCyRXk4asKmgE6IaQ,b_XrSCucCyRXk4asKmgE6IaQ,29.9709231,-90.0667502,"29.9709231000,-90.0667502000",Kermit's Treme Mother In Law Lounge,New Orleans,LA
31035,yPMmDPbyPFt1hQxzms0Orw,b_yPMmDPbyPFt1hQxzms0Orw,29.9591103,-90.0622144,"29.9591103000,-90.0622144000",Harry's Corner,New Orleans,LA
31036,0eP5RJNSsSYdPvUY3ZbTvw,b_0eP5RJNSsSYdPvUY3ZbTvw,29.9587931,-90.0656443,"29.9587931000,-90.0656443000",Cat's Meow,New Orleans,LA
31037,MKAb5tHHmTDjt50mA8EWJA,b_MKAb5tHHmTDjt50mA8EWJA,29.9573465,-90.0665566,"29.9573465000,-90.0665566000",Big Daddy's,New Orleans,LA
31038,1rkmbnMjrYBM-hOckvnNFw,b_1rkmbnMjrYBM-hOckvnNFw,29.9535975,-90.0658268,"29.9535975000,-90.0658268000",Ryan's Irish Pub,New Orleans,LA
31039,dYNeW8ekFKMeEYUBF7r0RA,b_dYNeW8ekFKMeEYUBF7r0RA,29.95705,-90.067284,"29.9570500000,-90.0672840000",Bourbon Street Blues Company,New Orleans,LA
31040,ewUSU4zZDUYaavehQFeZVw,b_ewUSU4zZDUYaavehQFeZVw,29.9559126227,-90.06792292,"29.9559126227,-90.0679229200",Daquiri's Delight,New Orleans,LA
31041,Lu-PXc9PMmJ9r9TPhSA-XQ,b_Lu-PXc9PMmJ9r9TPhSA-XQ,29.9560809,-90.0681622,"29.9560809000,-90.0681622000",Temptations,New Orleans,LA
31042,-xxGo7PSP5tnL_GEHT5W8w,b_-xxGo7PSP5tnL_GEHT5W8w,29.95461,-90.0687741,"29.9546100000,-90.0687741000",The Penthouse Club - New Orleans,New Orleans,LA
31043,FwTIsJdOV8JVBO_ep3gYSQ,b_FwTIsJdOV8JVBO_ep3gYSQ,29.955959,-90.0683657,"29.9559590000,-90.0683657000",Rick's Cabaret,New Orleans,LA
31044,JbxOWK2tMUkNmYPvjPBVoA,b_JbxOWK2tMUkNmYPvjPBVoA,29.9584311,-90.0656443,"29.9584311000,-90.0656443000",Krazy Korner,New Orleans,LA
31045,jwInf3CRbHz7sji95Qrc_A,b_jwInf3CRbHz7sji95Qrc_A,29.9551234112,-90.0689696069,"29.9551234112,-90.0689696069",Larry Flynt’s Hustler Club,New Orleans,LA
31046,pQtpGY6aBaHJEEGkL240Vw,b_pQtpGY6aBaHJEEGkL240Vw,29.9814062,-90.1062082,"29.9814062000,-90.1062082000",Mick's Irish Pub,New Orleans,LA
31047,6vZhsAveylT7b7oWMH_5zg,b_6vZhsAveylT7b7oWMH_5zg,29.9550033,-90.1048,"29.9550033000,-90.1048000000",The Hangar,New Orleans,LA
31048,_R7jK46I2j3Laeqe2Y_3jA,b__R7jK46I2j3Laeqe2Y_3jA,29.9263272,-90.1014913,"29.9263272000,-90.1014913000",Fat Harry's,New Orleans,LA
31049,zYyVEC0IF86xSHF3GFmvkg,b_zYyVEC0IF86xSHF3GFmvkg,29.9207688,-90.1005804,"29.9207688000,-90.1005804000",Nirvana Indian Cuisine,New Orleans,LA
31050,SbuLL-8eSaUs-huaYR5_IQ,b_SbuLL-8eSaUs-huaYR5_IQ,29.9276,-90.092561,"29.9276000000,-90.0925610000",The Delachaise,New Orleans,LA
31051,sB4xcTwwCO8IHiK15VDC_A,b_sB4xcTwwCO8IHiK15VDC_A,29.94618,-90.126459,"29.9461800000,-90.1264590000",Plum Street Snoball,New Orleans,LA
31052,rGpDkBpwiuhgxOdBqol1Iw,b_rGpDkBpwiuhgxOdBqol1Iw,29.9205261,-90.1062415,"29.9205261000,-90.1062415000",Le Bon Temps Roule,New Orleans,LA
31053,Z_Ew8F4zn0-t51QFUl2qUQ,b_Z_Ew8F4zn0-t51QFUl2qUQ,29.9179196,-90.0933734,"29.9179196000,-90.0933734000",Rock Bottom Lounge,New Orleans,LA
31054,u7uFQCoHFtBKCtbWUm6yZw,b_u7uFQCoHFtBKCtbWUm6yZw,29.9447869,-90.0673771,"29.9447869000,-90.0673771000",Emeril's ,New Orleans,LA
31055,QA8QLpwf_YT9C2ST5YJ0vw,b_QA8QLpwf_YT9C2ST5YJ0vw,29.9550752,-90.0691749,"29.9550752000,-90.0691749000",Galatoire's Restaurant,New Orleans,LA
31056,qclZoDz3sjT7v5xOSj5P2Q,b_qclZoDz3sjT7v5xOSj5P2Q,29.9610325369,-90.0636187172,"29.9610325369,-90.0636187172",Lafitte's Blacksmith Shop Bar,New Orleans,LA
31057,pllvqx8yMnLnQVFjj3oYGg,b_pllvqx8yMnLnQVFjj3oYGg,29.9750548,-90.0995404,"29.9750548000,-90.0995404000",Venezia Restaurant,New Orleans,LA
31058,lyJGznk9M6BzCqzmGiWhag,b_lyJGznk9M6BzCqzmGiWhag,29.9170033,-90.1189276,"29.9170033000,-90.1189276000",Franky & Johnny's,New Orleans,LA
31059,sGbjViru0iJfxH5cBpMeHQ,b_sGbjViru0iJfxH5cBpMeHQ,29.9260216,-90.0943309,"29.9260216000,-90.0943309000",August Moon Chinese Restaurant,New Orleans,LA
31060,2QGyW4T6E_4iSltdx9i2RQ,b_2QGyW4T6E_4iSltdx9i2RQ,29.9292896412,-90.1027699411,"29.9292896412,-90.1027699411",Pascal's Manale,New Orleans,LA
31061,Wh2IssalVTaaSnspVuINzg,b_Wh2IssalVTaaSnspVuINzg,29.9233611797,-90.087585986,"29.9233611797,-90.0875859860",Byblos Restaurant,New Orleans,LA
31062,xoG-zabIUFngEhic1PEajA,b_xoG-zabIUFngEhic1PEajA,29.9248538681,-90.1075544344,"29.9248538681,-90.1075544344",Upperline,New Orleans,LA
31063,TjXbh5PwgCOFkvbi0_qrmA,b_TjXbh5PwgCOFkvbi0_qrmA,29.9501528156,-90.1328536824,"29.9501528156,-90.1328536824",Ninja Restaurant,New Orleans,LA
31064,5uPdoWQNjYkrpRmy9AonSw,b_5uPdoWQNjYkrpRmy9AonSw,29.944138,-90.133964,"29.9441380000,-90.1339640000",Hana Japanese Restaurant,New Orleans,LA
31065,6OgkKH_W4FjSsEql9trqGw,b_6OgkKH_W4FjSsEql9trqGw,29.9490778,-90.1353764,"29.9490778000,-90.1353764000",Mat & Naddie's Restaurant,New Orleans,LA
31066,ZMx3hds9eH24geGkuOQN0A,b_ZMx3hds9eH24geGkuOQN0A,29.9424398,-90.1342512,"29.9424398000,-90.1342512000",Bangkok Thai,New Orleans,LA
31067,znmW7djuEJjlMI0hw-utEw,b_znmW7djuEJjlMI0hw-utEw,29.9624302,-90.1178508,"29.9624302000,-90.1178508000",Red Star Chinese Restaurant,New Orleans,LA
31068,GUgIOkipkxvabF5jQCctVQ,b_GUgIOkipkxvabF5jQCctVQ,29.964386,-90.110862,"29.9643860000,-90.1108620000",Five Happiness Chinese Restaurant,New Orleans,LA
31069,AStCov7pI9nBwpIJhhjihQ,b_AStCov7pI9nBwpIJhhjihQ,29.9576752837,-90.0662362933,"29.9576752837,-90.0662362933",Molly's Irish Pub,New Orleans,LA
31070,zecHMicDmyJ_o_Bbf6HFlw,b_zecHMicDmyJ_o_Bbf6HFlw,29.9614531,-90.1892599,"29.9614531000,-90.1892599000",Chun Lee Chinese Restaurant,New Orleans,LA
31071,E5YB7NywtfmQ2_rpxtjmKQ,b_E5YB7NywtfmQ2_rpxtjmKQ,29.9642465,-90.0860842,"29.9642465000,-90.0860842000",Betsys Pancake House,New Orleans,LA
31072,VHnxcKRk0qGxnW1jgVdwGw,b_VHnxcKRk0qGxnW1jgVdwGw,29.9174093,-90.1007822,"29.9174093000,-90.1007822000",Tipitina's,New Orleans,LA
31073,G4kmb7lGpbER5Jd2Al2TLw,b_G4kmb7lGpbER5Jd2Al2TLw,29.9649085431,-90.0512837212,"29.9649085431,-90.0512837212",Mimi's In The Marigny,New Orleans,LA
31074,22RPgX2iL1bFV2p-ZN9pLg,b_22RPgX2iL1bFV2p-ZN9pLg,29.9392231,-90.0711933,"29.9392231000,-90.0711933000",Bridge Lounge,New Orleans,LA
31075,jziRKhtHxeJPAPWS21jRYw,b_jziRKhtHxeJPAPWS21jRYw,29.9354628578,-90.0792360172,"29.9354628578,-90.0792360172",Copeland's Cheesecake Bistro,New Orleans,LA
31076,bdMjeYn1PcjF02Ngms0fKw,b_bdMjeYn1PcjF02Ngms0fKw,29.9470247,-90.11319,"29.9470247000,-90.1131900000",Forstall Art Supplies,New Orleans,LA
31077,YxxExizKrGf5khnUOvhifA,b_YxxExizKrGf5khnUOvhifA,29.9219328,-90.119676,"29.9219328000,-90.1196760000",National Art & Hobby,New Orleans,LA
31078,7neWV37lyUK91x1WnCOyFQ,b_7neWV37lyUK91x1WnCOyFQ,29.986500127,-90.0934324968,"29.9865001270,-90.0934324968",New Orleans Museum of Art,New Orleans,LA
31079,oeN6HVu0NDMWWMFgyT-EBw,b_oeN6HVu0NDMWWMFgyT-EBw,29.9573826,-90.068917,"29.9573826000,-90.0689170000",Musee Conti Wax Museum,New Orleans,LA
31080,7Iv-6B0EH-yVo5o_VnykWw,b_7Iv-6B0EH-yVo5o_VnykWw,29.942709,-90.070398,"29.9427090000,-90.0703980000",The National WWII Museum,New Orleans,LA
31081,TlRPLXS2HIL-g47QWnovLg,b_TlRPLXS2HIL-g47QWnovLg,29.943453,-90.071316,"29.9434530000,-90.0713160000",Confederate Memorial Hall Museum,New Orleans,LA
31082,tEB0XJTK02RKMk7m4KsPmQ,b_tEB0XJTK02RKMk7m4KsPmQ,29.9557881,-90.0727615,"29.9557881000,-90.0727615000",Saenger Theatre,New Orleans,LA
31083,3NdRfVpi3-tfk9vdiJ_F7w,b_3NdRfVpi3-tfk9vdiJ_F7w,29.9459912615,-90.0669742712,"29.9459912615,-90.0669742712",Renaissance New Orleans Arts Warehouse District Hotel,New Orleans,LA
31084,MmkXMri0Bd0VRsNSEiOJ8Q,b_MmkXMri0Bd0VRsNSEiOJ8Q,29.9235527,-90.0870027,"29.9235527000,-90.0870027000",Semolina's Bistro Italia,New Orleans,LA
31085,KGTXhggdNVaTcqPAJQ0EXw,b_KGTXhggdNVaTcqPAJQ0EXw,29.923516,-90.08689,"29.9235160000,-90.0868900000",Rocky's Gourmet Pizza,New Orleans,LA
31086,_Bi9kN_eR75G1eqIl7S3pA,b__Bi9kN_eR75G1eqIl7S3pA,29.9233606,-90.0873256,"29.9233606000,-90.0873256000",The Bulldog,New Orleans,LA
31087,9xErhLpjFcoA39AFeN3lUA,b_9xErhLpjFcoA39AFeN3lUA,29.9803209101,-90.0831179198,"29.9803209101,-90.0831179198",Liuzza's By The Track,New Orleans,LA
31088,0eOeiknYEwjFOywy9pe4RQ,b_0eOeiknYEwjFOywy9pe4RQ,29.9550495834,-90.0645647943,"29.9550495834,-90.0645647943",Bubba Gump Shrimp Co.,New Orleans,LA
31089,wm2BauQl4RHcUQblP1OitQ,b_wm2BauQl4RHcUQblP1OitQ,29.9249289137,-90.0996609386,"29.9249289137,-90.0996609386",Milan Lounge,New Orleans,LA
31090,GSOLNXG5-IPvNj0DPf3kOQ,b_GSOLNXG5-IPvNj0DPf3kOQ,29.9541395,-90.0660822,"29.9541395000,-90.0660822000",Irene's,New Orleans,LA
31091,M9OmBqomgvMt0SH5G4prBw,b_M9OmBqomgvMt0SH5G4prBw,29.9601037,-90.0630901,"29.9601037000,-90.0630901000",Andrew Jackson Hotel,New Orleans,LA
31092,hS6KNGCQVTYUdLb2edt58g,b_hS6KNGCQVTYUdLb2edt58g,29.9552227147,-90.0627100468,"29.9552227147,-90.0627100468",Steamboat Natchez,New Orleans,LA
31093,v77_hh7gsbpSpjlzSKeq5w,b_v77_hh7gsbpSpjlzSKeq5w,29.957032,-90.064749,"29.9570320000,-90.0647490000",One Eyed Jacks,New Orleans,LA
31094,dBOVfp8Ub8uO9qUPtw92_w,b_dBOVfp8Ub8uO9qUPtw92_w,29.9219562,-90.0927661,"29.9219562000,-90.0927661000",Lilette,New Orleans,LA
31095,8qCqw4c6XArdSQmWqdn0dw,b_8qCqw4c6XArdSQmWqdn0dw,29.9363645,-90.1284741,"29.9363645000,-90.1284741000",Dunbar's Creole Cooking,New Orleans,LA
31096,FaY_9x8ZtsuHe5wS2iJM1Q,b_FaY_9x8ZtsuHe5wS2iJM1Q,29.962126,-90.061236,"29.9621260000,-90.0612360000",Verti Marte,New Orleans,LA
31097,mq8iNBD77TP6eWfFIQO5rQ,b_mq8iNBD77TP6eWfFIQO5rQ,29.9290838,-90.0966536,"29.9290838000,-90.0966536000",Martin Wine Cellar,New Orleans,LA
31098,yf8a1DOlqoqlKHuLSKEfxg,b_yf8a1DOlqoqlKHuLSKEfxg,29.9458219,-90.1349687,"29.9458219000,-90.1349687000",Dante's Kitchen,New Orleans,LA
31099,yD3vJQYB8lX8Se97oCVb2w,b_yD3vJQYB8lX8Se97oCVb2w,29.9443723,-90.0656029,"29.9443723000,-90.0656029000",Rio Mar Restaurant,New Orleans,LA
31100,8FsSuP4Lul4rmA1X7dPctQ,b_8FsSuP4Lul4rmA1X7dPctQ,29.9806047,-90.0852222,"29.9806047000,-90.0852222000",Terranova's Supermarket,New Orleans,LA
31101,m5-FtgWRd4qA7j0vaOXiXQ,b_m5-FtgWRd4qA7j0vaOXiXQ,29.9583052183,-90.0654261542,"29.9583052183,-90.0654261542",Preservation Hall,New Orleans,LA
31102,GIo6CTonm96GbnHqLsw04g,b_GIo6CTonm96GbnHqLsw04g,29.9533488,-90.0662829,"29.9533488000,-90.0662829000",House of Blues New Orleans,New Orleans,LA
31103,kYFJQDMHsubrwDfRpEfDTA,b_kYFJQDMHsubrwDfRpEfDTA,29.9508859,-90.0680892,"29.9508859000,-90.0680892000",Lucky Dogs,New Orleans,LA
31104,8pzVSfj7R3yzOlTepfcIzA,b_8pzVSfj7R3yzOlTepfcIzA,29.9576905,-90.065304,"29.9576905000,-90.0653040000",Royal Blend,New Orleans,LA
31105,lNXAV6t34fqAdGa3MrDxkg,b_lNXAV6t34fqAdGa3MrDxkg,29.9533944,-90.0655896,"29.9533944000,-90.0655896000",Attiki Bar and Grill,New Orleans,LA
31106,R7I-L_gNlZZyvVspL4Xlhw,b_R7I-L_gNlZZyvVspL4Xlhw,29.9479047,-90.0675054,"29.9479047000,-90.0675054000",The Old No 77 Hotel and Chandlery,New Orleans,LA
31107,m1HVolBJiYajyq07J550jQ,b_m1HVolBJiYajyq07J550jQ,29.9521082,-90.077042,"29.9521082000,-90.0770420000",City of New Orleans,New Orleans,LA
31108,MKCUK6Ju67hBk6z9wU7Zww,b_MKCUK6Ju67hBk6z9wU7Zww,29.9562854,-90.0657355,"29.9562854000,-90.0657355000",Omni Royal Orleans,New Orleans,LA
31109,4-by_flBJX3k2U0gVfcntQ,b_4-by_flBJX3k2U0gVfcntQ,29.9411151,-90.1234407,"29.9411151000,-90.1234407000",The Boot Bar and Grill,New Orleans,LA
31110,c-iKAO2GBzSKjm7y1Oljcw,b_c-iKAO2GBzSKjm7y1Oljcw,29.954468,-90.0696096,"29.9544680000,-90.0696096000",Red Fish Grill,New Orleans,LA
31111,Nq_suBLLeDKjND6efdNINg,b_Nq_suBLLeDKjND6efdNINg,29.925489,-90.084332,"29.9254890000,-90.0843320000",CC's Coffee House,New Orleans,LA
31112,rsAhARGH9L-NkFGZjbjiYg,b_rsAhARGH9L-NkFGZjbjiYg,29.9494411,-90.1280201,"29.9494411000,-90.1280201000",GNO Cyclery,New Orleans,LA
31113,q4J6N6W6TrMXbtBAdTPZew,b_q4J6N6W6TrMXbtBAdTPZew,29.9638699,-90.0516822,"29.9638699000,-90.0516822000",Feelings Cafe,New Orleans,LA
31114,KKbMVYwvniRutQhV5QQuEQ,b_KKbMVYwvniRutQhV5QQuEQ,29.9482121999,-90.0662139123,"29.9482121999,-90.0662139123",Loews New Orleans Hotel,New Orleans,LA
31115,6K8LDVqNi879PTSHBW6_tA,b_6K8LDVqNi879PTSHBW6_tA,29.9490204,-90.0664202,"29.9490204000,-90.0664202000",Hotel New Orleans Downtown,New Orleans,LA
31116,s688oKDwUayG5rjHbPwK7w,b_s688oKDwUayG5rjHbPwK7w,30.0209829768,-90.1148233424,"30.0209829768,-90.1148233424",Two Tony's Restaurant,New Orleans,LA
31117,w-2SIKwCKqFYdyaTEZWLaA,b_w-2SIKwCKqFYdyaTEZWLaA,29.9207772,-90.0985726,"29.9207772000,-90.0985726000",Feet First,New Orleans,LA
31118,UKpPU6X97oPd-dkCK8cheQ,b_UKpPU6X97oPd-dkCK8cheQ,29.9390986114,-90.0757797515,"29.9390986114,-90.0757797515",Voodoo BBQ & Grill,New Orleans,LA
31119,vy22ygdCQWPAYGVQVFtNNA,b_vy22ygdCQWPAYGVQVFtNNA,29.9349056,-90.1101445,"29.9349056000,-90.1101445000",Friar Tucks,New Orleans,LA
31120,oXJ-AmZ9sJIc8h2evX3TAA,b_oXJ-AmZ9sJIc8h2evX3TAA,29.9440505,-90.0657171,"29.9440505000,-90.0657171000",Republic NOLA,New Orleans,LA
31121,QD48BhLk7lDTgOL_NiVCCw,b_QD48BhLk7lDTgOL_NiVCCw,29.9217267,-90.1206504,"29.9217267000,-90.1206504000",Taqueria Corona,New Orleans,LA
31122,cCMSaWmsGRfzA2qFvAnvAA,b_cCMSaWmsGRfzA2qFvAnvAA,29.9202984,-90.1042155,"29.9202984000,-90.1042155000",The Bead Shop,New Orleans,LA
31123,gLaxSkjWzt25hybkaKwQcA,b_gLaxSkjWzt25hybkaKwQcA,29.9230437,-90.0882019,"29.9230437000,-90.0882019000",Slim Goodies Diner,New Orleans,LA
31124,-AaxZJ_I4rSFOBJbBz4SlQ,b_-AaxZJ_I4rSFOBJbBz4SlQ,29.9170838415,-90.1054047793,"29.9170838415,-90.1054047793",Hansen's Sno-Bliz,New Orleans,LA
31125,AzseSGgDC6bVtMPEYo1CNQ,b_AzseSGgDC6bVtMPEYo1CNQ,29.9243945,-90.1085033,"29.9243945000,-90.1085033000",Creole Creamery,New Orleans,LA
31126,zCteVmtMkpzP_EggMrVLDw,b_zCteVmtMkpzP_EggMrVLDw,29.9612793,-90.0606455,"29.9612793000,-90.0606455000",Soniat House,New Orleans,LA
31127,Xlu4MEoaK0w4o41WhW5LbQ,b_Xlu4MEoaK0w4o41WhW5LbQ,29.959175,-90.060108,"29.9591750000,-90.0601080000",WWOZ FM Radio,New Orleans,LA
31128,R1WdznjbaFJ25eaAjvjExA,b_R1WdznjbaFJ25eaAjvjExA,29.9571648,-90.0686001,"29.9571648000,-90.0686001000",Dauphine Orleans Hotel,New Orleans,LA
31129,ac1AeYqs8Z4_e2X5M3if2A,b_ac1AeYqs8Z4_e2X5M3if2A,29.956231,-90.067563,"29.9562310000,-90.0675630000",Oceana Grill,New Orleans,LA
31130,_ab50qdWOk0DdB6XOrBitw,b__ab50qdWOk0DdB6XOrBitw,29.9542735,-90.0689651,"29.9542735000,-90.0689651000",Acme Oyster House,New Orleans,LA
31131,OSi2ColCxhS9oCoAUNbPig,b_OSi2ColCxhS9oCoAUNbPig,29.9723234,-90.0979882,"29.9723234000,-90.0979882000",Mandina's Restaurant,New Orleans,LA
31132,UGefDZNmnBztS0eoXWtHyQ,b_UGefDZNmnBztS0eoXWtHyQ,29.9613336,-90.0355517,"29.9613336000,-90.0355517000",The Joint,New Orleans,LA
31133,Qmrw1chFGn3skbWFEyxYCQ,b_Qmrw1chFGn3skbWFEyxYCQ,29.9171335,-90.1024887,"29.9171335000,-90.1024887000",Dick & Jenny's,New Orleans,LA
31134,M0YuK7sLLSA3TfBC4UkUzg,b_M0YuK7sLLSA3TfBC4UkUzg,29.9610073799,-90.0612871832,"29.9610073799,-90.0612871832",Croissant D'Or Patisserie,New Orleans,LA
31135,P2cRfpQQoxNTGyON6yu4nw,b_P2cRfpQQoxNTGyON6yu4nw,29.9421284,-90.0767023,"29.9421284000,-90.0767023000",Uglesich Restaurant & Bar,New Orleans,LA
31136,w-0Gm5hKaX6mHRXoA0Ylrg,b_w-0Gm5hKaX6mHRXoA0Ylrg,29.9603627,-90.0591119,"29.9603627000,-90.0591119000",Fiorella's Cafe,New Orleans,LA
31137,e5fCI12X_GLCST668S4ROA,b_e5fCI12X_GLCST668S4ROA,29.9576181,-90.0653889,"29.9576181000,-90.0653889000",The Court of Two Sisters,New Orleans,LA
31138,Bj7DL3SwmYHZYqPduAsa2w,b_Bj7DL3SwmYHZYqPduAsa2w,29.9554051,-90.0644766,"29.9554051000,-90.0644766000",Johnny's Po-Boys,New Orleans,LA
31139,1-2o_s9TE1auWIivBjdL5g,b_1-2o_s9TE1auWIivBjdL5g,29.9418506,-90.129007,"29.9418506000,-90.1290070000",Fresco Cafe and Pizzeria,New Orleans,LA
31140,SwJOeRUW0mFYDXTgJYx5fA,b_SwJOeRUW0mFYDXTgJYx5fA,29.9462911764,-90.0727557683,"29.9462911764,-90.0727557683",Crescent City Farmers Market: Saturday Market,New Orleans,LA
31141,DWRu1Mw1T7fln6p2F9h7Fg,b_DWRu1Mw1T7fln6p2F9h7Fg,29.9408761,-90.0682131,"29.9408761000,-90.0682131000",Sun Ray Grill,New Orleans,LA
31142,muIfqhkAmF-_AT7pHHUOSw,b_muIfqhkAmF-_AT7pHHUOSw,29.960865,-90.115774,"29.9608650000,-90.1157740000",Rock 'n' Bowl,New Orleans,LA
31143,7kHvPCBSmRgzDgjO9xXT1g,b_7kHvPCBSmRgzDgjO9xXT1g,29.963989689,-90.0578605309,"29.9639896890,-90.0578605309",D.B.A. New Orleans,New Orleans,LA
31144,0ZeGH15LV98FuijA1XrWoA,b_0ZeGH15LV98FuijA1XrWoA,29.9243916,-90.1084046,"29.9243916000,-90.1084046000",Kyoto,New Orleans,LA
31145,UecV_nsSMyjiracwiV_avQ,b_UecV_nsSMyjiracwiV_avQ,29.947026,-90.113604,"29.9470260000,-90.1136040000",Ted's Frostop,New Orleans,LA
31146,qb28j-FNX1_6xm7u372TZA,b_qb28j-FNX1_6xm7u372TZA,29.9577089,-90.064537,"29.9577089000,-90.0645370000",Gumbo Shop,New Orleans,LA
31147,zbaBwAo-UGWZPTvbJVV9Iw,b_zbaBwAo-UGWZPTvbJVV9Iw,29.9594747954,-90.1829732582,"29.9594747954,-90.1829732582",New Orleans Hamburger & Seafood Co,New Orleans,LA
31148,RQGrUjVhkjO9g-C-vl_nzA,b_RQGrUjVhkjO9g-C-vl_nzA,29.9627901,-90.2040157,"29.9627901000,-90.2040157000",Caluda's Cottage Catering,New Orleans,LA
31149,MnfAzLt3qp0CkMHuQF7cvg,b_MnfAzLt3qp0CkMHuQF7cvg,29.9618656,-90.0626157,"29.9618656000,-90.0626157000",Quartermaster Store,New Orleans,LA
31150,zzbZtgPYZS8sTIWQH6DwEw,b_zzbZtgPYZS8sTIWQH6DwEw,29.9168565,-90.1069741,"29.9168565000,-90.1069741000",F & M Patio Bar,New Orleans,LA
31151,ecI3FBTM0f99Fnml3kNKfg,b_ecI3FBTM0f99Fnml3kNKfg,29.9558322,-90.0686549,"29.9558322000,-90.0686549000",Arnaud's Restaurant,New Orleans,LA
31152,o0e5bWndZc7TNiYF2D7eIg,b_o0e5bWndZc7TNiYF2D7eIg,29.9594361844,-90.0650183882,"29.9594361844,-90.0650183882",Marie Laveau House of Voodoo,New Orleans,LA
31153,iS7Jytl5SQJE3LeNYeEnVQ,b_iS7Jytl5SQJE3LeNYeEnVQ,29.934789,-90.120893,"29.9347890000,-90.1208930000",Loyola University New Orleans,New Orleans,LA
31154,uHwRntRXSXKZ_F6DKjxpJA,b_uHwRntRXSXKZ_F6DKjxpJA,29.9187675,-90.1165278,"29.9187675000,-90.1165278000",Octavia Books,New Orleans,LA
31155,GwfFkFb7RDbq4qHD_CUuIA,b_GwfFkFb7RDbq4qHD_CUuIA,29.9207187,-90.1052723,"29.9207187000,-90.1052723000",Danny's Seafood,New Orleans,LA
31156,F_bDaJUteUVm0dGNg0uBIw,b_F_bDaJUteUVm0dGNg0uBIw,29.9625566,-90.057674,"29.9625566000,-90.0576740000",Hookah Cafe,New Orleans,LA
31157,yi9udL5fcmBjwcBcygv51Q,b_yi9udL5fcmBjwcBcygv51Q,29.9509988462,-90.0649962815,"29.9509988462,-90.0649962815",Canal Place,New Orleans,LA
31158,dclL14pr7OojCOKJ_ZbMbQ,b_dclL14pr7OojCOKJ_ZbMbQ,29.9754298,-90.0990473,"29.9754298000,-90.0990473000",Angelo Brocato,New Orleans,LA
31159,7wxIwWq6Jo4lU1GUmz-Wyw,b_7wxIwWq6Jo4lU1GUmz-Wyw,29.9266814,-90.1168764,"29.9266814000,-90.1168764000",Langenstein's,New Orleans,LA
31160,5CbJgHWgvjyDRw9Sl4BXhg,b_5CbJgHWgvjyDRw9Sl4BXhg,29.958496,-90.0652404,"29.9584960000,-90.0652404000",Yo Mama's Bar & Grill,New Orleans,LA
31161,8bv3rsgYxXjBkhHT-dZpaQ,b_8bv3rsgYxXjBkhHT-dZpaQ,29.9510212,-90.0685271,"29.9510212000,-90.0685271000",Royal Crescent Hotel,New Orleans,LA
31162,vN6v8m4DO45Z4pp8yxxF_w,b_vN6v8m4DO45Z4pp8yxxF_w,29.935799,-90.071906,"29.9357990000,-90.0719060000",Surrey's Café & Juice Bar,New Orleans,LA
31163,UXULM1Q0Qh5GK8_pIP4plQ,b_UXULM1Q0Qh5GK8_pIP4plQ,29.9322689,-90.0727848,"29.9322689000,-90.0727848000",Dat's Grocery,New Orleans,LA
31164,D73evJ9PZKxO3E5TaThe3w,b_D73evJ9PZKxO3E5TaThe3w,29.9269027,-90.0942815,"29.9269027000,-90.0942815000",Superior Grill,New Orleans,LA
31165,rrNF0siUBVQOOgsFVfGpKA,b_rrNF0siUBVQOOgsFVfGpKA,29.9273532,-90.0961074,"29.9273532000,-90.0961074000",Columns,New Orleans,LA
31166,9VFNF9_29_X8NDYufitd2Q,b_9VFNF9_29_X8NDYufitd2Q,29.962704,-90.066164,"29.9627040000,-90.0661640000",Meauxbar Bistro,New Orleans,LA
31167,OAjof8dhS2zScmZh2Xuo1A,b_OAjof8dhS2zScmZh2Xuo1A,29.921124,-90.117495,"29.9211240000,-90.1174950000",Whole Foods Market,New Orleans,LA
31168,FL2-I_dZF0dGtpgkDqNUjw,b_FL2-I_dZF0dGtpgkDqNUjw,29.9242911382,-90.107771345,"29.9242911382,-90.1077713450",Wild Lotus Yoga Uptown,New Orleans,LA
31169,JvawJ9bSr22xn4R9oLvl_w,b_JvawJ9bSr22xn4R9oLvl_w,29.9555269925,-90.0681538393,"29.9555269925,-90.0681538393",Desire Oyster Bar,New Orleans,LA
31170,8fjkg9yggo44SeUBalYMCQ,b_8fjkg9yggo44SeUBalYMCQ,29.95845,-90.066127,"29.9584500000,-90.0661270000",Original Sammy Seafood Restaurant,New Orleans,LA
31171,ySgmgIfTm6tUqKRHdK3j9Q,b_ySgmgIfTm6tUqKRHdK3j9Q,29.9609856,-90.0609191,"29.9609856000,-90.0609191000",Beauregard-Keyes House and Garden,New Orleans,LA
31172,DKtAKuOjI6vUAHhW4NR5UA,b_DKtAKuOjI6vUAHhW4NR5UA,29.9445053429,-90.0650161295,"29.9445053429,-90.0650161295",Mulate's,New Orleans,LA
31173,9OCsSHr6OCSyR91BFIbszQ,b_9OCsSHr6OCSyR91BFIbszQ,29.9592917,-90.0607549,"29.9592917000,-90.0607549000",The Original French Market Restaurant and Bar,New Orleans,LA
31174,XnGTrxEafWd-eVWjYzJe9A,b_XnGTrxEafWd-eVWjYzJe9A,29.9592701728,-90.065241,"29.9592701728,-90.0652410000",Funky Pirate,New Orleans,LA
31175,Y2Pfil51rNvTd_lFHwzb_g,b_Y2Pfil51rNvTd_lFHwzb_g,29.955294,-90.06707,"29.9552940000,-90.0670700000",Cafe Beignet on Royal Street,New Orleans,LA
31176,GGAt8z4IS9TseTPNmPcFMA,b_GGAt8z4IS9TseTPNmPcFMA,29.9540003,-90.0667436,"29.9540003000,-90.0667436000",Crescent City Books,New Orleans,LA
31177,5E4I9dsYlfgF3_pDdW_9pQ,b_5E4I9dsYlfgF3_pDdW_9pQ,29.958036,-90.06418,"29.9580360000,-90.0641800000",Faulkner House Books,New Orleans,LA
31178,rgstzwwsiKmaQ-CXU0d6GQ,b_rgstzwwsiKmaQ-CXU0d6GQ,29.9532362,-90.0656808,"29.9532362000,-90.0656808000",Beckham's Book Shop,New Orleans,LA
31179,6a4gLLFSgr-Q6CZXDLzBGQ,b_6a4gLLFSgr-Q6CZXDLzBGQ,29.9422803,-90.0672682,"29.9422803000,-90.0672682000",Cochon,New Orleans,LA
31180,EBonJ5tjkxBEUezwosVlLg,b_EBonJ5tjkxBEUezwosVlLg,29.9342359,-90.0723043,"29.9342359000,-90.0723043000",Mojo Coffee House,New Orleans,LA
31181,8rVVF0fM3pUVMhKZh-MvtA,b_8rVVF0fM3pUVMhKZh-MvtA,29.9214107,-90.1167817,"29.9214107000,-90.1167817000",Azby's,New Orleans,LA
31182,u-wkhjV7CfvGJVY7hGULjw,b_u-wkhjV7CfvGJVY7hGULjw,29.9475061742,-90.0634539975,"29.9475061742,-90.0634539975",Hilton New Orleans Riverside,New Orleans,LA
31183,BuQGsltd3B4L_HRCP2jpTQ,b_BuQGsltd3B4L_HRCP2jpTQ,29.9250280257,-90.0847922206,"29.9250280257,-90.0847922206",Joey K's Restaurant & Bar,New Orleans,LA
31184,Q1EQeIR0Ypv49JL55DogRw,b_Q1EQeIR0Ypv49JL55DogRw,29.9500475,-90.0681308,"29.9500475000,-90.0681308000",Liborio's Cuban Restaurant,New Orleans,LA
31185,79OES-kMb3VGsdy0nG6G2g,b_79OES-kMb3VGsdy0nG6G2g,29.921737915,-90.1191375325,"29.9217379150,-90.1191375325",Cafe Luna,New Orleans,LA
31186,h8h1QvEQruTkBI50NlWsyA,b_h8h1QvEQruTkBI50NlWsyA,29.9418558,-90.1323062,"29.9418558000,-90.1323062000",Vincent's Italian Cuisine,New Orleans,LA
31187,Cbktlvci_z4HwdqPUW-5cg,b_Cbktlvci_z4HwdqPUW-5cg,29.9560831,-90.0636009,"29.9560831000,-90.0636009000",Cafe Maspero,New Orleans,LA
31188,b7YJrFZWZdI2C5-9nZvVdw,b_b7YJrFZWZdI2C5-9nZvVdw,29.944454,-90.133537,"29.9444540000,-90.1335370000",Saltwater Grill,New Orleans,LA
31189,tOqZEVu3-HMB-usS031nqw,b_tOqZEVu3-HMB-usS031nqw,29.9412181,-90.1290435,"29.9412181000,-90.1290435000",TJ Quill's,New Orleans,LA
31190,sitve7-2mPUQQ2bV8jLCRg,b_sitve7-2mPUQQ2bV8jLCRg,29.9553597,-90.0649145,"29.9553597000,-90.0649145000",New Orleans School of Cooking,New Orleans,LA
31191,t-G5YcpHXdLwevVFShIGRQ,b_t-G5YcpHXdLwevVFShIGRQ,29.951185,-90.072501,"29.9511850000,-90.0725010000",Comfort Inn & Suites Downtown,New Orleans,LA
31192,DeWn3Uv2DucZZvATXmfKNg,b_DeWn3Uv2DucZZvATXmfKNg,29.9622704,-90.1141545,"29.9622704000,-90.1141545000",Rally's,New Orleans,LA
31193,yY3kq6_2m1FyY9MgaiHgoQ,b_yY3kq6_2m1FyY9MgaiHgoQ,29.9605088,-90.115896,"29.9605088000,-90.1158960000",Ye Olde College Inn,New Orleans,LA
31194,5rScKeYVjFk8VahsvJv9QA,b_5rScKeYVjFk8VahsvJv9QA,29.9623346259,-90.1132959741,"29.9623346259,-90.1132959741",Mikimoto,New Orleans,LA
31195,IGna30iAQJa6RMbsv-9tWg,b_IGna30iAQJa6RMbsv-9tWg,30.0357777,-89.9149015,"30.0357777000,-89.9149015000",Dong Phuong,New Orleans,LA
31196,-Tskf8WK17rb3ZfeFuRSWA,b_-Tskf8WK17rb3ZfeFuRSWA,29.9528498981,-90.0682077989,"29.9528498981,-90.0682077989",Palace Café,New Orleans,LA
31197,FrsVmHj7QAcQDsrKBXCO_Q,b_FrsVmHj7QAcQDsrKBXCO_Q,29.968434,-90.059593,"29.9684340000,-90.0595930000",Sweet Lorraine's,New Orleans,LA
31198,hX8mDoDLluKNeKwU9mShJA,b_hX8mDoDLluKNeKwU9mShJA,29.962952,-90.0575079,"29.9629520000,-90.0575079000",13 Monaghan,New Orleans,LA
31199,N_c2SBKMc1rmTyea75ONfw,b_N_c2SBKMc1rmTyea75ONfw,29.9584355167,-90.0670263188,"29.9584355167,-90.0670263188",Hotel St Marie,New Orleans,LA
31200,7kV8IVOAm2UNAP4vhMEuJQ,b_7kV8IVOAm2UNAP4vhMEuJQ,29.9477866,-90.1300849,"29.9477866000,-90.1300849000",Gelato Pazzo Caffe,New Orleans,LA
31201,TMBbCDQG6bENJoQSST0XiA,b_TMBbCDQG6bENJoQSST0XiA,29.9456059,-90.1346452,"29.9456059000,-90.1346452000",Brigtsen's Restaurant,New Orleans,LA
31202,ww3YJXu5c18aGZXWmm00qg,b_ww3YJXu5c18aGZXWmm00qg,29.9598673,-90.0629027,"29.9598673000,-90.0629027000",Café Amelie,New Orleans,LA
31203,Z4qfMpj8jymG3_XjTBKN0A,b_Z4qfMpj8jymG3_XjTBKN0A,29.9467433351,-90.1129107722,"29.9467433351,-90.1129107722",Felipe's Mexican Taqueria - Uptown,New Orleans,LA
31204,W4ZEKkva9HpAdZG88juwyQ,b_W4ZEKkva9HpAdZG88juwyQ,29.9543868,-90.0683629,"29.9543868000,-90.0683629000",Mr. B's Bistro,New Orleans,LA
31205,0FLi2UPWY3bTvrcuTWG5IA,b_0FLi2UPWY3bTvrcuTWG5IA,29.947555,-90.13049,"29.9475550000,-90.1304900000",Queen of the Ball,New Orleans,LA
31206,v4ABXLP0D2P7SK2_1ZJ_OA,b_v4ABXLP0D2P7SK2_1ZJ_OA,29.9252153,-90.0839302,"29.9252153000,-90.0839302000",Belladonna Day Spa,New Orleans,LA
31207,sMhdwnrxQd8NWPCxLKqG2A,b_sMhdwnrxQd8NWPCxLKqG2A,29.9249278,-90.1091287,"29.9249278000,-90.1091287000",La Crepe Nanou,New Orleans,LA
31208,5bT-bq-u8rEjBopZg4LCeQ,b_5bT-bq-u8rEjBopZg4LCeQ,29.9520215,-90.0546623,"29.9520215000,-90.0546623000",Dry Dock Cafe,New Orleans,LA
31209,gOtY7zJ1rIu6UIHXEvh5sA,b_gOtY7zJ1rIu6UIHXEvh5sA,29.954027,-90.0650787,"29.9540270000,-90.0650787000",Southern Candymakers,New Orleans,LA
31210,Exh1uNhTSDR1hGivZBIylA,b_Exh1uNhTSDR1hGivZBIylA,29.954636,-90.0668485,"29.9546360000,-90.0668485000",The Pelican Club,New Orleans,LA
31211,SdU54YlTaCCFvtcfouoBpQ,b_SdU54YlTaCCFvtcfouoBpQ,29.9204354503,-90.1127644893,"29.9204354503,-90.1127644893",Guy's Po Boys,New Orleans,LA
31212,X-ZgevJi7i3wf0RjsBLG1w,b_X-ZgevJi7i3wf0RjsBLG1w,29.9733715,-90.0952359,"29.9733715000,-90.0952359000",Liuzza's Restaurant & Bar,New Orleans,LA
31213,xfY46Z-nBtX6sZQLxrdxhQ,b_xfY46Z-nBtX6sZQLxrdxhQ,29.945296,-90.0672198,"29.9452960000,-90.0672198000",Tommy's Cuisine,New Orleans,LA
31214,0vi741BLMGl2QPeTXWeG2w,b_0vi741BLMGl2QPeTXWeG2w,29.9357457,-90.0788195,"29.9357457000,-90.0788195000",The Trolley Stop Cafe,New Orleans,LA
31215,-fJPJP7iOd1ukDNqTSINIg,b_-fJPJP7iOd1ukDNqTSINIg,29.9517993,-90.1204497,"29.9517993000,-90.1204497000",Riccobono’s Panola St. Cafe,New Orleans,LA
31216,M1hsyjJDdQQeNP164FJ1pA,b_M1hsyjJDdQQeNP164FJ1pA,29.9245161516,-90.1091362136,"29.9245161516,-90.1091362136",St. James Cheese Company | Uptown,New Orleans,LA
31217,9xdXS7jtWjCVzL4_oPGv9A,b_9xdXS7jtWjCVzL4_oPGv9A,29.9555474438,-90.0688439671,"29.9555474438,-90.0688439671",GW Fins,New Orleans,LA
31218,AFTMAbflXJFcxlWslSEYCg,b_AFTMAbflXJFcxlWslSEYCg,29.940357,-90.120723,"29.9403570000,-90.1207230000",Tulane University,New Orleans,LA
31219,NOKp3L3smiKdFNFUswvIUg,b_NOKp3L3smiKdFNFUswvIUg,29.9212,-90.099559,"29.9212000000,-90.0995590000",Dominique's on Magazine,New Orleans,LA
31220,q_z-FrCU0a8FguL3Jk52yw,b_q_z-FrCU0a8FguL3Jk52yw,29.9488507,-90.1197751,"29.9488507000,-90.1197751000",Roman Pizza,New Orleans,LA
31221,G1fQJ8k5U1gdX0vWODCZYA,b_G1fQJ8k5U1gdX0vWODCZYA,29.949863,-90.1274815,"29.9498630000,-90.1274815000",Cafe Nino,New Orleans,LA
31222,7kalppAJfFqK0UvvHTlHeQ,b_7kalppAJfFqK0UvvHTlHeQ,29.9523900701,-90.0670795181,"29.9523900701,-90.0670795181",Cafe Giovanni,New Orleans,LA
31223,cxB31SdS6anItwCmTOKtNg,b_cxB31SdS6anItwCmTOKtNg,29.9512243,-90.0689468,"29.9512243000,-90.0689468000",International House Hotel,New Orleans,LA
31224,Zi-F-YvyVOK0k5QD7lrLOg,b_Zi-F-YvyVOK0k5QD7lrLOg,29.9584576,-90.063188,"29.9584576000,-90.0631880000",Muriel's Jackson Square,New Orleans,LA
31225,x7_p5O3ChQa7shdHCcLHZQ,b_x7_p5O3ChQa7shdHCcLHZQ,29.9510658,-90.0715323,"29.9510658000,-90.0715323000",Olivier's Creole Restaurant,New Orleans,LA
31226,hJhqAfuv2n6W6DUwhVjaIw,b_hJhqAfuv2n6W6DUwhVjaIw,29.9378256,-90.0758963,"29.9378256000,-90.0758963000",Sushi Brothers,New Orleans,LA
31227,dbli0TD6YQfbnWTv-43KLg,b_dbli0TD6YQfbnWTv-43KLg,29.9366725,-90.0777792,"29.9366725000,-90.0777792000",Houston's Restaurant,New Orleans,LA
31228,I6AzZdywixry7O-c0GXDEQ,b_I6AzZdywixry7O-c0GXDEQ,30.0120275,-90.0606917,"30.0120275000,-90.0606917000",Chinese Tea Garden,New Orleans,LA
31229,PX_DTu46ZtRiqbF06mR1Lw,b_PX_DTu46ZtRiqbF06mR1Lw,29.9610341456,-90.0753838337,"29.9610341456,-90.0753838337",St. Louis Cemetery No. 2,New Orleans,LA
31230,4w_TG6uA5bIxnC5tpkOb3g,b_4w_TG6uA5bIxnC5tpkOb3g,29.9644297212,-90.0579158833,"29.9644297212,-90.0579158833",The Marigny Brasserie,New Orleans,LA
31231,rHYqc5YTAkFGYxcoYg7R8w,b_rHYqc5YTAkFGYxcoYg7R8w,29.9588821,-90.0627742,"29.9588821000,-90.0627742000",Trashy Diva,New Orleans,LA
31232,cmcLkFHNfsmqyufEDlg0qQ,b_cmcLkFHNfsmqyufEDlg0qQ,29.9512926,-90.065744,"29.9512926000,-90.0657440000",Mignon Faget,New Orleans,LA
31233,YbLfrRHnESFXpvyClWTEig,b_YbLfrRHnESFXpvyClWTEig,29.9604847,-90.0597221,"29.9604847000,-90.0597221000",Funrock'n,New Orleans,LA
31234,qF8jkN4q4SajC4p4nKwjgQ,b_qF8jkN4q4SajC4p4nKwjgQ,29.9621826,-90.0607914,"29.9621826000,-90.0607914000",Mona Lisa Restaurant,New Orleans,LA
31235,I_FKWKPVpGts4q_HzJ-0mQ,b_I_FKWKPVpGts4q_HzJ-0mQ,29.9550414497,-90.0710785389,"29.9550414497,-90.0710785389","The Ritz-Carlton, New Orleans",New Orleans,LA
31236,RA5E6BDiAzgSmsxdc1A4tw,b_RA5E6BDiAzgSmsxdc1A4tw,29.9546139,-90.065845,"29.9546139000,-90.0658450000",W New Orleans - French Quarter,New Orleans,LA
31237,lWGNCV2NSqURVoqJQAHD6Q,b_lWGNCV2NSqURVoqJQAHD6Q,29.9418408,-90.0662659,"29.9418408000,-90.0662659000",The Metropolitan,New Orleans,LA
31238,zyRXfBnoE1JZVN4SE7OaaA,b_zyRXfBnoE1JZVN4SE7OaaA,29.9587943,-90.0617793,"29.9587943000,-90.0617793000",Kulture Vulture,New Orleans,LA
31239,5cyRrnWQsKFFLzVYb87-rw,b_5cyRrnWQsKFFLzVYb87-rw,29.95689447,-90.0642267289,"29.9568944700,-90.0642267289",Sweet Pea & Tulip Boutique,New Orleans,LA
31240,XkUodO5PyRJAxKcxy5RjxQ,b_XkUodO5PyRJAxKcxy5RjxQ,29.9490277,-90.0663096,"29.9490277000,-90.0663096000",Whiskey Blue,New Orleans,LA
31241,CBGqxzHew6PveH_YdKLYpw,b_CBGqxzHew6PveH_YdKLYpw,29.9591512,-90.0627252,"29.9591512000,-90.0627252000",Voodoo Authentica,New Orleans,LA
31242,QPh2o_h5nVN2_xY7CEM0ug,b_QPh2o_h5nVN2_xY7CEM0ug,29.9638552,-90.0579092,"29.9638552000,-90.0579092000",Electric Ladyland Tattoo,New Orleans,LA
31243,TXgyJIkjys1X_TDf0yuDdA,b_TXgyJIkjys1X_TDf0yuDdA,29.9242756,-90.0857297,"29.9242756000,-90.0857297000",Frock Candy,New Orleans,LA
31244,BRJwJjDrnO4OA4MTCK3mcg,b_BRJwJjDrnO4OA4MTCK3mcg,29.9542351,-90.06948,"29.9542351000,-90.0694800000",Krystal,New Orleans,LA
31245,2XEf2xOj-iZImMeWELkQFw,b_2XEf2xOj-iZImMeWELkQFw,29.958753,-90.063406,"29.9587530000,-90.0634060000",Place d'Armes Hotel,New Orleans,LA
31246,neWdmzHgbpqSx62jynDd7A,b_neWdmzHgbpqSx62jynDd7A,29.9566431,-90.0680566,"29.9566431000,-90.0680566000",Broussard's,New Orleans,LA
31247,FEXhWNCMkv22qG04E83Qjg,b_FEXhWNCMkv22qG04E83Qjg,29.957525,-90.061861,"29.9575250000,-90.0618610000",Café Du Monde,New Orleans,LA
31248,yexVj09OH5n_X-MT_Lq5rg,b_yexVj09OH5n_X-MT_Lq5rg,29.948231,-90.065727,"29.9482310000,-90.0657270000",The Steakhouse,New Orleans,LA
31249,KXkwF6nFcuBLNmefkhUwKQ,b_KXkwF6nFcuBLNmefkhUwKQ,29.9372128,-90.1972433,"29.9372128000,-90.1972433000",Ro-Bear's Snowballs & Soft Serve,New Orleans,LA
31250,DEfNnxhSzrAfrDv3si88nQ,b_DEfNnxhSzrAfrDv3si88nQ,29.958077,-90.062631,"29.9580770000,-90.0626310000",Creole Delicacies Gourmet Shop,New Orleans,LA
31251,gaP8UpEO1tC-78P4wUA68A,b_gaP8UpEO1tC-78P4wUA68A,29.9472027,-90.0627359,"29.9472027000,-90.0627359000",Riverwalk Marketplace,New Orleans,LA
31252,xIeHG2cqw7XEqy_M82zA7g,b_xIeHG2cqw7XEqy_M82zA7g,29.9510013,-90.0630718,"29.9510013000,-90.0630718000",Audubon Aquarium of the Americas,New Orleans,LA
31253,I_VsUwgQSkXqo1I2UjnhWA,b_I_VsUwgQSkXqo1I2UjnhWA,29.9227816399,-90.1319861178,"29.9227816399,-90.1319861178",Audubon Zoo,New Orleans,LA
31254,VaO-VW3e1kARkU9bP1E7Fw,b_VaO-VW3e1kARkU9bP1E7Fw,29.9546804306,-90.0689453974,"29.9546804306,-90.0689453974",Felix's Restaurant & Oyster Bar,New Orleans,LA
31255,ta5Oi3sezvn4H299MbtE8Q,b_ta5Oi3sezvn4H299MbtE8Q,29.9541144343,-90.0681439723,"29.9541144343,-90.0681439723",The Carousel Bar & Lounge,New Orleans,LA
31256,FknpD7tLt59-6ozV3Pk2Vg,b_FknpD7tLt59-6ozV3Pk2Vg,29.951079,-90.081247,"29.9510790000,-90.0812470000",Caesars Superdome,New Orleans,LA
31257,yL9j5ASNic_DaDKf9lwMhw,b_yL9j5ASNic_DaDKf9lwMhw,29.9296472,-90.0772134,"29.9296472000,-90.0772134000",Stein's Market and Deli,New Orleans,LA
31258,GBTPC53ZrG1ZBY3DT8Mbcw,b_GBTPC53ZrG1ZBY3DT8Mbcw,29.9507416316,-90.0704155423,"29.9507416316,-90.0704155423",Luke,New Orleans,LA
31259,wYdlP6g2y6gK_RmLrPhsGA,b_wYdlP6g2y6gK_RmLrPhsGA,29.9806878,-90.0853985,"29.9806878000,-90.0853985000",Lola's,New Orleans,LA
31260,guwb1zuNEMtJVproo0ntFw,b_guwb1zuNEMtJVproo0ntFw,29.9434549,-90.0673411,"29.9434549000,-90.0673411000",La Boca,New Orleans,LA
31261,wF-L8lZGy2H1q_06KJUHwg,b_wF-L8lZGy2H1q_06KJUHwg,29.9563076,-90.0639801,"29.9563076000,-90.0639801000",Ralph and Kacoo's,New Orleans,LA
31262,UH87t9fT_oTLMZfr5iCbQg,b_UH87t9fT_oTLMZfr5iCbQg,29.959154,-90.0653159,"29.9591540000,-90.0653159000",Tropical Isle,New Orleans,LA
31263,lpHnM-LPShWWMylulsA-VQ,b_lpHnM-LPShWWMylulsA-VQ,29.9666262076,-90.2053038847,"29.9666262076,-90.2053038847",The Shimmy Shack,New Orleans,LA
31264,qFqYnVhKKdDPYoTFwqHDrg,b_qFqYnVhKKdDPYoTFwqHDrg,29.9217935,-90.1202055,"29.9217935000,-90.1202055000",Martinique Bistro,New Orleans,LA
31265,I3Uy20BKx7G-Fzz6hLIeWg,b_I3Uy20BKx7G-Fzz6hLIeWg,29.95,-90.0668309,"29.9500000000,-90.0668309000",Restaurant August,New Orleans,LA
31266,iFgoIM21C_P68N8Dk-HHEA,b_iFgoIM21C_P68N8Dk-HHEA,29.9603205,-90.0610674,"29.9603205000,-90.0610674000",Stella!,New Orleans,LA
31267,oDETvkVkHw7CjZj7ZOZFOQ,b_oDETvkVkHw7CjZj7ZOZFOQ,29.9537303,-90.0711912,"29.9537303000,-90.0711912000",Cajun Mike's Pub & Grub,New Orleans,LA
31268,iwmW2mgcn2YdirXUHCsgXQ,b_iwmW2mgcn2YdirXUHCsgXQ,29.954618,-90.06918,"29.9546180000,-90.0691800000",Bourbon House,New Orleans,LA
31269,QE2KzOMx80dUIkW7NNiH6w,b_QE2KzOMx80dUIkW7NNiH6w,29.9763241,-90.0762347,"29.9763241000,-90.0762347000",Coco Hut,New Orleans,LA
31270,O7adYE4pVfqY02Lh6ywEpA,b_O7adYE4pVfqY02Lh6ywEpA,29.9806209,-90.0843017,"29.9806209000,-90.0843017000",Swirl Wine Bar & Market,New Orleans,LA
31271,Yniml-2q7QlJlM44YiIJUA,b_Yniml-2q7QlJlM44YiIJUA,29.9548403,-90.0647868,"29.9548403000,-90.0647868000",French Quarter Walking Tour by National Park Service,New Orleans,LA
31272,AperXbtpt4FH6fvJFOirUA,b_AperXbtpt4FH6fvJFOirUA,29.9500396,-90.073689,"29.9500396000,-90.0736890000",Horinoya,New Orleans,LA
31273,ZDV6ocQSe6dkMt-u011xcQ,b_ZDV6ocQSe6dkMt-u011xcQ,29.9608254,-90.0652429,"29.9608254000,-90.0652429000",Eat New Orleans,New Orleans,LA
31274,-_DYwksHcLSXEYo_pVVENA,b_-_DYwksHcLSXEYo_pVVENA,29.9502314094,-90.0702560309,"29.9502314094,-90.0702560309",InterContinental New Orleans,New Orleans,LA
31275,11qwVOxX-Z0bWAnfpVLnlw,b_11qwVOxX-Z0bWAnfpVLnlw,29.9525565,-90.0697679,"29.9525565000,-90.0697679000",Mike Serio's Poboys,New Orleans,LA
31276,7eguS2DuAG-4B9EAHAP5Dw,b_7eguS2DuAG-4B9EAHAP5Dw,29.951111,-90.069929,"29.9511110000,-90.0699290000",FredRicks Deli,New Orleans,LA
31277,yE6aDcbbK8pmvNroXnQYQA,b_yE6aDcbbK8pmvNroXnQYQA,29.9508856,-90.0687461,"29.9508856000,-90.0687461000",Majoria's Commerce Restaurant,New Orleans,LA
31278,PaeQDmaI4FPacIJogLmvHw,b_PaeQDmaI4FPacIJogLmvHw,29.9528206,-90.0697346,"29.9528206000,-90.0697346000",The Pearl Restaurant and Oyster Bar,New Orleans,LA
31279,4inlQasjjXIe-wK9Wce5qA,b_4inlQasjjXIe-wK9Wce5qA,29.9549893,-90.0661553,"29.9549893000,-90.0661553000",Rotolo's Pizzeria,New Orleans,LA
31280,3db1R99-mdSvx3QwryJSNQ,b_3db1R99-mdSvx3QwryJSNQ,29.943899,-90.133927,"29.9438990000,-90.1339270000",The Camellia Grill,New Orleans,LA
31281,rUxxJi1tlSljiY_kTasUKA,b_rUxxJi1tlSljiY_kTasUKA,29.9637649,-90.0579457,"29.9637649000,-90.0579457000",Cafe Negril,New Orleans,LA
31282,8nsb8UFooviPKFaFfuPdLQ,b_8nsb8UFooviPKFaFfuPdLQ,29.9206957636,-90.1011916011,"29.9206957636,-90.1011916011",Ms Mae's,New Orleans,LA
31283,t1qF12NdW8KvCqxqbvy-Hg,b_t1qF12NdW8KvCqxqbvy-Hg,29.9614949177,-90.0586976759,"29.9614949177,-90.0586976759",Cafe Envie & Espresso Bar,New Orleans,LA
31284,232qg1k9QV0pNt90jyTatA,b_232qg1k9QV0pNt90jyTatA,29.9586117,-90.0658633,"29.9586117000,-90.0658633000",Maison Bourbon,New Orleans,LA
31285,anj96OOqM159M4C6J2MY2A,b_anj96OOqM159M4C6J2MY2A,29.934535,-90.0805199,"29.9345350000,-90.0805199000",Igor's Lounge & Game Room,New Orleans,LA
31286,WecgAHgzAPLOmM-6-Iga2A,b_WecgAHgzAPLOmM-6-Iga2A,29.9320758,-90.0745904,"29.9320758000,-90.0745904000",Cafe Roma,New Orleans,LA
31287,vxLV9tci88Hsr1G01uleag,b_vxLV9tci88Hsr1G01uleag,29.9389437,-90.0759998,"29.9389437000,-90.0759998000",Slice Pizzeria,New Orleans,LA
31288,uYoSIozj12TUoHMAweFOUg,b_uYoSIozj12TUoHMAweFOUg,29.9443435,-90.1342056,"29.9443435000,-90.1342056000",One Restaurant & Lounge,New Orleans,LA
31289,jLv2NtWYK7ROG-FTtDCerA,b_jLv2NtWYK7ROG-FTtDCerA,29.9503892,-90.0732324,"29.9503892000,-90.0732324000",Homewood Suites by Hilton New Orleans,New Orleans,LA
31290,bMpKXcKFetJQsa42UR25cQ,b_bMpKXcKFetJQsa42UR25cQ,29.960245,-90.059869,"29.9602450000,-90.0598690000",Pravda!,New Orleans,LA
31291,2myVMP_l-9f9JIZewm19Cg,b_2myVMP_l-9f9JIZewm19Cg,29.9565224,-90.0684649,"29.9565224000,-90.0684649000",Prince Conti Hotel,New Orleans,LA
31292,NuI532ndKlcbevcw68YCRA,b_NuI532ndKlcbevcw68YCRA,29.9576636165,-90.0621063667,"29.9576636165,-90.0621063667",River's Edge,New Orleans,LA
31293,75FY8ZQx5nOWP0VFmNvWfw,b_75FY8ZQx5nOWP0VFmNvWfw,29.9212715,-90.0878562,"29.9212715000,-90.0878562000",Atchafalaya Restaurant,New Orleans,LA
31294,g04aAvgol7IW8buqSbT4xA,b_g04aAvgol7IW8buqSbT4xA,29.9544944572,-90.0665915385,"29.9544944572,-90.0665915385",Cafe Fleur De Lis,New Orleans,LA
31295,5j2ywRGhhYdia7CuQSzkoA,b_5j2ywRGhhYdia7CuQSzkoA,29.9576176,-90.0664106,"29.9576176000,-90.0664106000",Funky 544,New Orleans,LA
31296,UaqydpK8epcBI_lzdhAdJg,b_UaqydpK8epcBI_lzdhAdJg,29.952444,-90.0689103,"29.9524440000,-90.0689103000",JW Marriott New Orleans,New Orleans,LA
31297,2OcVR4GRcmVsC118dn2QWA,b_2OcVR4GRcmVsC118dn2QWA,29.9559253,-90.0629624,"29.9559253000,-90.0629624000",Jackson Brewery,New Orleans,LA
31298,1NwmSlcnhVttwMWNx9fqLw,b_1NwmSlcnhVttwMWNx9fqLw,29.9568456,-90.0625017,"29.9568456000,-90.0625017000",Royal Carriages,New Orleans,LA
31299,SvB4Z0pan7IKy0IrfNw2rQ,b_SvB4Z0pan7IKy0IrfNw2rQ,29.9236050603,-90.0879121817,"29.9236050603,-90.0879121817",Big Fisherman Seafood,New Orleans,LA
31300,IcWlx0OMwkP96MQbT4_6Pw,b_IcWlx0OMwkP96MQbT4_6Pw,29.923299,-90.087423,"29.9232990000,-90.0874230000",Nacho Mama's Mexican Grill,New Orleans,LA
31301,jar_5KMQZtgOseRdUN3L0w,b_jar_5KMQZtgOseRdUN3L0w,29.9249433,-90.0853176,"29.9249433000,-90.0853176000",Sucré,New Orleans,LA
31302,xyXLjK-SO3s9oKYZjv6YKQ,b_xyXLjK-SO3s9oKYZjv6YKQ,29.9523792,-90.0712601,"29.9523792000,-90.0712601000",Dominic's,New Orleans,LA
31303,k8loHfuD6XfmxlM_podojg,b_k8loHfuD6XfmxlM_podojg,29.9542180822,-90.0650175029,"29.9542180822,-90.0650175029",Kerry Irish Pub,New Orleans,LA
31304,ONYw_0o7ov_UBPrluJ34Ug,b_ONYw_0o7ov_UBPrluJ34Ug,29.951143,-90.0725424,"29.9511430000,-90.0725424000",Voodoo Two,New Orleans,LA
31305,ECOUuwE5H1HHE8xBfNAjFg,b_ECOUuwE5H1HHE8xBfNAjFg,29.955685,-90.063888,"29.9556850000,-90.0638880000",Crescent City Brewhouse,New Orleans,LA
31306,I6L0Zxi5Ww0zEWSAVgngeQ,b_I6L0Zxi5Ww0zEWSAVgngeQ,29.955845,-90.0684361,"29.9558450000,-90.0684361000",Cafe Beignet on Bourbon Street,New Orleans,LA
31307,j00Jky-A3xhT4u7VtO6d2g,b_j00Jky-A3xhT4u7VtO6d2g,29.975429,-90.099705,"29.9754290000,-90.0997050000",Wit's Inn,New Orleans,LA
31308,f4vbnGoGo3eWorVekctVGQ,b_f4vbnGoGo3eWorVekctVGQ,29.9441947,-90.1341609,"29.9441947000,-90.1341609000",Refuel Cafe,New Orleans,LA
31309,nD23DgebTW9y3We-A5f8pw,b_nD23DgebTW9y3We-A5f8pw,29.9208223,-90.0986864,"29.9208223000,-90.0986864000",Mona's Cafe,New Orleans,LA
31310,o_A0js3gJ1BDU7M-faQY4Q,b_o_A0js3gJ1BDU7M-faQY4Q,29.9577138,-90.066687,"29.9577138000,-90.0666870000",Ramada Plaza Hotel The Inn on Bourbon,New Orleans,LA
31311,Mety9u6oVMEBliYTmBZ7Jg,b_Mety9u6oVMEBliYTmBZ7Jg,29.9213963,-90.116895,"29.9213963000,-90.1168950000",St Joe's Bar,New Orleans,LA
31312,9qvB4_1l81qpOHI9FHW83A,b_9qvB4_1l81qpOHI9FHW83A,29.9196791557,-90.1337242126,"29.9196791557,-90.1337242126",The Fly,New Orleans,LA
31313,AhVvuzwWQU__CligbY4r0Q,b_AhVvuzwWQU__CligbY4r0Q,29.930506,-90.0750713,"29.9305060000,-90.0750713000",Juan's Flying Burrito,New Orleans,LA
31314,XpfZWn5GhCMjsXiusGO2iQ,b_XpfZWn5GhCMjsXiusGO2iQ,29.9618198906,-90.0596505494,"29.9618198906,-90.0596505494",Le Richelieu,New Orleans,LA
31315,2K75poiMupFTvpQq5REWTA,b_2K75poiMupFTvpQq5REWTA,29.9685958,-90.0550688,"29.9685958000,-90.0550688000",Kajun's Pub,New Orleans,LA
31316,_9NKC0LTGR8RSRTSdcwyvw,b__9NKC0LTGR8RSRTSdcwyvw,29.967048,-90.0426806,"29.9670480000,-90.0426806000",Capt. Sal's Seafood & Chicken,New Orleans,LA
31317,Y_iZxWqtxKPuX5Cs24_CQQ,b_Y_iZxWqtxKPuX5Cs24_CQQ,29.957505,-90.0659114,"29.9575050000,-90.0659114000",Ye Olde Original Dungeon,New Orleans,LA
31318,Ln5j6LRuXur3E5U86WjOJg,b_Ln5j6LRuXur3E5U86WjOJg,29.9279293,-90.0789655,"29.9279293000,-90.0789655000",Magazine Po-Boy Shop,New Orleans,LA
31319,TcNZXteosegb1RO4O5hREw,b_TcNZXteosegb1RO4O5hREw,29.9736823589,-90.0902080718,"29.9736823589,-90.0902080718",Parkway Bakery & Tavern,New Orleans,LA
31320,b_WqANUY0faWZOpMNiBLew,b_b_WqANUY0faWZOpMNiBLew,29.9190692722,-90.1250852808,"29.9190692722,-90.1250852808",Clancy's Restaurant,New Orleans,LA
31321,0_CwyjIpQY-D9w__TBAIRA,b_0_CwyjIpQY-D9w__TBAIRA,29.9245821,-90.084916,"29.9245821000,-90.0849160000",The Mayan Import Company,New Orleans,LA
31322,j_c857PbU_2r84o-BT0IRA,b_j_c857PbU_2r84o-BT0IRA,29.9254642,-90.0833279,"29.9254642000,-90.0833279000",Perch,New Orleans,LA
31323,eT1nr9nFklcUg8hefYcQJA,b_eT1nr9nFklcUg8hefYcQJA,29.9473338,-90.1130012,"29.9473338000,-90.1130012000",Pyramids Cafe,New Orleans,LA
31324,6SEvNIRk086bebUMYPtq3g,b_6SEvNIRk086bebUMYPtq3g,29.9349207,-90.0802564,"29.9349207000,-90.0802564000",Club Wyndham Avenue Plaza,New Orleans,LA
31325,x4K6aMaOYvGhC5jhFJP2Ag,b_x4K6aMaOYvGhC5jhFJP2Ag,29.9562764733,-90.0789572114,"29.9562764733,-90.0789572114",Pho Tau Bay Restaurant,New Orleans,LA
31326,wIdiqDp9bbCdTIfaVQn1rQ,b_wIdiqDp9bbCdTIfaVQn1rQ,29.958988,-90.183934,"29.9589880000,-90.1839340000",Nacho Mama's Mexican Grill,New Orleans,LA
31327,J1O2KJ57jnAZlsdaNQCyCQ,b_J1O2KJ57jnAZlsdaNQCyCQ,29.9545837,-90.0649058,"29.9545837000,-90.0649058000",Lush Fresh Handmade Cosmetics,New Orleans,LA
31328,_fLKzOl2yx06bZizPPwDeg,b__fLKzOl2yx06bZizPPwDeg,29.986006,-90.087721,"29.9860060000,-90.0877210000",Deutsches Haus,New Orleans,LA
31329,ytY1d6GAmOiuSNLeUw0DTw,b_ytY1d6GAmOiuSNLeUw0DTw,29.9473994,-90.1129356,"29.9473994000,-90.1129356000",Buds Broiler,New Orleans,LA
31330,iYUwyARgC_RNPA1rTlL3-Q,b_iYUwyARgC_RNPA1rTlL3-Q,29.964702,-90.1355104,"29.9647020000,-90.1355104000",Crabby Jack's,New Orleans,LA
31331,rdc5LS5MnZUO_nh-4fOflg,b_rdc5LS5MnZUO_nh-4fOflg,29.9479753,-90.0662013,"29.9479753000,-90.0662013000",Balance Spa and Fitness,New Orleans,LA
31332,cGpwakhNiZ3xGCsAGPu5fw,b_cGpwakhNiZ3xGCsAGPu5fw,29.97007,-90.04111,"29.9700700000,-90.0411100000",St Vincent De Paul Cemetery,New Orleans,LA
31333,9ng2rcAA3Lb6m_t4IY0QcA,b_9ng2rcAA3Lb6m_t4IY0QcA,29.9249844185,-90.084958627,"29.9249844185,-90.0849586270",La Divina Gelateria,New Orleans,LA
31334,GG-DeOjnmu4V_opx-MIfvA,b_GG-DeOjnmu4V_opx-MIfvA,29.9357316619,-90.0779790616,"29.9357316619,-90.0779790616",The Melting Pot - New Orleans,New Orleans,LA
31335,doXdYYc1aYWvfN3EvxZQhg,b_doXdYYc1aYWvfN3EvxZQhg,29.9508838828,-90.0650301576,"29.9508838828,-90.0650301576",Saks Fifth Avenue,New Orleans,LA
31336,NIpZBy1O1JFj9x2bcErZlQ,b_NIpZBy1O1JFj9x2bcErZlQ,29.9695673,-90.0991934,"29.9695673000,-90.0991934000",Finn McCool's Irish Pub,New Orleans,LA
31337,BsEPhVX7PtbrOkVtnnn1_w,b_BsEPhVX7PtbrOkVtnnn1_w,29.9675817,-90.0579182,"29.9675817000,-90.0579182000",Loretta's Authentic Pralines,New Orleans,LA
31338,cIBr1KeRLTpgvTpF8z2nFQ,b_cIBr1KeRLTpgvTpF8z2nFQ,29.95351,-90.067547,"29.9535100000,-90.0675470000",The Jimani,New Orleans,LA
31339,QJCS8hHhSNkCZyjuQ8WK9w,b_QJCS8hHhSNkCZyjuQ8WK9w,29.9243554,-90.0861573,"29.9243554000,-90.0861573000",Funky Monkey,New Orleans,LA
31340,sIAw4e_lMkbybecDhJ5WBw,b_sIAw4e_lMkbybecDhJ5WBw,29.9732939,-90.103402,"29.9732939000,-90.1034020000",Jesuit High School,New Orleans,LA
31341,i46ao1Quy6futuuQx7LQ_A,b_i46ao1Quy6futuuQx7LQ_A,29.957591,-90.064918,"29.9575910000,-90.0649180000",MS Rau,New Orleans,LA
31342,pzLIddCC9lPTl0Uhlf_N6A,b_pzLIddCC9lPTl0Uhlf_N6A,29.9532926701,-90.0718282658,"29.9532926701,-90.0718282658",Renaissance New Orleans Pere Marquette French Quarter Area Hotel,New Orleans,LA
31343,lWPQeVAZInbNntRu6eFkbg,b_lWPQeVAZInbNntRu6eFkbg,29.961111,-90.0582831,"29.9611110000,-90.0582831000",Louisiana Pizza Kitchen,New Orleans,LA
31344,hy-E7DdXbdgTbwphKUYW1w,b_hy-E7DdXbdgTbwphKUYW1w,29.9583779,-90.0651654,"29.9583779000,-90.0651654000",Haunted History Tours,New Orleans,LA
31345,-9ZNA22YhFlvTdLDYjvNdA,b_-9ZNA22YhFlvTdLDYjvNdA,29.9579567,-90.0636679,"29.9579567000,-90.0636679000",Cathedral-Basilica of St. Louis King of France,New Orleans,LA
31346,J5rV8vunkHaMJjPQt8aNMQ,b_J5rV8vunkHaMJjPQt8aNMQ,29.9567535,-90.0672425,"29.9567535000,-90.0672425000",The Jazz Emporium,New Orleans,LA
31347,UH1Baremef79qGhPQ0Ef3A,b_UH1Baremef79qGhPQ0Ef3A,29.9418055,-90.1289339,"29.9418055000,-90.1289339000",Maple Street Cafe,New Orleans,LA
31348,9-jLNusMgzv-PVtGwtD5RA,b_9-jLNusMgzv-PVtGwtD5RA,29.9628967,-90.042823,"29.9628967000,-90.0428230000",Mirliton Festival,New Orleans,LA
31349,wjZwXKDiFBQXlO8-TjQTXA,b_wjZwXKDiFBQXlO8-TjQTXA,29.9550333978,-90.0645679,"29.9550333978,-90.0645679000",Tujague's Restaurant,New Orleans,LA
31350,xb0hjIOPiiKn6MEovzebqg,b_xb0hjIOPiiKn6MEovzebqg,29.9209209,-90.1164174,"29.9209209000,-90.1164174000",Magic Box Toys,New Orleans,LA
31351,DJim4p_UABTUcIKsZTxARg,b_DJim4p_UABTUcIKsZTxARg,29.9213194,-90.0985448,"29.9213194000,-90.0985448000",Buffalo Exchange,New Orleans,LA
31352,vBV-C72hGI0jU9X9lQGoxA,b_vBV-C72hGI0jU9X9lQGoxA,29.9251592,-90.1151071,"29.9251592000,-90.1151071000",Prytania Mail Services,New Orleans,LA
31353,jLerIZFpe25jOUf722qzBA,b_jLerIZFpe25jOUf722qzBA,29.929404,-90.104967,"29.9294040000,-90.1049670000",Il Posto Italian Cafe,New Orleans,LA
31354,L_P-FSan8ln6Kiybel7Yrw,b_L_P-FSan8ln6Kiybel7Yrw,29.9214813,-90.0933226,"29.9214813000,-90.0933226000",Baru Bistro & Tapas,New Orleans,LA
31355,wdoVCAtaa00HEuihMIqjaw,b_wdoVCAtaa00HEuihMIqjaw,29.9455525,-90.0886765,"29.9455525000,-90.0886765000",Ms. Hysters Barbecue,New Orleans,LA
31356,9--QS5ChKDYf4POHKujoiw,b_9--QS5ChKDYf4POHKujoiw,29.9425511,-90.067852,"29.9425511000,-90.0678520000",Ugly Dog Saloon & BBQ,New Orleans,LA
31357,gC8i-lxwvGhVpOXM5eYdtA,b_gC8i-lxwvGhVpOXM5eYdtA,29.9753678,-90.0991635,"29.9753678000,-90.0991635000",Taqueria Guerrero,New Orleans,LA
31358,Y0JF1UN7pfWJ-GuzuVXM0g,b_Y0JF1UN7pfWJ-GuzuVXM0g,29.921,-90.102121,"29.9210000000,-90.1021210000",New York Pizza,New Orleans,LA
31359,Mcj6MC23gIny1n0GGeGDQQ,b_Mcj6MC23gIny1n0GGeGDQQ,29.9410281242,-90.1286187291,"29.9410281242,-90.1286187291",Bruno's Tavern,New Orleans,LA
31360,gPJINUjnBmnn8veAYMo8Zw,b_gPJINUjnBmnn8veAYMo8Zw,29.9455586,-90.1253740811,"29.9455586000,-90.1253740811",Adams Street Grocery & Deli,New Orleans,LA
31361,x3mym0EmXe9xeNDKQNvBmQ,b_x3mym0EmXe9xeNDKQNvBmQ,29.963988,-90.0638928,"29.9639880000,-90.0638928000",Cosimo's,New Orleans,LA
31362,owvEs3YhorvPJBd3sajxuA,b_owvEs3YhorvPJBd3sajxuA,29.961037,-90.0636297,"29.9610370000,-90.0636297000",Bloody Mary's Tours,New Orleans,LA
31363,3LBICzUehFW9v2Dv7MuHIQ,b_3LBICzUehFW9v2Dv7MuHIQ,30.0204064011,-90.1113001429,"30.0204064011,-90.1113001429","Mary P Lupo, MD",New Orleans,LA
31364,BsgcLUWlc6RvvBRiAPWj5w,b_BsgcLUWlc6RvvBRiAPWj5w,29.924089,-90.086295,"29.9240890000,-90.0862950000",Ignatius' Rue de La Course Coffeehouse,New Orleans,LA
31365,1bzYODPGqkC9aqn_QZUHmQ,b_1bzYODPGqkC9aqn_QZUHmQ,29.9479579,-90.1306527,"29.9479579000,-90.1306527000",Oak Street Cafe,New Orleans,LA
31366,aPs-Pf4_CLWcFQcMnbfcUw,b_aPs-Pf4_CLWcFQcMnbfcUw,29.947154,-90.067154,"29.9471540000,-90.0671540000",WINO  Wine Institute of New Orleans,New Orleans,LA
31367,KbK5TCE04omokSiunLlGgA,b_KbK5TCE04omokSiunLlGgA,29.9563663,-90.067995,"29.9563663000,-90.0679950000",French Quarter Deli & Grocery,New Orleans,LA
31368,1ddqdY_piKp-abaZ-bGRSA,b_1ddqdY_piKp-abaZ-bGRSA,29.9733253,-90.0810244,"29.9733253000,-90.0810244000",Crescent City Steak House,New Orleans,LA
31369,0LxuT8BBARVrWLgIWG3JcQ,b_0LxuT8BBARVrWLgIWG3JcQ,29.9581837,-90.0634002,"29.9581837000,-90.0634002000",Louisiana State Museum - The Presbytère,New Orleans,LA
31370,aJSWzK3ecF2Mp8wI-d6M0w,b_aJSWzK3ecF2Mp8wI-d6M0w,29.983068,-90.08894,"29.9830680000,-90.0889400000",City Park Shell,New Orleans,LA
31371,hkh5iyDeGLNhu-JUQFRE1Q,b_hkh5iyDeGLNhu-JUQFRE1Q,29.9557609,-90.0678872,"29.9557609000,-90.0678872000",Royal Sonesta New Orleans,New Orleans,LA
31372,5O3vEISAkmh0lnArUBp_Cw,b_5O3vEISAkmh0lnArUBp_Cw,29.953922543,-90.0695266782,"29.9539225430,-90.0695266782",Crowne Plaza New Orleans French Quarter,New Orleans,LA
31373,Iy7-VFi13z-ZUVtJ1M1A9A,b_Iy7-VFi13z-ZUVtJ1M1A9A,29.9568494,-90.0670675,"29.9568494000,-90.0670675000",Fat Catz,New Orleans,LA
31374,q39t6-a47CLf1RTyqu9CYg,b_q39t6-a47CLf1RTyqu9CYg,29.9615757376,-90.1848206675,"29.9615757376,-90.1848206675",Sake Cafe of Elmwood,New Orleans,LA
31375,7nbarqC1J9tb08uxIpRQTQ,b_7nbarqC1J9tb08uxIpRQTQ,29.951534,-90.065348,"29.9515340000,-90.0653480000",Francesca's Collections,New Orleans,LA
31376,-e03PAS1YpMAaxp86Hau7A,b_-e03PAS1YpMAaxp86Hau7A,29.9222542,-90.0908374,"29.9222542000,-90.0908374000",Martin Wine Cellar,New Orleans,LA
31377,oLc7k78_YcDMnMCdbC-h1A,b_oLc7k78_YcDMnMCdbC-h1A,29.9464139,-90.0675418,"29.9464139000,-90.0675418000",Lucy's Retired Surfers Bar & Restaurant,New Orleans,LA
31378,-HUDQ5eek6Edz3zuNrE4jw,b_-HUDQ5eek6Edz3zuNrE4jw,29.9485469,-90.0673229,"29.9485469000,-90.0673229000",Staybridge Suites New Orleans French Qtr/Dwtn,New Orleans,LA
31379,-dTiILESPbsg12oObxYVJQ,b_-dTiILESPbsg12oObxYVJQ,29.954082,-90.0664438,"29.9540820000,-90.0664438000",Kinetix Spa Salon,New Orleans,LA
31380,GBchqTKrmBzZl_0LHHk_2A,b_GBchqTKrmBzZl_0LHHk_2A,29.945989,-90.066996,"29.9459890000,-90.0669960000",La Cote Brasserie,New Orleans,LA
31381,L2bYnTMtQwSn7Z-W8ZL8fA,b_L2bYnTMtQwSn7Z-W8ZL8fA,29.9494845,-90.1277434,"29.9494845000,-90.1277434000",Basil Leaf,New Orleans,LA
31382,ethoy-5kGg4gOvkS_laZvQ,b_ethoy-5kGg4gOvkS_laZvQ,29.9167922,-90.105505,"29.9167922000,-90.1055050000",McKeown's Books,New Orleans,LA
31383,QQng-ifjEZhI1Vb9j0Hb4A,b_QQng-ifjEZhI1Vb9j0Hb4A,29.9646506,-90.1948353,"29.9646506000,-90.1948353000",Reginelli's Pizzeria,New Orleans,LA
31384,QW3Y7RWlDLqbmodWrd2rfA,b_QW3Y7RWlDLqbmodWrd2rfA,29.9580276,-90.0660148,"29.9580276000,-90.0660148000",Court Tavern Poboys,New Orleans,LA
31385,ccIVRcyOsnI36M233_ezwQ,b_ccIVRcyOsnI36M233_ezwQ,29.9406889,-90.1020286,"29.9406889000,-90.1020286000",Crump's Seafood Market & Sandwich Shop,New Orleans,LA
31386,QHFpMJeBTQJfzdDvsB9oqA,b_QHFpMJeBTQJfzdDvsB9oqA,29.959321766,-90.1869406826,"29.9593217660,-90.1869406826",Fox & Hound English Pub & Grille,New Orleans,LA
31387,dfqIU-iEqKh1Id8p3gDO5g,b_dfqIU-iEqKh1Id8p3gDO5g,29.9526804,-90.0706166,"29.9526804000,-90.0706166000",Brothers Food Mart,New Orleans,LA
31388,ZLrqw4KCwKyBlVqycUfNbg,b_ZLrqw4KCwKyBlVqycUfNbg,29.9592236,-90.0604606,"29.9592236000,-90.0604606000",The Market Cafe,New Orleans,LA
31389,1k6gLCvblOMzFLYeb6CPAQ,b_1k6gLCvblOMzFLYeb6CPAQ,29.9592236,-90.0604606,"29.9592236000,-90.0604606000",Montrel's Bistro,New Orleans,LA
31390,yys8OffwaaYsqwcRON-3-g,b_yys8OffwaaYsqwcRON-3-g,29.967502,-90.089339,"29.9675020000,-90.0893390000",New Orleans Regional Transit Authority,New Orleans,LA
31391,yoQBK3OUDqWEFoUDE5lM4w,b_yoQBK3OUDqWEFoUDE5lM4w,29.9588384,-90.0641847,"29.9588384000,-90.0641847000",Pere Antoine Restaurant,New Orleans,LA
31392,8BhNur6_XKLjCDvbhX2CNg,b_8BhNur6_XKLjCDvbhX2CNg,29.9581581,-90.0651605,"29.9581581000,-90.0651605000",The Old Coffee Pot Restaurant,New Orleans,LA
31393,egfcigDvXrhSm_1b7zyW3g,b_egfcigDvXrhSm_1b7zyW3g,29.9588648572,-90.0639899283,"29.9588648572,-90.0639899283",Barkus Parade,New Orleans,LA
31394,jEpTPqsOxic63LmQpGX76g,b_jEpTPqsOxic63LmQpGX76g,29.953893,-90.067832,"29.9538930000,-90.0678320000",Country Flame,New Orleans,LA
31395,DvQ9LueDdw3u-eeROpcX0A,b_DvQ9LueDdw3u-eeROpcX0A,29.9560373,-90.0649145,"29.9560373000,-90.0649145000",New Orleans Pharmacy Museum,New Orleans,LA
31396,O8To-W6I3Ez8gR6ZaLjOkg,b_O8To-W6I3Ez8gR6ZaLjOkg,29.9517074,-90.0801852,"29.9517074000,-90.0801852000",New Orleans Saints,New Orleans,LA
31397,JLmbNr66VveSN_tPYdCnhg,b_JLmbNr66VveSN_tPYdCnhg,29.9494820434,-90.0662664596,"29.9494820434,-90.0662664596",Polo Club Lounge,New Orleans,LA
31398,HWLgmRSRDdUwXFkUxf4N-w,b_HWLgmRSRDdUwXFkUxf4N-w,29.9436526,-90.1341243,"29.9436526000,-90.1341243000",Jazmine Cafe,New Orleans,LA
31399,ORVWMFwF5qTWy9Cbahf0Pg,b_ORVWMFwF5qTWy9Cbahf0Pg,29.9481852228,-90.0662039067,"29.9481852228,-90.0662039067",Café Adelaide,New Orleans,LA
31400,fusQg9Pj0xUC8CzbO2IHrA,b_fusQg9Pj0xUC8CzbO2IHrA,29.9604708726,-90.0626590229,"29.9604708726,-90.0626590229",CC's Coffee House,New Orleans,LA
31401,Q_fHJDV37LQ3M_rdyHk2Qg,b_Q_fHJDV37LQ3M_rdyHk2Qg,29.9569955,-90.0683356,"29.9569955000,-90.0683356000",Dauphine Street Books,New Orleans,LA
31402,Mf1sUtl_KcQqfSUM-8iwfQ,b_Mf1sUtl_KcQqfSUM-8iwfQ,29.9524141,-90.0657275,"29.9524141000,-90.0657275000",Salt N Pepper,New Orleans,LA
31403,_jQEeYRXkInq_x7yJm-ORg,b__jQEeYRXkInq_x7yJm-ORg,29.956265,-90.06799,"29.9562650000,-90.0679900000",The Famous Door,New Orleans,LA
31404,h1J_GWV5yZ-gXUtsplvI8g,b_h1J_GWV5yZ-gXUtsplvI8g,29.945554,-90.064893,"29.9455540000,-90.0648930000",Omni Riverfront Hotel,New Orleans,LA
31405,VOaWZhnatGDLl1PBrXKTjg,b_VOaWZhnatGDLl1PBrXKTjg,29.9459987,-90.0653132,"29.9459987000,-90.0653132000",7 On Fulton,New Orleans,LA
31406,vm6oh1yp5aag4Hld4D_5Cw,b_vm6oh1yp5aag4Hld4D_5Cw,29.9159953,-90.1168924,"29.9159953000,-90.1168924000",Winn Dixie,New Orleans,LA
31407,L3lQqy7z7PgDm0OWgLTzew,b_L3lQqy7z7PgDm0OWgLTzew,29.9805179,-90.093634,"29.9805179000,-90.0936340000",Fellini's Cafe,New Orleans,LA
31408,RnonJF35oVk94puzrODrJg,b_RnonJF35oVk94puzrODrJg,29.946680069,-90.1127319336,"29.9466800690,-90.1127319336",Elio's Wine Warehouse,New Orleans,LA
31409,_4RXDq3NP1agGtU_9_FdGA,b__4RXDq3NP1agGtU_9_FdGA,29.9241061,-90.1070647,"29.9241061000,-90.1070647000",Liberto Cleaners,New Orleans,LA
31410,LggwSfaJm_s4v0wH-kH06g,b_LggwSfaJm_s4v0wH-kH06g,29.9214845,-90.1177876,"29.9214845000,-90.1177876000",Dirty Coast,New Orleans,LA
31411,4JWuSA8tyXHteRgh_hU_Cw,b_4JWuSA8tyXHteRgh_hU_Cw,29.9554178,-90.0641334,"29.9554178000,-90.0641334000",French Market Inn,New Orleans,LA
31412,Xh6CqeOjcalJs81Ktkb_cQ,b_Xh6CqeOjcalJs81Ktkb_cQ,29.93992,-90.0668759,"29.9399200000,-90.0668759000",Dino's Bar & Grill,New Orleans,LA
31413,V1aiJQjFYWWfLbuS58rfjw,b_V1aiJQjFYWWfLbuS58rfjw,29.954809,-90.104882,"29.9548090000,-90.1048820000",J'Anitas,New Orleans,LA
31414,7pKzyzCFC7LpX82sM-0aMg,b_7pKzyzCFC7LpX82sM-0aMg,29.961726,-90.058327,"29.9617260000,-90.0583270000",Balcony Music Club,New Orleans,LA
31415,DC5T3tcYfscu46ovomueWg,b_DC5T3tcYfscu46ovomueWg,29.9437565,-90.0655152,"29.9437565000,-90.0655152000",Red Eye Grill,New Orleans,LA
31416,Hz0p2RasO5tjll-AdjpJqw,b_Hz0p2RasO5tjll-AdjpJqw,29.9419873,-90.0660822,"29.9419873000,-90.0660822000",Corporation Bar & Grill,New Orleans,LA
31417,LI2xsU_V7cNKKcYcTIXTsg,b_LI2xsU_V7cNKKcYcTIXTsg,29.9549754,-90.0655531,"29.9549754000,-90.0655531000",Williams Research Center,New Orleans,LA
31418,XjjgJb0iyG33CQp4ehnRGQ,b_XjjgJb0iyG33CQp4ehnRGQ,29.9425253,-90.1306618,"29.9425253000,-90.1306618000",Jamila's Mediterranean Tunisian Cuisine,New Orleans,LA
31419,SF_huMZqROex1-2R-EOVng,b_SF_huMZqROex1-2R-EOVng,29.9211426,-90.0992597,"29.9211426000,-90.0992597000",Monica's Chinese Food,New Orleans,LA
31420,JmzaG5p3u6BwcEQsRq5slg,b_JmzaG5p3u6BwcEQsRq5slg,29.9609073,-90.0592317,"29.9609073000,-90.0592317000",Aunt Tiki's,New Orleans,LA
31421,5wgoIQXyP3BEPZLiVi1W8A,b_5wgoIQXyP3BEPZLiVi1W8A,29.9426876,-90.065991,"29.9426876000,-90.0659910000",The Howlin' Wolf,New Orleans,LA
31422,JhpRI9m71ybWHkAqRdL0Tg,b_JhpRI9m71ybWHkAqRdL0Tg,29.9369433396,-90.0768555684,"29.9369433396,-90.0768555684",The Avenue Pub,New Orleans,LA
31423,RCy4M2ND4YK0uRbodV_v8g,b_RCy4M2ND4YK0uRbodV_v8g,30.0041362672,-90.1054807377,"30.0041362672,-90.1054807377",Starbucks,New Orleans,LA
31424,x6nXahUBOvYhc9EiDKkqdw,b_x6nXahUBOvYhc9EiDKkqdw,29.95631422,-90.0663506023,"29.9563142200,-90.0663506023",James H Cohen & Sons,New Orleans,LA
31425,FzHVtXe8-3fFclRBUI9YdA,b_FzHVtXe8-3fFclRBUI9YdA,29.924514,-90.108781,"29.9245140000,-90.1087810000",La Thai Uptown,New Orleans,LA
31426,TAuGNUCQ00CVPfCzsFipXg,b_TAuGNUCQ00CVPfCzsFipXg,29.9761485,-90.098716,"29.9761485000,-90.0987160000",Little Tokyo Japanese Restaurant,New Orleans,LA
31427,wF04EPEjL_0S5zN4ckp9Hw,b_wF04EPEjL_0S5zN4ckp9Hw,30.011523,-90.088427,"30.0115230000,-90.0884270000",Bayou Oaks at City Park - North Course,New Orleans,LA
31428,z_37EXfWEVMV4telxsbGMw,b_z_37EXfWEVMV4telxsbGMw,29.949429,-90.062801,"29.9494290000,-90.0628010000",Cafe Du Monde Coffee Stand,New Orleans,LA
31429,2HMf3ewAeMaeDsadJuL8DQ,b_2HMf3ewAeMaeDsadJuL8DQ,29.9553128,-90.0684542,"29.9553128000,-90.0684542000",Old Absinthe House,New Orleans,LA
31430,0gGqyFiITSaS8pInjcNHzw,b_0gGqyFiITSaS8pInjcNHzw,29.9251709,-90.1132022,"29.9251709000,-90.1132022000",Prytania Theatre,New Orleans,LA
31431,gbAySqiNQGLEr4uuuRuaVw,b_gbAySqiNQGLEr4uuuRuaVw,29.9396124,-90.1068248,"29.9396124000,-90.1068248000",Planned Parenthood - New Orleans Health Center,New Orleans,LA
31432,0BAwhsPK4Zads8hOFXv4GA,b_0BAwhsPK4Zads8hOFXv4GA,29.9527281,-90.0688579,"29.9527281000,-90.0688579000",Shula's Steakhouse,New Orleans,LA
31433,fUDOyLd57slX4ieEow_-2g,b_fUDOyLd57slX4ieEow_-2g,29.9530609,-90.0695684,"29.9530609000,-90.0695684000",Nine West Outlet,New Orleans,LA
31434,r_rvy12rpFfI1ReQdb2KhQ,b_r_rvy12rpFfI1ReQdb2KhQ,29.9906917176,-90.0906435857,"29.9906917176,-90.0906435857",Voodoo Experience,New Orleans,LA
31435,ILUd8DXxX21FOgUmE4bTLA,b_ILUd8DXxX21FOgUmE4bTLA,29.9630993,-90.057714,"29.9630993000,-90.0577140000",Yuki Izakaya,New Orleans,LA
31436,VVH6k9-ycttH3TV_lk5WfQ,b_VVH6k9-ycttH3TV_lk5WfQ,29.9691953,-90.0789638,"29.9691953000,-90.0789638000",Willie Mae's Scotch House,New Orleans,LA
31437,3xSP__yBq2PGIRWGt12Dqw,b_3xSP__yBq2PGIRWGt12Dqw,29.9706872,-90.0699264,"29.9706872000,-90.0699264000",Five Continents Bed and Breakfast,New Orleans,LA
31438,mfPb0TXKnhfjjvhbHBB-zw,b_mfPb0TXKnhfjjvhbHBB-zw,29.926972,-90.0995949,"29.9269720000,-90.0995949000",Cannon's Restaurants,New Orleans,LA
31439,QNB4Um92QR49c1w5cKDbIQ,b_QNB4Um92QR49c1w5cKDbIQ,29.9243900947,-90.1073851264,"29.9243900947,-90.1073851264",Zara's Lil' Giant Supermarket & Po-boys,New Orleans,LA
31440,7qklLz01tdxovhObQaSQhA,b_7qklLz01tdxovhObQaSQhA,29.9241284,-90.1074118,"29.9241284000,-90.1074118000",King Pin,New Orleans,LA
31441,VVdvXfE-NJQKjVnIIJC1nQ,b_VVdvXfE-NJQKjVnIIJC1nQ,29.9670649,-90.0515647,"29.9670649000,-90.0515647000",The Burgundy Bed and Breakfast,New Orleans,LA
31442,0C4tTLFDcAfRon8hKnDHxg,b_0C4tTLFDcAfRon8hKnDHxg,29.952458,-90.071796,"29.9524580000,-90.0717960000",Hilton Garden Inn New Orleans French Quarter/CBD,New Orleans,LA
31443,N3bjowmk_Yi9rUxPpM2k6Q,b_N3bjowmk_Yi9rUxPpM2k6Q,29.951985,-90.0717354,"29.9519850000,-90.0717354000",The Store,New Orleans,LA
31444,JdqD2J4VJsYrMirDUR7fCw,b_JdqD2J4VJsYrMirDUR7fCw,29.952035,-90.070363,"29.9520350000,-90.0703630000",Steve's Diner,New Orleans,LA
31445,XNllgtbX8Er5sixIrJMEoQ,b_XNllgtbX8Er5sixIrJMEoQ,29.9407471,-90.069158,"29.9407471000,-90.0691580000",The Rusty Nail,New Orleans,LA
31446,zSqTndm5Alq9dW1PyzbdTA,b_zSqTndm5Alq9dW1PyzbdTA,29.9475671,-90.0651152,"29.9475671000,-90.0651152000",Grand Isle,New Orleans,LA
31447,H5KRna9A6mDQEJ2ZN0zL6g,b_H5KRna9A6mDQEJ2ZN0zL6g,29.9206555,-90.1000744,"29.9206555000,-90.1000744000",La Petite Grocery,New Orleans,LA
31448,zS_bU7Gk-6aZWt1FOUFXKQ,b_zS_bU7Gk-6aZWt1FOUFXKQ,29.9334861,-90.0797686,"29.9334861000,-90.0797686000",Alliance Francaise New Orleans,New Orleans,LA
31449,19wx431VQzIHTz3DcDy2pw,b_19wx431VQzIHTz3DcDy2pw,29.9565412,-90.0666099,"29.9565412000,-90.0666099000",Leah's Pralines,New Orleans,LA
31450,11oJkLpheKBkgTfmE1mEDA,b_11oJkLpheKBkgTfmE1mEDA,29.9597216,-90.0601658,"29.9597216000,-90.0601658000",Cafe Beignet,New Orleans,LA
31451,bYhGhL6eUIVmxnflTw5u8w,b_bYhGhL6eUIVmxnflTw5u8w,29.9598153,-90.0983136,"29.9598153000,-90.0983136000",Airport Shuttle New Orleans,New Orleans,LA
31452,NZG9a_jMy5e6jC8TrDvP7Q,b_NZG9a_jMy5e6jC8TrDvP7Q,29.953442,-90.0688,"29.9534420000,-90.0688000000",Holiday Inn,New Orleans,LA
31453,hRskO0RDRW3Cq3k7_Kggcg,b_hRskO0RDRW3Cq3k7_Kggcg,29.9505235394,-90.0727980791,"29.9505235394,-90.0727980791",Le Pavillon Hotel,New Orleans,LA
31454,zljfjg_zTL3ceGi_Vr4OFw,b_zljfjg_zTL3ceGi_Vr4OFw,29.9521458122,-90.0681066513,"29.9521458122,-90.0681066513",Sheraton New Orleans Hotel,New Orleans,LA
31455,0LXOR8YXi5hk-afFcdWARQ,b_0LXOR8YXi5hk-afFcdWARQ,29.9579575,-90.0663997,"29.9579575000,-90.0663997000",Old Opera House Cocktail Lounge,New Orleans,LA
31456,DcBLYSvOuWcNReolRVr12A,b_DcBLYSvOuWcNReolRVr12A,29.9475628172,-90.0633108616,"29.9475628172,-90.0633108616",Drago's Seafood Restaurant,New Orleans,LA
31457,U1gebvkhLXW-m7dRqvZKwA,b_U1gebvkhLXW-m7dRqvZKwA,29.955845,-90.0684361,"29.9558450000,-90.0684361000",Musical Legends Park,New Orleans,LA
31458,8SwvryIp1h1xEPSLEM6irw,b_8SwvryIp1h1xEPSLEM6irw,29.9586073,-90.0654568,"29.9586073000,-90.0654568000",Embers Bourbon House & Restaurant,New Orleans,LA
31459,vAtVp9NI8uyqDM7Wi7pcVA,b_vAtVp9NI8uyqDM7Wi7pcVA,29.9552704,-90.0627252,"29.9552704000,-90.0627252000",Gray Line Tours,New Orleans,LA
31460,SmeMEWPwb5vl4m0UbYnugA,b_SmeMEWPwb5vl4m0UbYnugA,29.9631785,-90.0578887,"29.9631785000,-90.0578887000",Blue Nile,New Orleans,LA
31461,-xaY1TlMf20Ol9QLcDSU6Q,b_-xaY1TlMf20Ol9QLcDSU6Q,29.9590209,-90.0602077,"29.9590209000,-90.0602077000",French Market,New Orleans,LA
31462,0M1l6p96IffjQi9EZsdVhw,b_0M1l6p96IffjQi9EZsdVhw,29.9531676,-90.0673047,"29.9531676000,-90.0673047000",New Orleans Marriott,New Orleans,LA
31463,4SHnvLOw_WrwfTRNPGuikA,b_4SHnvLOw_WrwfTRNPGuikA,29.9545043,-90.0642156,"29.9545043000,-90.0642156000",Wish,New Orleans,LA
31464,rZ2Uygsn6vmnUIAaN_DIzQ,b_rZ2Uygsn6vmnUIAaN_DIzQ,29.949437,-90.06636,"29.9494370000,-90.0663600000",The Grill Room,New Orleans,LA
31465,C6YaSrMAzy3jJqinlFVudw,b_C6YaSrMAzy3jJqinlFVudw,29.9501402,-90.0688008,"29.9501402000,-90.0688008000",Welty's Deli and Catering,New Orleans,LA
31466,I26ji6UStFLiMVTTYdOr_w,b_I26ji6UStFLiMVTTYdOr_w,29.943525,-90.068153,"29.9435250000,-90.0681530000",Residence Inn by Marriott New Orleans Downtown,New Orleans,LA
31467,TZodoH7csDIwQ5EfWqqsJw,b_TZodoH7csDIwQ5EfWqqsJw,29.9587637815,-90.0647292573,"29.9587637815,-90.0647292573",Bourbon Orleans Hotel,New Orleans,LA
31468,iIDwsxIewhKauHMLG5M6ow,b_iIDwsxIewhKauHMLG5M6ow,29.9226099,-90.1223919,"29.9226099000,-90.1223919000",O'Delice French Bakery,New Orleans,LA
31469,Wxk6pzWgmDoDjfnQcQu3-A,b_Wxk6pzWgmDoDjfnQcQu3-A,29.937448,-90.077716,"29.9374480000,-90.0777160000",United Cabs,New Orleans,LA
31470,9wFFQUCn1j35CYea_dqhsg,b_9wFFQUCn1j35CYea_dqhsg,29.9430657,-90.1336857,"29.9430657000,-90.1336857000",la Madeleine French Bakery & Cafe,New Orleans,LA
31471,wKrWH4OnINfiWRCEem94OA,b_wKrWH4OnINfiWRCEem94OA,29.9200437,-90.080776,"29.9200437000,-90.0807760000",Uptown Imports,New Orleans,LA
31472,BHvwQrDgtSqI6is29O6QLg,b_BHvwQrDgtSqI6is29O6QLg,29.9663983,-90.0629633,"29.9663983000,-90.0629633000",Voodoo Spiritual Temple,New Orleans,LA
31473,ffUzmchwKP04WzYsuqLT8g,b_ffUzmchwKP04WzYsuqLT8g,29.9606736,-90.0592463,"29.9606736000,-90.0592463000",Wicked Orleans,New Orleans,LA
31474,k5cwuKa2QxiLtTLVNxCwxQ,b_k5cwuKa2QxiLtTLVNxCwxQ,30.0365662,-89.9125101,"30.0365662000,-89.9125101000",Pho Bang Restaurant,New Orleans,LA
31475,HJxqXDJFJsm3YVDYms0VCQ,b_HJxqXDJFJsm3YVDYms0VCQ,29.9557193,-90.0684542,"29.9557193000,-90.0684542000",Remoulade,New Orleans,LA
31476,eyjKnofJWf42tlsD8L5hZA,b_eyjKnofJWf42tlsD8L5hZA,29.9170112,-90.1048511,"29.9170112000,-90.1048511000",Rosy's Jazz Hall Events & Catering,New Orleans,LA
31477,p74IWSpGNv7YMZzGAcOD6A,b_p74IWSpGNv7YMZzGAcOD6A,29.9583779,-90.0651654,"29.9583779000,-90.0651654000",Reverend Zombie's House of Voodoo,New Orleans,LA
31478,thFrL729C7nPDAKdTTcvVw,b_thFrL729C7nPDAKdTTcvVw,29.9598325,-90.0638928,"29.9598325000,-90.0638928000",New Orleans Historic Voodoo Museum,New Orleans,LA
31479,UWgXGLSJXL9vJqOJ1j_LFg,b_UWgXGLSJXL9vJqOJ1j_LFg,29.9572555,-90.0670177,"29.9572555000,-90.0670177000",Cajun Cabin,New Orleans,LA
31480,ZMRfHHbyTQb_Yje9GhrVfw,b_ZMRfHHbyTQb_Yje9GhrVfw,29.9542635,-90.0664927,"29.9542635000,-90.0664927000",The Chart Room,New Orleans,LA
31481,HS0BEUF6QAl_Hq0uE_mqMw,b_HS0BEUF6QAl_Hq0uE_mqMw,29.9207551,-90.1031651,"29.9207551000,-90.1031651000",Urban Angels Salon,New Orleans,LA
31482,g9-krE9nt-pyIcKhuUO3-A,b_g9-krE9nt-pyIcKhuUO3-A,30.0281103,-90.0533882364,"30.0281103000,-90.0533882364",Subway,New Orleans,LA
31483,zafEaH7VOUkd8-9wFlnlmw,b_zafEaH7VOUkd8-9wFlnlmw,29.9574763287,-90.0629406498,"29.9574763287,-90.0629406498",Jackson Square,New Orleans,LA
31484,OEOpxiewgI7Sr2de0LVuMg,b_OEOpxiewgI7Sr2de0LVuMg,29.941129,-90.12344,"29.9411290000,-90.1234400000",Crêpes à la Cart,New Orleans,LA
31485,5OK71bsZ3UndLeTXUE5mKw,b_5OK71bsZ3UndLeTXUE5mKw,29.9753472,-90.1011957,"29.9753472000,-90.1011957000",Cafe Minh,New Orleans,LA
31486,sroYm8E9BbnnLO3nhKjomg,b_sroYm8E9BbnnLO3nhKjomg,29.9578368769,-90.0641038164,"29.9578368769,-90.0641038164",French Quarter Festival,New Orleans,LA
31487,sBBRUgYkm13McdQ4TOrIHA,b_sBBRUgYkm13McdQ4TOrIHA,29.9555395,-90.0705825,"29.9555395000,-90.0705825000",The Iberville Suites,New Orleans,LA
31488,W5q0QAtHSeGQyQ9ddXF0Tg,b_W5q0QAtHSeGQyQ9ddXF0Tg,29.954776,-90.068966,"29.9547760000,-90.0689660000",Jester Mardi Gras Daiquiris,New Orleans,LA
31489,fDPvDKfLflcalAEA_yUiJg,b_fDPvDKfLflcalAEA_yUiJg,29.9546832,-90.0649458,"29.9546832000,-90.0649458000",Big Easy Daiquiris,New Orleans,LA
31490,0g9fGg7Z368fPJiBp7JvdA,b_0g9fGg7Z368fPJiBp7JvdA,29.9547978654,-90.0691496,"29.9547978654,-90.0691496000",Mango Mango Daiquiris,New Orleans,LA
31491,ZYE5NS_9eK0dy-OM35693A,b_ZYE5NS_9eK0dy-OM35693A,29.9498928,-90.067681,"29.9498928000,-90.0676810000",Restaurant Cuvée,New Orleans,LA
31492,EC20rN7JtmAPIxcw3MTzcQ,b_EC20rN7JtmAPIxcw3MTzcQ,29.9586121,-90.0649145,"29.9586121000,-90.0649145000",Orleans Grapevine Wine Bar & Bistro,New Orleans,LA
31493,fMLHS-Nqwjp9gFrcVqJ2LQ,b_fMLHS-Nqwjp9gFrcVqJ2LQ,29.956454,-90.0675173,"29.9564540000,-90.0675173000",Beer Fest,New Orleans,LA
31494,qrHwXPEese6WmFO9zEP2fQ,b_qrHwXPEese6WmFO9zEP2fQ,29.9567588,-90.0675054,"29.9567588000,-90.0675054000",Larry Flynt's Barely Legal Club,New Orleans,LA
31495,IFDS30i3hmYSmrpP2-silg,b_IFDS30i3hmYSmrpP2-silg,29.9490488,-90.0820137,"29.9490488000,-90.0820137000",New Orleans Arena,New Orleans,LA
31496,2ZqezqDwEO0uuhlX0E54TQ,b_2ZqezqDwEO0uuhlX0E54TQ,29.95321,-90.0725963,"29.9532100000,-90.0725963000",Wyndham Garden Hotel Baronne Plaza,New Orleans,LA
31497,UgnHg8cdrPqxJKD9MpHNPw,b_UgnHg8cdrPqxJKD9MpHNPw,29.9474308,-90.1133301,"29.9474308000,-90.1133301000",First Cup Cafe,New Orleans,LA
31498,wwmlA6z3OhuykghM7f9RkA,b_wwmlA6z3OhuykghM7f9RkA,29.9198745393,-90.1244804614,"29.9198745393,-90.1244804614",Patois Restaurant,New Orleans,LA
31499,sYWCJVZxywGeKAbZ2fuXZA,b_sYWCJVZxywGeKAbZ2fuXZA,29.963132,-90.0591861,"29.9631320000,-90.0591861000",Jean Lafitte House,New Orleans,LA
31500,Rve7ITGDzt5Di-1j-fDE5Q,b_Rve7ITGDzt5Di-1j-fDE5Q,29.9165981,-90.1164857,"29.9165981000,-90.1164857000",Roly Poly Sandwiches,New Orleans,LA
31501,riGIP57_SRRnhx91c_4sBQ,b_riGIP57_SRRnhx91c_4sBQ,29.9496593,-90.1273601,"29.9496593000,-90.1273601000",Cafe Granada,New Orleans,LA
31502,jrDK6gzJh0VHjttG4SNxZw,b_jrDK6gzJh0VHjttG4SNxZw,29.9627248,-90.0606307479,"29.9627248000,-90.0606307479",The Golden Lantern,New Orleans,LA
31503,ugNVEWEZbSB-bBuX49KdrA,b_ugNVEWEZbSB-bBuX49KdrA,29.9606059,-90.0592444,"29.9606059000,-90.0592444000",Mojo Lounge,New Orleans,LA
31504,xjSjAsuYHhwr5wWGLklZGA,b_xjSjAsuYHhwr5wWGLklZGA,29.983062252,-90.0810067356,"29.9830622520,-90.0810067356",New Orleans Jazz & Heritage Festival,New Orleans,LA
31505,UMQrB5IiWGidFjEXSkHOEQ,b_UMQrB5IiWGidFjEXSkHOEQ,29.949805056,-90.0689642031,"29.9498050560,-90.0689642031",Queen & Crescent,New Orleans,LA
31506,8ydaiLMenoOGhpra3Mzo5A,b_8ydaiLMenoOGhpra3Mzo5A,29.9624326,-90.0574167,"29.9624326000,-90.0574167000",Louisiana Music Factory,New Orleans,LA
31507,j_cEe-e2Ewa18-urXS4g_g,b_j_cEe-e2Ewa18-urXS4g_g,29.9502653,-90.0680401,"29.9502653000,-90.0680401000","Country Inn & Suites By Carlson, New Orleans French Quarter, LA",New Orleans,LA
31508,Ps_r9DfnQCTs8no9_T2f0Q,b_Ps_r9DfnQCTs8no9_T2f0Q,29.9486154,-90.1312328,"29.9486154000,-90.1312328000",Yoga 108,New Orleans,LA
31509,FjGxybdhm8_s_JcxS0JBgw,b_FjGxybdhm8_s_JcxS0JBgw,29.9547235,-90.0691496,"29.9547235000,-90.0691496000",Bourbon Saloon,New Orleans,LA
31510,XhGLpXHdnA481n0aHDdkpQ,b_XhGLpXHdnA481n0aHDdkpQ,29.9479951,-90.0661447,"29.9479951000,-90.0661447000",Swizzle Stick Bar,New Orleans,LA
31511,-WgD54ji0_MgHWgf9WBXrQ,b_-WgD54ji0_MgHWgf9WBXrQ,29.9583113,-90.0655086,"29.9583113000,-90.0655086000",Ali Baba,New Orleans,LA
31512,D7Os2-9ApTGmNyzidqfwGA,b_D7Os2-9ApTGmNyzidqfwGA,29.9550178,-90.0709905,"29.9550178000,-90.0709905000","The Ritz-Carlton Spa, New Orleans",New Orleans,LA
31513,aJe-YsIcKjMvmHE2O0oJ6Q,b_aJe-YsIcKjMvmHE2O0oJ6Q,29.9224059,-90.1231045,"29.9224059000,-90.1231045000",Perlis Clothing New Orleans,New Orleans,LA
31514,inxUni-YJD5QvY-PF55cjg,b_inxUni-YJD5QvY-PF55cjg,29.976991,-90.092955,"29.9769910000,-90.0929550000",Swiss Confectionery,New Orleans,LA
31515,5Jta7dTc7lteIyeMfLUJWQ,b_5Jta7dTc7lteIyeMfLUJWQ,29.9567528,-90.0630602,"29.9567528000,-90.0630602000",Corner Oyster House,New Orleans,LA
31516,ZLR0o9tuGaUAdrhJE2z69w,b_ZLR0o9tuGaUAdrhJE2z69w,29.9642718,-90.0579143,"29.9642718000,-90.0579143000",Cafe Rose Nicaud,New Orleans,LA
31517,w2GJl3DxxnQsdiUg_KShWQ,b_w2GJl3DxxnQsdiUg_KShWQ,29.9601047,-90.0610468,"29.9601047000,-90.0610468000",Hotel Provincial,New Orleans,LA
31518,aH-2gmo7cyl4FsW8HzwQYA,b_aH-2gmo7cyl4FsW8HzwQYA,29.9207564,-90.1029584,"29.9207564000,-90.1029584000",Lucky You! Candy Company,New Orleans,LA
31519,EVqumzu_CSGws7XMTCl5og,b_EVqumzu_CSGws7XMTCl5og,29.9644614,-90.0591289,"29.9644614000,-90.0591289000",Sukho Thai,New Orleans,LA
31520,X2J_iYaWmqI-7PoYVNbp-g,b_X2J_iYaWmqI-7PoYVNbp-g,29.9335594,-90.0700051,"29.9335594000,-90.0700051000",St. Charles Streetcar Line,New Orleans,LA
31521,gAxVNmRBG5DZsp8DtZnpRQ,b_gAxVNmRBG5DZsp8DtZnpRQ,29.9444012,-90.0653718,"29.9444012000,-90.0653718000",The Creole Skillet,New Orleans,LA
31522,snguCYg0ierKRuUTxCDH7w,b_snguCYg0ierKRuUTxCDH7w,29.9593348,-90.0652064,"29.9593348000,-90.0652064000",Fritzel's European Jazz Pub,New Orleans,LA
31523,HKdAOvtDv47zPjceCjbz4Q,b_HKdAOvtDv47zPjceCjbz4Q,29.9549810279,-90.0688147545,"29.9549810279,-90.0688147545",Le Bayou Restaurant,New Orleans,LA
31524,auv_gvtR7fZp9b0mkEbTIA,b_auv_gvtR7fZp9b0mkEbTIA,29.953824,-90.06526,"29.9538240000,-90.0652600000",Bienville House Hotel,New Orleans,LA
31525,C-anTsItNvJHHR__DiGEqQ,b_C-anTsItNvJHHR__DiGEqQ,29.9647623,-90.0732441,"29.9647623000,-90.0732441000",Nokey's Deli & Grill,New Orleans,LA
31526,FdImAPaSTafu7ZhvgZPdGA,b_FdImAPaSTafu7ZhvgZPdGA,29.9570766,-90.0643672,"29.9570766000,-90.0643672000",Jamie Hayes Gallery,New Orleans,LA
31527,0ol0GxG-mp_ZZlrSlXFeWA,b_0ol0GxG-mp_ZZlrSlXFeWA,29.9398195,-90.1303899,"29.9398195000,-90.1303899000",John Jay Salons,New Orleans,LA
31528,KsKXCCfAqSav1PnlyEreaA,b_KsKXCCfAqSav1PnlyEreaA,29.9412759617,-90.0660306215,"29.9412759617,-90.0660306215",Hilton Garden Inn New Orleans Convention Center,New Orleans,LA
31529,fx1532CemYqL8wZivfcDzA,b_fx1532CemYqL8wZivfcDzA,29.963605,-90.0507577,"29.9636050000,-90.0507577000",Sound Café,New Orleans,LA
31530,6jgvwFE85C4AQApQRO4qBw,b_6jgvwFE85C4AQApQRO4qBw,29.9535184,-90.0659271,"29.9535184000,-90.0659271000",Estrella Steak & Lobster,New Orleans,LA
31531,1aj1hnqPt3rqoB8tVRHLEA,b_1aj1hnqPt3rqoB8tVRHLEA,29.954351,-90.067868,"29.9543510000,-90.0678680000",Hotel Monteleone,New Orleans,LA
31532,LK58peZTR54sYsISrTo0cA,b_LK58peZTR54sYsISrTo0cA,29.9391375,-90.0734325,"29.9391375000,-90.0734325000",Blue Plate Cafe,New Orleans,LA
31533,y8KUzZaLJHSJHqX5w6WNOg,b_y8KUzZaLJHSJHqX5w6WNOg,29.9620059,-90.0666019,"29.9620059000,-90.0666019000",Wolfe's,New Orleans,LA
31534,e1hvr3vMsCyaBaUeXz7kow,b_e1hvr3vMsCyaBaUeXz7kow,29.94024,-90.075113,"29.9402400000,-90.0751130000",Quality Inn & Suites Maison St. Charles,New Orleans,LA
31535,Zp2_GDbmKT7YCA04ygIHZg,b_Zp2_GDbmKT7YCA04ygIHZg,29.952996,-90.074968,"29.9529960000,-90.0749680000",Holiday Inn New Orleans-Downtown Superdome,New Orleans,LA
31536,e5MAg98tBURFaKCkaV-LUg,b_e5MAg98tBURFaKCkaV-LUg,29.9524157,-90.0713063,"29.9524157000,-90.0713063000",Holiday Inn Express,New Orleans,LA
31537,GiBzgOOkfr-Ec_h-2TrcSw,b_GiBzgOOkfr-Ec_h-2TrcSw,29.9563094,-90.0693232,"29.9563094000,-90.0693232000","Chateau LeMoyne - French Quarter, A Holiday Inn Hotel",New Orleans,LA
31538,2j_Oz2FMucy2YBoX4t3blQ,b_2j_Oz2FMucy2YBoX4t3blQ,29.9471865,-90.1303546,"29.9471865000,-90.1303546000",Mona's Cafe,New Orleans,LA
31539,d2Woy2Ocuj2P2FEB6_GeYg,b_d2Woy2Ocuj2P2FEB6_GeYg,29.9207541,-90.1011341,"29.9207541000,-90.1011341000",Magazine Perks,New Orleans,LA
31540,5DVAnEg-BQjDItGVkGTmww,b_5DVAnEg-BQjDItGVkGTmww,29.9533242,-90.0702059,"29.9533242000,-90.0702059000",Dixie Gyro,New Orleans,LA
31541,lT_VFhU9AF7DiV0s_9XIJg,b_lT_VFhU9AF7DiV0s_9XIJg,29.954927,-90.0661441,"29.9549270000,-90.0661441000",La Boucherie Coffee House,New Orleans,LA
31542,dju1isgEvDd74tLTDkk5DA,b_dju1isgEvDd74tLTDkk5DA,29.9299019826,-90.1097052207,"29.9299019826,-90.1097052207",Gautreau's Restaurant,New Orleans,LA
31543,rBjqykRArlbvMhonVVisiQ,b_rBjqykRArlbvMhonVVisiQ,29.9444484911,-90.1325011253,"29.9444484911,-90.1325011253",The Retreat Salon,New Orleans,LA
31544,Cj8XGYTnuFQYpORBbOywUA,b_Cj8XGYTnuFQYpORBbOywUA,29.975317,-90.100311,"29.9753170000,-90.1003110000",Italian Pie,New Orleans,LA
31545,moDj-1bQxbtCxNlacDgzyA,b_moDj-1bQxbtCxNlacDgzyA,29.9621842,-90.0573255,"29.9621842000,-90.0573255000",The Frenchmen Hotel,New Orleans,LA
31546,H68WFdUybQ6FSDOrYM4QNQ,b_H68WFdUybQ6FSDOrYM4QNQ,29.9243313,-90.0862875,"29.9243313000,-90.0862875000",Ah-Ha,New Orleans,LA
31547,WutPKleHX3uyKom4xcDE8w,b_WutPKleHX3uyKom4xcDE8w,29.9440798399,-90.0620519025,"29.9440798399,-90.0620519025",Southern Food & Beverage Museum,New Orleans,LA
31548,R9TBf8VqGQ83kvdIxkC9RQ,b_R9TBf8VqGQ83kvdIxkC9RQ,29.9681302,-90.0785465,"29.9681302000,-90.0785465000",Dooky Chase's Restaurant,New Orleans,LA
31549,0eZxpIPcJqPY6G9gcx4QUQ,b_0eZxpIPcJqPY6G9gcx4QUQ,29.952697,-90.066691,"29.9526970000,-90.0666910000",Chateau Dupre Hotel,New Orleans,LA
31550,TEHv3dn_LjnvSbqPdp7cJg,b_TEHv3dn_LjnvSbqPdp7cJg,29.920601,-90.109526,"29.9206010000,-90.1095260000",Vizard's,New Orleans,LA
31551,gWumBHn4J12Gg7qVRlWJ_g,b_gWumBHn4J12Gg7qVRlWJ_g,29.9621761,-90.0345373,"29.9621761000,-90.0345373000",Sugar Park Tavern,New Orleans,LA
31552,FtkYGVPVCRuuhQhYJBSVQw,b_FtkYGVPVCRuuhQhYJBSVQw,30.0083429,-90.0644403,"30.0083429000,-90.0644403000",Zimmer's Seafood,New Orleans,LA
31553,PM7um9FnLU5eRh7R571rhQ,b_PM7um9FnLU5eRh7R571rhQ,29.9414878,-90.1287437,"29.9414878000,-90.1287437000",New Orleans Chiropractic,New Orleans,LA
31554,dh_07nMARiESWm3Z9Ljavg,b_dh_07nMARiESWm3Z9Ljavg,29.9680583011,-90.0922822324,"29.9680583011,-90.0922822324",India House Hostel,New Orleans,LA
31555,5JyEHdmTufydVTQsw4afQg,b_5JyEHdmTufydVTQsw4afQg,30.02643,-90.05419,"30.0264300000,-90.0541900000",PJ's Coffee - Gentilly,New Orleans,LA
31556,5AOkxsg6UJQ_CoJTMBDUmQ,b_5AOkxsg6UJQ_CoJTMBDUmQ,29.983468,-90.098151,"29.9834680000,-90.0981510000",Ralph's on the Park,New Orleans,LA
31557,4ADeBcc3O4zmTrp60H4O_A,b_4ADeBcc3O4zmTrp60H4O_A,30.0213754,-90.1147367,"30.0213754000,-90.1147367000",Lakeview Harbor Restaurant,New Orleans,LA
31558,ngJLl0tdJPBgdUc-tn1Stg,b_ngJLl0tdJPBgdUc-tn1Stg,29.9433398,-90.0715197,"29.9433398000,-90.0715197000",Ogden Museum of Southern Art,New Orleans,LA
31559,D3QVe8AXcEJOFg5GItUPtg,b_D3QVe8AXcEJOFg5GItUPtg,29.951012,-90.067367,"29.9510120000,-90.0673670000",Pelham Hotel,New Orleans,LA
31560,8aZMMIkvGUWBiotrcd0Egg,b_8aZMMIkvGUWBiotrcd0Egg,29.9277574,-90.1335822,"29.9277574000,-90.1335822000",The Dog Levee,New Orleans,LA
31561,MlI1TRv-oEeGFA67jx6QEA,b_MlI1TRv-oEeGFA67jx6QEA,29.9220943,-90.0889686,"29.9220943000,-90.0889686000",GR Automotive,New Orleans,LA
31562,ZaUVTggOTNXvRbMWvD7kfA,b_ZaUVTggOTNXvRbMWvD7kfA,29.9555854,-90.0652794,"29.9555854000,-90.0652794000",Hové Parfumeur,New Orleans,LA
31563,Qsf7kKD82aKcerFiu1UzoQ,b_Qsf7kKD82aKcerFiu1UzoQ,29.9597436,-90.0603901,"29.9597436000,-90.0603901000",Santa's Quarters,New Orleans,LA
31564,hB4EbCkfVLFWQ2bPhQnaug,b_hB4EbCkfVLFWQ2bPhQnaug,29.961483,-90.058569,"29.9614830000,-90.0585690000",Gnome,New Orleans,LA
31565,C7WUvmGAz_t4FE_ycOPGUA,b_C7WUvmGAz_t4FE_ycOPGUA,29.9163682,-90.1031563,"29.9163682000,-90.1031563000",Rouses,New Orleans,LA
31566,PcAMh9bjVHVB2dscm1F4FQ,b_PcAMh9bjVHVB2dscm1F4FQ,29.9442743546,-90.1337329369,"29.9442743546,-90.1337329369",China Orchid Restaurant,New Orleans,LA
31567,_TXLS7cOPzlWmXcjYDE_ZQ,b__TXLS7cOPzlWmXcjYDE_ZQ,29.9561746,-90.0649369,"29.9561746000,-90.0649369000",United Apparel Liquidators,New Orleans,LA
31568,r4hLK7eQ3YPXdhuc5M2Prg,b_r4hLK7eQ3YPXdhuc5M2Prg,29.9438531,-90.1337477,"29.9438531000,-90.1337477000",O'Henry's Food & Spirits,New Orleans,LA
31569,XfIHR_6duc9WqhGV-ENrpg,b_XfIHR_6duc9WqhGV-ENrpg,29.9300474,-90.0870751,"29.9300474000,-90.0870751000",The Grocery,New Orleans,LA
31570,3e8ZtCnDTu8eRusaigRUhw,b_3e8ZtCnDTu8eRusaigRUhw,29.9549792371,-90.050207131,"29.9549792371,-90.0502071310",Old Point Bar,New Orleans,LA
31571,SA10MB4CEw0YikMuhOxyYw,b_SA10MB4CEw0YikMuhOxyYw,29.9609076,-90.058502,"29.9609076000,-90.0585020000",El Gato Negro,New Orleans,LA
31572,Ewr9BdNREqvPRnz4xLudhg,b_Ewr9BdNREqvPRnz4xLudhg,29.9792033,-90.1082418,"29.9792033000,-90.1082418000",The Haunted Mortuary,New Orleans,LA
31573,BFCjimIEjeN9S2FhybhFzA,b_BFCjimIEjeN9S2FhybhFzA,30.005546,-90.119121,"30.0055460000,-90.1191210000",Tony Angello's Restaurant,New Orleans,LA
31574,ojosAOQ0RQu1cc1TNHM4Mg,b_ojosAOQ0RQu1cc1TNHM4Mg,29.9212152,-90.1156735,"29.9212152000,-90.1156735000",Scriptura,New Orleans,LA
31575,4JJOzSCWKk5h1sF_pWrCcQ,b_4JJOzSCWKk5h1sF_pWrCcQ,29.9614387,-90.0577815,"29.9614387000,-90.0577815000",Satchmo Summerfest,New Orleans,LA
31576,JyDidMUIw3o-5i5xQlXqlg,b_JyDidMUIw3o-5i5xQlXqlg,29.960359,-90.0599079,"29.9603590000,-90.0599079000",Maximos Italian Grill,New Orleans,LA
31577,8ASzjS3ITg5bQSyObsCx5w,b_8ASzjS3ITg5bQSyObsCx5w,30.0213474,-90.1142741,"30.0213474000,-90.1142741000",Russell's Marina Grill,New Orleans,LA
31578,Ggy_q0lQcwBzZksqIae4fg,b_Ggy_q0lQcwBzZksqIae4fg,29.9508211,-90.068277,"29.9508211000,-90.0682770000",Le Phare,New Orleans,LA
31579,BVOjxoXijWPfINv1eUGDKw,b_BVOjxoXijWPfINv1eUGDKw,29.9350425889,-90.0617175578,"29.9350425889,-90.0617175578",Mardi Gras World-Riverfront,New Orleans,LA
31580,N1GYsCd5QAchGOCeQ37J9g,b_N1GYsCd5QAchGOCeQ37J9g,29.987337,-90.097132,"29.9873370000,-90.0971320000",New Orleans City Park,New Orleans,LA
31581,bn4N0bxa-u-kBaKLwU893w,b_bn4N0bxa-u-kBaKLwU893w,29.9521203,-90.0671077,"29.9521203000,-90.0671077000",Arby's,New Orleans,LA
31582,lo3zYtvPB6-iVok2C7HsGw,b_lo3zYtvPB6-iVok2C7HsGw,29.9865508,-90.05925,"29.9865508000,-90.0592500000",Old New Orleans Rum,New Orleans,LA
31583,tuDKqV-4zBZDaAsCoLeGxg,b_tuDKqV-4zBZDaAsCoLeGxg,29.9494154,-90.0724452,"29.9494154000,-90.0724452000",Drury Plaza Hotel New Orleans,New Orleans,LA
31584,CY23YgKIhIdFkoVLp7Vhhg,b_CY23YgKIhIdFkoVLp7Vhhg,29.9655028,-90.2056278,"29.9655028000,-90.2056278000",Dockside Seafood and Oyster Bar,New Orleans,LA
31585,stqWlKEgXweNQSsxOsHjVA,b_stqWlKEgXweNQSsxOsHjVA,29.9225326544,-90.0901436806,"29.9225326544,-90.0901436806",Mahony's Po-Boys & Seafood  - Uptown,New Orleans,LA
31586,BrospeMqVM_tF9HH0RHuog,b_BrospeMqVM_tF9HH0RHuog,29.9683991,-90.0573491,"29.9683991000,-90.0573491000",Gene's PO-Boys,New Orleans,LA
31587,Rx5lfHMWkezmQjCfr2ziAw,b_Rx5lfHMWkezmQjCfr2ziAw,29.9654875,-90.0878568,"29.9654875000,-90.0878568000",Eat-well Food Mart,New Orleans,LA
31588,cp2ZSHXibAxCHvJoPPyLag,b_cp2ZSHXibAxCHvJoPPyLag,29.9649917323,-90.0519296997,"29.9649917323,-90.0519296997",Schiro's Cafe,New Orleans,LA
31589,1ys1jf1-4EuiHONfpHWdwg,b_1ys1jf1-4EuiHONfpHWdwg,29.9658844,-90.0512251,"29.9658844000,-90.0512251000",Nighthawk Diner,New Orleans,LA
31590,K8O71Tb6xcza0g1MU608ag,b_K8O71Tb6xcza0g1MU608ag,29.9568475,-90.0683818,"29.9568475000,-90.0683818000",Jagerhaus,New Orleans,LA
31591,mfTyBrvx9uCTSPjmrl8PjA,b_mfTyBrvx9uCTSPjmrl8PjA,29.9593348,-90.0683068,"29.9593348000,-90.0683068000",Maison Dupuy Hotel,New Orleans,LA
31592,X7MyCFbHwzAYvqqh7zb-Ug,b_X7MyCFbHwzAYvqqh7zb-Ug,29.9341452,-90.0728883,"29.9341452000,-90.0728883000",St Vincent's Guest House,New Orleans,LA
31593,rnXMM1jS9BMFabndBC-bkw,b_rnXMM1jS9BMFabndBC-bkw,29.9222494,-90.1212964,"29.9222494000,-90.1212964000",Reginelli's Pizzeria,New Orleans,LA
31594,rAMlyZQe5eFrdLRVQfY4ZQ,b_rAMlyZQe5eFrdLRVQfY4ZQ,29.9655244,-90.062575102,"29.9655244000,-90.0625751020",Buffa's Bar & Restaurant,New Orleans,LA
