business_id,raw_business_id,entity,latitude,longitude,geo,name,city,state
10635,U3grYFIeu6RgAAQgdriHww,b_U3grYFIeu6RgAAQgdriHww,34.4037593,-119.6939922,"34.4037593000,-119.6939922000",Brophy Bros - Santa Barbara,Santa Barbara,CA
10636,Aes-0Q_guDeYewMapFs_vg,b_Aes-0Q_guDeYewMapFs_vg,34.410291545,-119.6865421917,"34.4102915450,-119.6865421917",Longboard's Grill,Santa Barbara,CA
10637,CziOtnFSklimJnBgksDDwA,b_CziOtnFSklimJnBgksDDwA,34.419107,-119.699243,"34.4191070000,-119.6992430000",Pascucci,Santa Barbara,CA
10638,29YqJwOGEuAWqlHZxMc1OA,b_29YqJwOGEuAWqlHZxMc1OA,34.4200355,-119.6968511,"34.4200355000,-119.6968511000",Paradise Cafe,Santa Barbara,CA
10639,6RBZfirnzE4NahJTn1UPNA,b_6RBZfirnzE4NahJTn1UPNA,34.4279428,-119.6872838,"34.4279428000,-119.6872838000",La Super-Rica Taqueria,Santa Barbara,CA
10640,jssubXBNkiSJIhbKuDtmpQ,b_jssubXBNkiSJIhbKuDtmpQ,34.4185472,-119.7059044,"34.4185472000,-119.7059044000",Sushi Teri House,Santa Barbara,CA
10641,bSfDI69RkUrodsA1QwgnOg,b_bSfDI69RkUrodsA1QwgnOg,34.4181393671,-119.6984343008,"34.4181393671,-119.6984343008",Wildcat Lounge,Santa Barbara,CA
10642,DqVpNtgFCP47n6frh-LREA,b_DqVpNtgFCP47n6frh-LREA,34.4207686737,-119.6991676593,"34.4207686737,-119.6991676593",El Paseo Mexican Restaurant,Santa Barbara,CA
10643,AmAc0eD6lyVyb7QdOAO1Mg,b_AmAc0eD6lyVyb7QdOAO1Mg,34.4237983504,-119.705293234,"34.4237983504,-119.7052932340",Soho Restaurant & Music Club,Santa Barbara,CA
10644,yE8r8JXplgnr4XxRivkdLw,b_yE8r8JXplgnr4XxRivkdLw,34.423621,-119.705492,"34.4236210000,-119.7054920000",Chef Karim's Restaurant,Santa Barbara,CA
10645,edJoBsse6nsF0BYh6pATAg,b_edJoBsse6nsF0BYh6pATAg,34.4179958952,-119.6963100466,"34.4179958952,-119.6963100466",The Palace Grill,Santa Barbara,CA
10646,wrtx446YNQoQa5U7UI6j5w,b_wrtx446YNQoQa5U7UI6j5w,34.41716,-119.6990213,"34.4171600000,-119.6990213000",Chad’s,Santa Barbara,CA
10647,Un-UDVOuv1co3TMmGaumxA,b_Un-UDVOuv1co3TMmGaumxA,34.4026017,-119.697943,"34.4026017000,-119.6979430000",Shoreline Beach Cafe,Santa Barbara,CA
10648,8A5LSwsKK5vXDH1M3_Tf1w,b_8A5LSwsKK5vXDH1M3_Tf1w,34.4345451317,-119.9206727994,"34.4345451317,-119.9206727994","The Ritz-Carlton Bacara, Santa Barbara",Santa Barbara,CA
10649,UjOq8dBVNv9weHrVDqm3kQ,b_UjOq8dBVNv9weHrVDqm3kQ,34.4104385376,-119.6920394897,"34.4104385376,-119.6920394897",Hotel Milo Santa Barbara,Santa Barbara,CA
10650,BQGaox52fHg46Vzto_9Z_Q,b_BQGaox52fHg46Vzto_9Z_Q,34.4649108047,-119.7127528873,"34.4649108047,-119.7127528873",7 Falls Hike,Santa Barbara,CA
10651,CoZ2mpsMBP8HUG1ymKoZTg,b_CoZ2mpsMBP8HUG1ymKoZTg,34.4247634,-119.7067564,"34.4247634000,-119.7067564000",Opal Restaurant & Bar,Santa Barbara,CA
10652,2yHl6wl1iFa_Jo_SZcmSuw,b_2yHl6wl1iFa_Jo_SZcmSuw,34.438201,-119.713556,"34.4382010000,-119.7135560000",Mission Santa Barbara,Santa Barbara,CA
10653,O2lFAWD2WXXx5EKkzPutWQ,b_O2lFAWD2WXXx5EKkzPutWQ,34.422246,-119.679611,"34.4222460000,-119.6796110000",Your Place Thai Restaurant,Santa Barbara,CA
10654,QNoFrASBpqW8dzdAEIYjNQ,b_QNoFrASBpqW8dzdAEIYjNQ,34.4038207,-119.7436561,"34.4038207000,-119.7436561000",The Brown Pelican,Santa Barbara,CA
10655,5zYKjslztA7sOitOnEBEJQ,b_5zYKjslztA7sOitOnEBEJQ,34.4167934,-119.6950827,"34.4167934000,-119.6950827000",Indochine,Santa Barbara,CA
10656,1rC0hBT49gVljFQYTIGIaA,b_1rC0hBT49gVljFQYTIGIaA,34.417066,-119.696134,"34.4170660000,-119.6961340000",The James Joyce,Santa Barbara,CA
10657,jnDN1GNUqS1Zo5y8sStmbg,b_jnDN1GNUqS1Zo5y8sStmbg,34.4192533,-119.6977273,"34.4192533000,-119.6977273000",The Press Room,Santa Barbara,CA
10658,E3WUDYEvCVMplIFMgeN1xw,b_E3WUDYEvCVMplIFMgeN1xw,34.419398,-119.702048,"34.4193980000,-119.7020480000",Cajun Kitchen Cafe,Santa Barbara,CA
10659,U2hkeMI-q4cS35QolJYN0A,b_U2hkeMI-q4cS35QolJYN0A,34.4238502,-119.7054774,"34.4238502000,-119.7054774000",Arigato Sushi,Santa Barbara,CA
10660,5skL69RhjE0byYLjyqVG5w,b_5skL69RhjE0byYLjyqVG5w,34.4171680843,-119.6725322964,"34.4171680843,-119.6725322964",Santa Barbara Inn,Santa Barbara,CA
10661,nB0dV8yPv29F3-CFMPG8cw,b_nB0dV8yPv29F3-CFMPG8cw,34.4179009,-119.6964428,"34.4179009000,-119.6964428000",Joe's Cafe,Santa Barbara,CA
10662,MmN1qpG224QxOeq72DpN2g,b_MmN1qpG224QxOeq72DpN2g,34.4220883483,-119.7029963924,"34.4220883483,-119.7029963924",Aldo's Italian Restaurant,Santa Barbara,CA
10663,wO4IO1uTN65jkYdaBJCL8A,b_wO4IO1uTN65jkYdaBJCL8A,34.4127016,-119.6889034,"34.4127016000,-119.6889034000",Rusty's Pizza Parlors,Santa Barbara,CA
10664,w8AxfAjNq7wU5jHmpLSpNg,b_w8AxfAjNq7wU5jHmpLSpNg,34.4150656,-119.6910495,"34.4150656000,-119.6910495000",Oreana Winery,Santa Barbara,CA
10665,KC8_Rx4Orlsz8LIonCYXsA,b_KC8_Rx4Orlsz8LIonCYXsA,34.4167478,-119.6957697,"34.4167478000,-119.6957697000",Santa Barbara Brewing Co,Santa Barbara,CA
10666,UVF59iJepR3kpuG-1HMiQA,b_UVF59iJepR3kpuG-1HMiQA,34.4272406,-119.716988,"34.4272406000,-119.7169880000",Secret Garden Inn & Cottages,Santa Barbara,CA
10667,-kfHz1kimX62QEceFkkB_g,b_-kfHz1kimX62QEceFkkB_g,34.4359425,-119.7253428,"34.4359425000,-119.7253428000",Edomasa,Santa Barbara,CA
10668,Qy6PgrvD6iYOtkd56ldTXQ,b_Qy6PgrvD6iYOtkd56ldTXQ,34.4228713,-119.703437,"34.4228713000,-119.7034370000",East Beach Wine Co,Santa Barbara,CA
10669,BaWVwChTW_MqkKru_WZp3g,b_BaWVwChTW_MqkKru_WZp3g,34.4192829,-119.7158982,"34.4192829000,-119.7158982000",Super Cuca's Restaurant,Santa Barbara,CA
10670,4uspKB1d3pGdgjOClA-UkQ,b_4uspKB1d3pGdgjOClA-UkQ,34.428572,-119.7163833,"34.4285720000,-119.7163833000",Cajun Kitchen Cafe,Santa Barbara,CA
10671,0qu0fNTOsSmuREYVIMPuIQ,b_0qu0fNTOsSmuREYVIMPuIQ,34.5216257926,-119.8405629067,"34.5216257926,-119.8405629067",Cold Spring Tavern,Santa Barbara,CA
10672,0TKUn5JU65ySgjD2JjXnIw,b_0TKUn5JU65ySgjD2JjXnIw,34.423107,-119.704136,"34.4231070000,-119.7041360000",Anthropologie,Santa Barbara,CA
10673,1pYZMmpdy2MviWBbagMwbA,b_1pYZMmpdy2MviWBbagMwbA,34.4188541,-119.6976842,"34.4188541000,-119.6976842000",Italian & Greek Delicatessen,Santa Barbara,CA
10674,93NDI-c5l_lTizKOMyt2zw,b_93NDI-c5l_lTizKOMyt2zw,34.421851,-119.703429,"34.4218510000,-119.7034290000",Walter Claudio Salon,Santa Barbara,CA
10675,SVJ_EvFnsqZEvoqjXD3CSw,b_SVJ_EvFnsqZEvoqjXD3CSw,34.419345,-119.699703,"34.4193450000,-119.6997030000",This Little Piggy Wears Cotton,Santa Barbara,CA
10676,B91yBSPvAz5O_t9JFafN1Q,b_B91yBSPvAz5O_t9JFafN1Q,34.4173886,-119.6965844,"34.4173886000,-119.6965844000",O'Malleys Bar,Santa Barbara,CA
10677,zv_X_rMjwJ__sDvjPBVHyA,b_zv_X_rMjwJ__sDvjPBVHyA,34.4210069,-119.7015452,"34.4210069000,-119.7015452000",Blue Bee Jeans,Santa Barbara,CA
10678,64Rl3pT4Md4-8ckeaNVZCQ,b_64Rl3pT4Md4-8ckeaNVZCQ,34.4168413,-119.6952286,"34.4168413000,-119.6952286000",Bucatini,Santa Barbara,CA
10679,Qsd_S2f7fNFqngx2amRE7A,b_Qsd_S2f7fNFqngx2amRE7A,34.4224368533,-119.6984024894,"34.4224368533,-119.6984024894",Sojourner Cafe,Santa Barbara,CA
10680,wvD7TOuE-qUhkyXoi8K8hA,b_wvD7TOuE-qUhkyXoi8K8hA,34.4232378877,-119.6813092,"34.4232378877,-119.6813092000",Taqueria El Bajio,Santa Barbara,CA
10681,RtJC7xavgAxOITQyAlGCbQ,b_RtJC7xavgAxOITQyAlGCbQ,34.4181830276,-119.6738992514,"34.4181830276,-119.6738992514",Tri-County Produce Co,Santa Barbara,CA
10682,08eBC31hXyGKKU2Tg20pow,b_08eBC31hXyGKKU2Tg20pow,34.4249155,-119.7089277,"34.4249155000,-119.7089277000",Darin Jon Studio,Santa Barbara,CA
10683,z-9_8ot2TnKL9DX4k3MYMQ,b_z-9_8ot2TnKL9DX4k3MYMQ,34.422294,-119.702545,"34.4222940000,-119.7025450000",Palazzio,Santa Barbara,CA
10684,2KWdqoTYBTpBq-Rlb4sR5w,b_2KWdqoTYBTpBq-Rlb4sR5w,34.4212447,-119.640407,"34.4212447000,-119.6404070000",Montecito Inn,Santa Barbara,CA
10685,gebiRewfieSdtt17PTW6Zg,b_gebiRewfieSdtt17PTW6Zg,34.4169836,-119.6955563,"34.4169836000,-119.6955563000",Hibachi Steak House & Sushi Bar,Santa Barbara,CA
10686,92HeuR3hbRwGopK5zmmuag,b_92HeuR3hbRwGopK5zmmuag,34.4240022,-119.6979336,"34.4240022000,-119.6979336000",Spanish Garden Inn,Santa Barbara,CA
10687,PZcS2-2DCssSz3v2Qydriw,b_PZcS2-2DCssSz3v2Qydriw,34.4162819,-119.8464146,"34.4162819000,-119.8464146000",University Of California - Santa Barbara,Santa Barbara,CA
10688,Xw_5QkLTyIEg6Hs-kXGNbg,b_Xw_5QkLTyIEg6Hs-kXGNbg,34.4167811,-119.6961093,"34.4167811000,-119.6961093000",Galanga Thai Restaurant,Santa Barbara,CA
10689,h7felG8kSEuYpkYBhMwCmA,b_h7felG8kSEuYpkYBhMwCmA,34.4159101,-119.6948142,"34.4159101000,-119.6948142000",Q's Billiard Club & Sushi-a-go-go,Santa Barbara,CA
10690,LLmN5AZ3_U2U4nm6sY6j2Q,b_LLmN5AZ3_U2U4nm6sY6j2Q,34.4187058,-119.6976996,"34.4187058000,-119.6976996000",Tonic Nightclub,Santa Barbara,CA
10691,KaEBkaHgbYTYEJ2MMVP-vw,b_KaEBkaHgbYTYEJ2MMVP-vw,34.4231428063,-119.704866165,"34.4231428063,-119.7048661650",Metro Entertainment,Santa Barbara,CA
10692,fApb6LKfOdy5u7MP0hsHKg,b_fApb6LKfOdy5u7MP0hsHKg,34.4406669,-119.7338492,"34.4406669000,-119.7338492000",Kyoto,Santa Barbara,CA
10693,i3pBufSYEgx3_nLxxRrtGg,b_i3pBufSYEgx3_nLxxRrtGg,34.4236434,-119.7045362,"34.4236434000,-119.7045362000",Maeda Restaurant,Santa Barbara,CA
10694,0WrdiQ4qJBu2Gc7wRcIfdw,b_0WrdiQ4qJBu2Gc7wRcIfdw,34.4239428,-119.7049436,"34.4239428000,-119.7049436000",Tupelo Junction Cafe,Santa Barbara,CA
10695,tthy48ZIX_wfY8Dy0Dvg6w,b_tthy48ZIX_wfY8Dy0Dvg6w,34.423983,-119.70586,"34.4239830000,-119.7058600000",Bouchon,Santa Barbara,CA
10696,agMCjuTxI7eCyKipwtawNA,b_agMCjuTxI7eCyKipwtawNA,34.4240354,-119.7049671,"34.4240354000,-119.7049671000",Wendy Foster State Street,Santa Barbara,CA
10697,Oeaerj6kDDBRGnUh0wLAvA,b_Oeaerj6kDDBRGnUh0wLAvA,34.4354134,-119.802905,"34.4354134000,-119.8029050000",Woody's BBQ,Santa Barbara,CA
10698,rh0NFfOWQ_eSTYHup9pAkQ,b_rh0NFfOWQ_eSTYHup9pAkQ,34.4215789,-119.6452317,"34.4215789000,-119.6452317000",Coast Village Inn,Santa Barbara,CA
10699,SAQgO7Ij2cdnMp8VQKBffA,b_SAQgO7Ij2cdnMp8VQKBffA,34.4085635,-119.6933724,"34.4085635000,-119.6933724000",Emilios Ristorante & Bar,Santa Barbara,CA
10700,pKWxpYsS-z6D5FMKfOGuIA,b_pKWxpYsS-z6D5FMKfOGuIA,34.420153,-119.6995738,"34.4201530000,-119.6995738000",Coach,Santa Barbara,CA
10701,0cWnURpfrb4MqKSzyVN4SQ,b_0cWnURpfrb4MqKSzyVN4SQ,34.40171,-119.7212025,"34.4017100000,-119.7212025000",Alcazar Tapas Bar,Santa Barbara,CA
10702,uZYBF0YTU_iKq4_L_PDtMQ,b_uZYBF0YTU_iKq4_L_PDtMQ,34.4230232,-119.6981912,"34.4230232000,-119.6981912000",Zaytoon,Santa Barbara,CA
10703,OqBMs5boXUsKAEfdkv8jHg,b_OqBMs5boXUsKAEfdkv8jHg,34.4184419,-119.699603,"34.4184419000,-119.6996030000",Express,Santa Barbara,CA
10704,iAE5tMDs1XSudlEzG-Z3aA,b_iAE5tMDs1XSudlEzG-Z3aA,34.4220625,-119.7029317,"34.4220625000,-119.7029317000",Spice Avenue,Santa Barbara,CA
10705,oq4-qHT6EJeR81GBDq1OVg,b_oq4-qHT6EJeR81GBDq1OVg,34.4242746,-119.6946696,"34.4242746000,-119.6946696000",Italian Grocery & Deli,Santa Barbara,CA
10706,Ys8dJ0nf_RkG2toWou62pQ,b_Ys8dJ0nf_RkG2toWou62pQ,34.4197102,-119.7009963,"34.4197102000,-119.7009963000",Nordstrom Paseo Nuevo,Santa Barbara,CA
10707,z6I4QVP1M1HXETgwD92XHg,b_z6I4QVP1M1HXETgwD92XHg,34.4229971148,-119.7045224474,"34.4229971148,-119.7045224474",Olio E Limone Ristorante,Santa Barbara,CA
10708,sjm9TFtN69KrVsgajcL2Pg,b_sjm9TFtN69KrVsgajcL2Pg,34.4194702,-119.6680014,"34.4194702000,-119.6680014000",Santa Barbara Zoo,Santa Barbara,CA
10709,8-ZExybRuyyXZf6aESgc3g,b_8-ZExybRuyyXZf6aESgc3g,34.418991,-119.699996,"34.4189910000,-119.6999960000",Paseo Nuevo Shopping Center,Santa Barbara,CA
10710,qBTyG8JYYE8DWur0eBTYcw,b_qBTyG8JYYE8DWur0eBTYcw,34.4380592,-119.7480487,"34.4380592000,-119.7480487000",La Cumbre Plaza,Santa Barbara,CA
10711,DIHk_ilpXmH2Y6q6erHLqQ,b_DIHk_ilpXmH2Y6q6erHLqQ,34.4190166,-119.67166,"34.4190166000,-119.6716600000",John Hurley Automotive,Santa Barbara,CA
10712,8MoqZqlNN9AXzG91_Hpc_Q,b_8MoqZqlNN9AXzG91_Hpc_Q,34.4190968,-119.6974545,"34.4190968000,-119.6974545000",Dargan's Irish Pub & Restaurant,Santa Barbara,CA
10713,YgS10SCzw13uGiC0wTDiaQ,b_YgS10SCzw13uGiC0wTDiaQ,34.4205705,-119.7011787,"34.4205705000,-119.7011787000",The Taj Cafe,Santa Barbara,CA
10714,mEzH6V1ruMHJrgKuLGoi1g,b_mEzH6V1ruMHJrgKuLGoi1g,34.4170173,-119.6956047,"34.4170173000,-119.6956047000",Cold Stone Creamery,Santa Barbara,CA
10715,ut45DX7-QaOWLzYRlBSbGA,b_ut45DX7-QaOWLzYRlBSbGA,34.418284,-119.6960863,"34.4182840000,-119.6960863000",Blue Agave,Santa Barbara,CA
10716,hDr_bt6MEwlGvGCCKzyzhg,b_hDr_bt6MEwlGvGCCKzyzhg,34.437516711,-119.7909391846,"34.4375167110,-119.7909391846",Goleta Coffee Co and Loca Vivant Kitchen,Santa Barbara,CA
10717,1MSOoGQuDbj6C5euUoS-hA,b_1MSOoGQuDbj6C5euUoS-hA,34.4095661,-119.6951589,"34.4095661000,-119.6951589000",Days Inn Santa Barbara,Santa Barbara,CA
10718,QMJ0NWkqBdEcHW54IMCCFg,b_QMJ0NWkqBdEcHW54IMCCFg,34.409821,-119.69561,"34.4098210000,-119.6956100000",Avania Inn of Santa Barbara,Santa Barbara,CA
10719,FTFaEinJgzqY0ZHQMUSpQQ,b_FTFaEinJgzqY0ZHQMUSpQQ,34.4120313,-119.6957699,"34.4120313000,-119.6957699000",The Brewhouse,Santa Barbara,CA
10720,wJiaLWAxfqDeFsmE2cI8tg,b_wJiaLWAxfqDeFsmE2cI8tg,34.400241,-119.7216702,"34.4002410000,-119.7216702000",Lazy Acres Market - Santa Barbara,Santa Barbara,CA
10721,KuJk57adEjp4JP01ZAkQvw,b_KuJk57adEjp4JP01ZAkQvw,34.4164219,-119.6968486,"34.4164219000,-119.6968486000",Santa Barbara Autowerks,Santa Barbara,CA
10722,vhWlxyLEWAbNOMtQ42yzFg,b_vhWlxyLEWAbNOMtQ42yzFg,34.4219915,-119.7038202,"34.4219915000,-119.7038202000",Norton's Pastrami & Deli,Santa Barbara,CA
10723,DbYZpG1O8Qknfk_IqXtHxg,b_DbYZpG1O8Qknfk_IqXtHxg,34.4017305,-119.7214896,"34.4017305000,-119.7214896000",The Cliff Room,Santa Barbara,CA
10724,Go-vuNoQ64pojSRJ580SJQ,b_Go-vuNoQ64pojSRJ580SJQ,34.4162041,-119.6951589,"34.4162041000,-119.6951589000",Velvet Jones,Santa Barbara,CA
10725,l_slvEnh4v3W8BXF1gYlcQ,b_l_slvEnh4v3W8BXF1gYlcQ,34.4171787,-119.6963836,"34.4171787000,-119.6963836000",Baja Sharkeez,Santa Barbara,CA
10726,yEmEDomLUofVtbZoUeFV5g,b_yEmEDomLUofVtbZoUeFV5g,34.4286593,-119.7173255,"34.4286593000,-119.7173255000",The Daily Grind Coffee & Tea Station,Santa Barbara,CA
10727,_qmFWIAH9ZATeQpXxdm8rg,b__qmFWIAH9ZATeQpXxdm8rg,34.420334,-119.7107494,"34.4203340000,-119.7107494000",Cloud Climbers Jeep Tours,Santa Barbara,CA
10728,o4IiNbNybcy-L4vzTSoDJw,b_o4IiNbNybcy-L4vzTSoDJw,34.4253913532,-119.7048107601,"34.4253913532,-119.7048107601",Ca' Dario,Santa Barbara,CA
10729,6-_lHkiCLUP5lOe1bp_6hA,b_6-_lHkiCLUP5lOe1bp_6hA,34.4269842,-119.7101039,"34.4269842000,-119.7101039000",El Prado Inn,Santa Barbara,CA
10730,nkLla0nBTUPL6yj-zX6eaw,b_nkLla0nBTUPL6yj-zX6eaw,34.42209,-119.657295,"34.4220900000,-119.6572950000",Cafe del Sol,Santa Barbara,CA
10731,LwCcNUqX-BEMBd6Xj-JlvA,b_LwCcNUqX-BEMBd6Xj-JlvA,34.4288085,-119.7173022,"34.4288085000,-119.7173022000",Los Gallos,Santa Barbara,CA
10732,Kd2ldlgqcWP7drZ-ChG4Kw,b_Kd2ldlgqcWP7drZ-ChG4Kw,34.4564877,-119.7099564195,"34.4564877000,-119.7099564195",Santa Barbara Botanic Garden,Santa Barbara,CA
10733,9ugpNKKhnYRa51qXoxUw_A,b_9ugpNKKhnYRa51qXoxUw_A,34.414316,-119.694449,"34.4143160000,-119.6944490000",Lilly's Tacos,Santa Barbara,CA
10734,VgAKmXE8B7J0I_O_R13UKQ,b_VgAKmXE8B7J0I_O_R13UKQ,34.41507,-119.6944335,"34.4150700000,-119.6944335000",Santa Barbara Roasting Company,Santa Barbara,CA
10735,PGVZjuHpB5s5jFMKqKdCmw,b_PGVZjuHpB5s5jFMKqKdCmw,34.4221062,-119.6975282,"34.4221062000,-119.6975282000",Our Daily Bread,Santa Barbara,CA
10736,NynM3SwsOMFJryABCKuOlg,b_NynM3SwsOMFJryABCKuOlg,34.4164314,-119.6954507,"34.4164314000,-119.6954507000",All India Cafe,Santa Barbara,CA
10737,ZY4M_fKW8aSUpsUzeh5fuA,b_ZY4M_fKW8aSUpsUzeh5fuA,34.425305,-119.702695,"34.4253050000,-119.7026950000",Elements Restaurant and Bar,Santa Barbara,CA
10738,Z0mBsgDzDnFAEC5o4X6G9g,b_Z0mBsgDzDnFAEC5o4X6G9g,34.4394311,-119.7719422,"34.4394311000,-119.7719422000",Java Station,Santa Barbara,CA
10739,KxTipxTtvRDOntfze34NPw,b_KxTipxTtvRDOntfze34NPw,34.4402476,-119.766991,"34.4402476000,-119.7669910000",Ye Olde Butcher Shop,Santa Barbara,CA
10740,54oLdsGU9B8HxFTqCCqV-A,b_54oLdsGU9B8HxFTqCCqV-A,34.4400762121,-119.7363232264,"34.4400762121,-119.7363232264",Via Maestra 42,Santa Barbara,CA
10741,kZtl_NJjUnlIQgzFrBhXyQ,b_kZtl_NJjUnlIQgzFrBhXyQ,34.4017849,-119.720842,"34.4017849000,-119.7208420000",Ichiban,Santa Barbara,CA
10742,9u79dIXLQzmt9rnOZEnBaQ,b_9u79dIXLQzmt9rnOZEnBaQ,34.418499,-119.697453,"34.4184990000,-119.6974530000",The Habit Burger Grill,Santa Barbara,CA
10743,YgbIbmfDlB-bZSsjuIfKwA,b_YgbIbmfDlB-bZSsjuIfKwA,34.421271,-119.677216,"34.4212710000,-119.6772160000",Jack's Bistro and Famous Bagels,Santa Barbara,CA
10744,WhTRPUduXy3mRBYlmSmsKw,b_WhTRPUduXy3mRBYlmSmsKw,34.4283168,-119.7167114,"34.4283168000,-119.7167114000",Mission Street Ice Cream and Yogurt - Featuring McConnell's Fine,Santa Barbara,CA
10745,z31te0YMSegTdktp3qYqGw,b_z31te0YMSegTdktp3qYqGw,34.4265002,-119.7344734,"34.4265002000,-119.7344734000",Empress Palace,Santa Barbara,CA
10746,nnn78cplvQGZSMVblpI5gQ,b_nnn78cplvQGZSMVblpI5gQ,34.4391030986,-119.7526712666,"34.4391030986,-119.7526712666",Mandarin Palace,Santa Barbara,CA
10747,1BT287ZmdIWGVoGCIJ68iw,b_1BT287ZmdIWGVoGCIJ68iw,34.4198457,-119.7003337,"34.4198457000,-119.7003337000",Sur La Table,Santa Barbara,CA
10748,MwJsk91FJ73YzzmpVaJihQ,b_MwJsk91FJ73YzzmpVaJihQ,34.4220557,-119.7037481,"34.4220557000,-119.7037481000",Los Arroyos Mexican Restaurant & Take Out,Santa Barbara,CA
10749,G5PSyr8Qwg6PAC6GPf-dXQ,b_G5PSyr8Qwg6PAC6GPf-dXQ,34.4235524,-119.7044128,"34.4235524000,-119.7044128000",Santa Barbara Outfitters,Santa Barbara,CA
10750,Ow29cE1wS-_LrfN7jEuDPA,b_Ow29cE1wS-_LrfN7jEuDPA,34.4401927,-119.7415157,"34.4401927000,-119.7415157000",Ahi Sushi,Santa Barbara,CA
10751,ZKi4F9BlA46rLvLyeIE3VA,b_ZKi4F9BlA46rLvLyeIE3VA,34.4198262944,-119.6972406755,"34.4198262944,-119.6972406755",Pacific Crêpes,Santa Barbara,CA
10752,c4Ga5mqXZzzQOXYylbSMkA,b_c4Ga5mqXZzzQOXYylbSMkA,34.4384325961,-119.7522690562,"34.4384325961,-119.7522690562",Ross Dress for Less,Santa Barbara,CA
10753,j3Ml_qEFnDOaH5miNzG6xw,b_j3Ml_qEFnDOaH5miNzG6xw,34.40162,-119.721043,"34.4016200000,-119.7210430000",Rose Cafe No 2,Santa Barbara,CA
10754,5uNCvNy9L6peKeKP1RRPyg,b_5uNCvNy9L6peKeKP1RRPyg,34.4242954,-119.7053091,"34.4242954000,-119.7053091000",Saigon Vietnamese Restaurant,Santa Barbara,CA
10755,mAqgsZBTN-wsShMpkz2o9g,b_mAqgsZBTN-wsShMpkz2o9g,34.4267539,-119.7095028,"34.4267539000,-119.7095028000",Cantwell's Market & Deli,Santa Barbara,CA
10756,HwZG4PC_g_MHGogpYdAd0Q,b_HwZG4PC_g_MHGogpYdAd0Q,34.4329613,-119.7024769,"34.4329613000,-119.7024769000","Michael W Thompson, DDS",Santa Barbara,CA
10757,B3dzK9OqrT_sN0FNQs_OgQ,b_B3dzK9OqrT_sN0FNQs_OgQ,34.427135,-119.702428,"34.4271350000,-119.7024280000",Spiritland Bistro,Santa Barbara,CA
10758,SZU9c8V2GuREDN5KgyHFJw,b_SZU9c8V2GuREDN5KgyHFJw,34.4087147,-119.6850187,"34.4087147000,-119.6850187000",Santa Barbara Shellfish Company,Santa Barbara,CA
10759,FEBwxZMEpxRwVXx9Fm0XZw,b_FEBwxZMEpxRwVXx9Fm0XZw,34.4099411,-119.6922624,"34.4099411000,-119.6922624000",Chad's,Santa Barbara,CA
10760,ws0mjFrkanX_sXoUVRh8Uw,b_ws0mjFrkanX_sXoUVRh8Uw,34.419497,-119.698708,"34.4194970000,-119.6987080000",Jitters Coffee,Santa Barbara,CA
10761,_cWBP-lW9RETw77prVle1g,b__cWBP-lW9RETw77prVle1g,34.4201359,-119.7008543,"34.4201359000,-119.7008543000",Bitterman's Deli,Santa Barbara,CA
10762,INaAIFXWueRVjgmuNtJTEw,b_INaAIFXWueRVjgmuNtJTEw,34.4403065,-119.7633462,"34.4403065000,-119.7633462000",Dutch Garden Restaurant,Santa Barbara,CA
10763,8_r9EZL6vX5fPBoVh3gUrA,b_8_r9EZL6vX5fPBoVh3gUrA,34.4232341,-119.698741,"34.4232341000,-119.6987410000",La Playa Azul Cafe,Santa Barbara,CA
10764,rIGX4yiwBwI9l2XC5F0dbw,b_rIGX4yiwBwI9l2XC5F0dbw,34.43979,-119.735875,"34.4397900000,-119.7358750000",Chaucer's Bookstore,Santa Barbara,CA
10765,Pjurvl_qc3IEMxW38Kj3tg,b_Pjurvl_qc3IEMxW38Kj3tg,34.4405895,-119.7317649,"34.4405895000,-119.7317649000",Tiburon Tavern,Santa Barbara,CA
10766,6smGb7xv5fDbBsLgW1WC2w,b_6smGb7xv5fDbBsLgW1WC2w,34.440233,-119.728322,"34.4402330000,-119.7283220000",Shintori Sushi Factory,Santa Barbara,CA
10767,u09K1WNeI801wdd0NsSLoQ,b_u09K1WNeI801wdd0NsSLoQ,34.4326918625,-119.6938947006,"34.4326918625,-119.6938947006",Santa Barbara Bowl,Santa Barbara,CA
10768,qo1skGbgDfQN3UItla2YLw,b_qo1skGbgDfQN3UItla2YLw,34.440915,-119.714462,"34.4409150000,-119.7144620000",Santa Barbara Museum of Natural History,Santa Barbara,CA
10769,l-rGtJt0E7PAklT0IK7oFQ,b_l-rGtJt0E7PAklT0IK7oFQ,34.4173394,-119.64204,"34.4173394000,-119.6420400000",Four Seasons Resort The Biltmore Santa Barbara,Santa Barbara,CA
10770,HdWXWU6CZueBZsf1oKNBcQ,b_HdWXWU6CZueBZsf1oKNBcQ,34.4158720755,-119.6945152398,"34.4158720755,-119.6945152398",The Adult Store,Santa Barbara,CA
10771,07yUvKzFb-yPzJKoT0zamQ,b_07yUvKzFb-yPzJKoT0zamQ,34.4191654,-119.6983385,"34.4191654000,-119.6983385000",Piranha Restaurant & Sushi Bar,Santa Barbara,CA
10772,XGGPXLaa_B2Qc79cq9YPlg,b_XGGPXLaa_B2Qc79cq9YPlg,34.4103881,-119.6958943,"34.4103881000,-119.6958943000",Beach House Inn,Santa Barbara,CA
10773,YrNtBUOUOYwmRZ_UVwH8iQ,b_YrNtBUOUOYwmRZ_UVwH8iQ,34.4151276955,-119.6948346064,"34.4151276955,-119.6948346064",D'Angelo's Bakery,Santa Barbara,CA
10774,pqF3WkYktbR28uk2PSR7Rg,b_pqF3WkYktbR28uk2PSR7Rg,34.4117091,-119.6960527,"34.4117091000,-119.6960527000",The Neighborhood Bar,Santa Barbara,CA
10775,CbIn5Vaua0yoYjD4rt4ojQ,b_CbIn5Vaua0yoYjD4rt4ojQ,34.4272736,-119.7091656,"34.4272736000,-119.7091656000",Peaches Skin Care,Santa Barbara,CA
10776,-H-fZonTLitwHFY_PLAIjA,b_-H-fZonTLitwHFY_PLAIjA,34.4295503,-119.7176051,"34.4295503000,-119.7176051000",Taffy's Pizza,Santa Barbara,CA
10777,nhIffYn3kMRlHeClz0az1g,b_nhIffYn3kMRlHeClz0az1g,34.413643053,-119.6928286747,"34.4136430530,-119.6928286747",Santa Barbara Amtrak Station,Santa Barbara,CA
10778,eBxc95u_Gcs9bLST0UntOQ,b_eBxc95u_Gcs9bLST0UntOQ,34.4352389,-119.7245736,"34.4352389000,-119.7245736000",Santa Barbara Chicken Ranch,Santa Barbara,CA
10779,z9-8KvMAlVK46De-G3sNJQ,b_z9-8KvMAlVK46De-G3sNJQ,34.4193109,-119.6985193,"34.4193109000,-119.6985193000",Blenders In The Grass,Santa Barbara,CA
10780,qzgpbJxeNW_1q0L-H8Eggw,b_qzgpbJxeNW_1q0L-H8Eggw,34.4146642,-119.6894336,"34.4146642000,-119.6894336000",Hazards Cycle Sport,Santa Barbara,CA
10781,lu2UpRHLBZfvLG_caNEHKQ,b_lu2UpRHLBZfvLG_caNEHKQ,34.417184,-119.69578,"34.4171840000,-119.6957800000",The Natural Cafe,Santa Barbara,CA
10782,6EPPtwJR1kdIfHiCjzCzuw,b_6EPPtwJR1kdIfHiCjzCzuw,34.4104753,-119.6868426,"34.4104753000,-119.6868426000",The Harbor Restaurant,Santa Barbara,CA
10783,gdEZfd6RFXYmmXX71RDvbA,b_gdEZfd6RFXYmmXX71RDvbA,34.422317,-119.698081,"34.4223170000,-119.6980810000",C'est Cheese,Santa Barbara,CA
10784,wFES5bGDiPANW13hNHnXOQ,b_wFES5bGDiPANW13hNHnXOQ,34.422264,-119.650288,"34.4222640000,-119.6502880000",Sakana Sushi Bar & Japanese,Santa Barbara,CA
10785,fqStx0SvwMFChX_HIdUeEQ,b_fqStx0SvwMFChX_HIdUeEQ,34.421130437,-119.6990534572,"34.4211304370,-119.6990534572",Wine Cask,Santa Barbara,CA
10786,m4xrhESFLaA7PiddXeg2aw,b_m4xrhESFLaA7PiddXeg2aw,34.4173624,-119.6959549,"34.4173624000,-119.6959549000",Pierre Lafond Wine Bistro,Santa Barbara,CA
10787,a32M9H9nkkPGKTKB5W27NA,b_a32M9H9nkkPGKTKB5W27NA,34.41434,-119.69273,"34.4143400000,-119.6927300000",Enterprise Fish,Santa Barbara,CA
10788,iOYjF9CY-X3KY5wS5opyfg,b_iOYjF9CY-X3KY5wS5opyfg,34.4014219,-119.72302,"34.4014219000,-119.7230200000",Cliff's & Co Restaurant,Santa Barbara,CA
10789,DOEdwWznWZ3wx6tsNk28Bg,b_DOEdwWznWZ3wx6tsNk28Bg,34.4242655789,-119.6906104279,"34.4242655789,-119.6906104279",Paragon Jiu Jitsu and Kickboxing,Santa Barbara,CA
10790,GgcvRnt5_z3NEC0D6vNncQ,b_GgcvRnt5_z3NEC0D6vNncQ,34.424829,-119.706032,"34.4248290000,-119.7060320000",Cafe Buenos Aires,Santa Barbara,CA
10791,uDQNEJly3Y7O1kNvluQiRg,b_uDQNEJly3Y7O1kNvluQiRg,34.419065,-119.702311,"34.4190650000,-119.7023110000",Fastrack Bicycles,Santa Barbara,CA
10792,RdFgbrE_8sf6NImEMopaPQ,b_RdFgbrE_8sf6NImEMopaPQ,34.4157298,-119.6936606,"34.4157298000,-119.6936606000",Beachbreak Cafe,Santa Barbara,CA
10793,PVo1orQ9R7ZHfg90QACh-w,b_PVo1orQ9R7ZHfg90QACh-w,34.4406266,-119.7367796,"34.4406266000,-119.7367796000",Your Choice,Santa Barbara,CA
10794,tqYx0jA8gXOApuaUuuOLew,b_tqYx0jA8gXOApuaUuuOLew,34.4116958851,-119.8486622017,"34.4116958851,-119.8486622017",UCSB Campus Store,Santa Barbara,CA
10795,TVX2a4bVuCE2VUIkiLdZrQ,b_TVX2a4bVuCE2VUIkiLdZrQ,34.4406128,-119.729371,"34.4406128000,-119.7293710000",Flavor of India,Santa Barbara,CA
10796,T2otvNcawDSkhykOG2tOLA,b_T2otvNcawDSkhykOG2tOLA,34.44335,-119.78812,"34.4433500000,-119.7881200000",IHOP,Santa Barbara,CA
10797,ODvaMIpjD6bHiwQ9-kmECw,b_ODvaMIpjD6bHiwQ9-kmECw,34.4404899,-119.7398757,"34.4404899000,-119.7398757000",Vices & Spices From Around the World,Santa Barbara,CA
10798,BErYojCJSO959vzaz9JclQ,b_BErYojCJSO959vzaz9JclQ,34.4219321,-119.7040745,"34.4219321000,-119.7040745000",Savoy Cafe & Deli,Santa Barbara,CA
10799,HOXbILWYZJkNUYYzYK_tZA,b_HOXbILWYZJkNUYYzYK_tZA,34.4232597,-119.691138,"34.4232597000,-119.6911380000",Arnoldi's Cafe,Santa Barbara,CA
10800,tyt3pz0x3ZB8GXsSx1a9Aw,b_tyt3pz0x3ZB8GXsSx1a9Aw,34.4210753,-119.7019558,"34.4210753000,-119.7019558000",Roy,Santa Barbara,CA
10801,2YnQAJdeFrcgPa8MqIYcDg,b_2YnQAJdeFrcgPa8MqIYcDg,34.4366192418,-119.7917363642,"34.4366192418,-119.7917363642",Cody's Cafe,Santa Barbara,CA
10802,7wSnkgOORRCqVDa_n8Upxg,b_7wSnkgOORRCqVDa_n8Upxg,34.4308351,-119.7149595,"34.4308351000,-119.7149595000",Garrett's Old Fashioned Restaurant,Santa Barbara,CA
10803,3fpAmsSuEFNF29UUPpgwlw,b_3fpAmsSuEFNF29UUPpgwlw,34.4401969,-119.7414014,"34.4401969000,-119.7414014000",Spudnuts & Bagels,Santa Barbara,CA
10804,0Qs-G8Xs-mz-jmQH5lez5A,b_0Qs-G8Xs-mz-jmQH5lez5A,34.4234706,-119.7039262,"34.4234706000,-119.7039262000",Museum Cafe,Santa Barbara,CA
10805,HA_Hks9YjRqz3Yk6JDAaIQ,b_HA_Hks9YjRqz3Yk6JDAaIQ,34.4142018,-119.6916506,"34.4142018000,-119.6916506000",Bougainvillea,Santa Barbara,CA
10806,9CBW1G-JR9ioTgwFTK6kbQ,b_9CBW1G-JR9ioTgwFTK6kbQ,34.4208305,-119.6981901,"34.4208305000,-119.6981901000",Minnow Cafe,Santa Barbara,CA
10807,OODq_Mki-e929E8NfPc7-Q,b_OODq_Mki-e929E8NfPc7-Q,34.425389,-119.683614,"34.4253890000,-119.6836140000",Whitefoot Meat Market,Santa Barbara,CA
10808,gYrHa4CckDjgOQc5B-yTKA,b_gYrHa4CckDjgOQc5B-yTKA,34.4146594,-119.6915589,"34.4146594000,-119.6915589000",Reds Bin 211,Santa Barbara,CA
10809,agXGQ4DH4SqxtJxBHKjWIg,b_agXGQ4DH4SqxtJxBHKjWIg,34.4223062,-119.6895251,"34.4223062000,-119.6895251000",Muddy Waters Cafe,Santa Barbara,CA
10810,qD6lkJ8u5Qj9KJsIpyFtew,b_qD6lkJ8u5Qj9KJsIpyFtew,34.4400446,-119.741224,"34.4400446000,-119.7412240000",Modern Nails,Santa Barbara,CA
10811,8FgcWn7bdMC-TMrE4Q3xMg,b_8FgcWn7bdMC-TMrE4Q3xMg,34.4368283,-119.7266791,"34.4368283000,-119.7266791000",Bangkok Palace,Santa Barbara,CA
10812,s1PRcLjqZEBGo3fsmJuddQ,b_s1PRcLjqZEBGo3fsmJuddQ,34.4345524,-119.7244831,"34.4345524000,-119.7244831000",T J Paws Self-Serve Dog Wash,Santa Barbara,CA
10813,kbWKwvLXfJm5sLVfw-Foww,b_kbWKwvLXfJm5sLVfw-Foww,34.4208061,-119.6953852,"34.4208061000,-119.6953852000",Jill's Place,Santa Barbara,CA
10814,R_idF34vAnYIBiTbRHMCJw,b_R_idF34vAnYIBiTbRHMCJw,34.435956,-119.810565,"34.4359560000,-119.8105650000",Wolfe & Associates Property Services,Santa Barbara,CA
10815,eukRpR47MDH4XXfU_Dul9Q,b_eukRpR47MDH4XXfU_Dul9Q,34.440642,-119.7392725,"34.4406420000,-119.7392725000",Madam Lu,Santa Barbara,CA
10816,cAbdvzqtFLaAAMFIyPf2AA,b_cAbdvzqtFLaAAMFIyPf2AA,34.4171144,-119.6958556,"34.4171144000,-119.6958556000",Holdren's Steaks & Seafood,Santa Barbara,CA
10817,VhH_MGOiWsMVOJk1LHFVXw,b_VhH_MGOiWsMVOJk1LHFVXw,34.4196114,-119.7000342,"34.4196114000,-119.7000342000",Rudy's Mexican Restaurant & Take Out,Santa Barbara,CA
10818,icGg8xgDJVufg-xptMrDGw,b_icGg8xgDJVufg-xptMrDGw,34.4407049,-119.7409102321,"34.4407049000,-119.7409102321",Denny's,Santa Barbara,CA
10819,ezPxEtWJFqYKGoE8XlK_SQ,b_ezPxEtWJFqYKGoE8XlK_SQ,34.418374,-119.695445,"34.4183740000,-119.6954450000",Santa Barbara City College Cosmetology Academy,Santa Barbara,CA
10820,6afesz8yZhjOgijkWl4jig,b_6afesz8yZhjOgijkWl4jig,34.4198503998,-119.699920719,"34.4198503998,-119.6999207190",The Coffee Bean & Tea Leaf,Santa Barbara,CA
10821,5p_14QRkLFd6QyhpPzfW3A,b_5p_14QRkLFd6QyhpPzfW3A,34.418936,-119.6980105,"34.4189360000,-119.6980105000",Left At Albuquerque,Santa Barbara,CA
10822,6jFaC8maySATCsLaiNOvzA,b_6jFaC8maySATCsLaiNOvzA,34.4393161,-119.7475346,"34.4393161000,-119.7475346000",Solstice Sunglasses,Santa Barbara,CA
10823,-sA9IkoLMh2PqksCXVvoDg,b_-sA9IkoLMh2PqksCXVvoDg,34.421007,-119.700377,"34.4210070000,-119.7003770000",Borders,Santa Barbara,CA
10824,Kthnb7PjDSd7FsBp4wqoHA,b_Kthnb7PjDSd7FsBp4wqoHA,34.4389627,-119.728949,"34.4389627000,-119.7289490000",Trader Joe's,Santa Barbara,CA
10825,iJp9sq8UddLSrUtIieoD0A,b_iJp9sq8UddLSrUtIieoD0A,34.4011936443,-119.721519869,"34.4011936443,-119.7215198690",Good Cup,Santa Barbara,CA
10826,8vMULlBjFJyS_836tOKnVQ,b_8vMULlBjFJyS_836tOKnVQ,34.4181565,-119.6967313,"34.4181565000,-119.6967313000",World Market,Santa Barbara,CA
10827,bXrQejeR66IwebuhxPS7GA,b_bXrQejeR66IwebuhxPS7GA,34.4164748,-119.6894223,"34.4164748000,-119.6894223000",Metropulos Fine Foods,Santa Barbara,CA
10828,USVks6B2Xkf0WLmLIiXqMA,b_USVks6B2Xkf0WLmLIiXqMA,34.4223342,-119.7053137,"34.4223342000,-119.7053137000",The Hungry Cat,Santa Barbara,CA
10829,ZrxlfdFU_qpnIHI2DmoRxA,b_ZrxlfdFU_qpnIHI2DmoRxA,34.4005756,-119.7227184,"34.4005756000,-119.7227184000",Mesa Pizza,Santa Barbara,CA
10830,ERzIS-WRLw-80_B4yqcG3Q,b_ERzIS-WRLw-80_B4yqcG3Q,34.4407042,-119.7500818,"34.4407042000,-119.7500818000",Chuck's of Hawaii,Santa Barbara,CA
10831,4sOLSCiwSdHhzcXC9Sd0xQ,b_4sOLSCiwSdHhzcXC9Sd0xQ,34.4208816,-119.7010477,"34.4208816000,-119.7010477000",Northstar Coffee,Santa Barbara,CA
10832,v1Uesklh8DpEufYOhTq4iA,b_v1Uesklh8DpEufYOhTq4iA,34.4176898,-119.6685252,"34.4176898000,-119.6685252000",Mar Monte Hotel - Hyatt,Santa Barbara,CA
10833,ghLjxj4HoSHdflBEz2lIqA,b_ghLjxj4HoSHdflBEz2lIqA,34.439341,-119.735118,"34.4393410000,-119.7351180000",Gelson's,Santa Barbara,CA
10834,GypA5Nu_0gzL3yDCPiw-Mw,b_GypA5Nu_0gzL3yDCPiw-Mw,34.4037491,-119.6935611,"34.4037491000,-119.6935611000",Paddle Sports Center,Santa Barbara,CA
10835,b2Za53CjptGyf9K0fFnrAg,b_b2Za53CjptGyf9K0fFnrAg,34.4398038551,-119.7283961644,"34.4398038551,-119.7283961644",Petrini's Italian Restaurant - Santa Barbara,Santa Barbara,CA
10836,kvvQoiwCk3TzyYGh9B7m_Q,b_kvvQoiwCk3TzyYGh9B7m_Q,34.436448,-119.815963216,"34.4364480000,-119.8159632160",Pacifica Suites,Santa Barbara,CA
10837,AgTPBMMz2Cmn11lbPe3K8A,b_AgTPBMMz2Cmn11lbPe3K8A,34.4366878957,-119.7386166263,"34.4366878957,-119.7386166263",Santa Barbara Golf Club,Santa Barbara,CA
10838,pwblP3G6LkVT03I4z9kb0A,b_pwblP3G6LkVT03I4z9kb0A,34.4169152,-119.6958779,"34.4169152000,-119.6958779000",Mad Dogs,Santa Barbara,CA
10839,FE5R_F7svUphKeUWuxA0JA,b_FE5R_F7svUphKeUWuxA0JA,34.435934,-119.8028451,"34.4359340000,-119.8028451000",Del Pueblo Cafe,Santa Barbara,CA
10840,5pyYBpuNOAqgN9nSpk8vaQ,b_5pyYBpuNOAqgN9nSpk8vaQ,34.4172695,-119.696544,"34.4172695000,-119.6965440000",Madison's Sports Grill,Santa Barbara,CA
10841,A2-SK2Y9rC7fsDDL56QB7Q,b_A2-SK2Y9rC7fsDDL56QB7Q,34.4204336,-119.7010197,"34.4204336000,-119.7010197000",Forever 21,Santa Barbara,CA
10842,0LXeNx7wGTqbMSwKkGC3xg,b_0LXeNx7wGTqbMSwKkGC3xg,34.4262731,-119.684455,"34.4262731000,-119.6844550000",Altamirano Mexican Restaurant,Santa Barbara,CA
10843,zmEFVIU5cakWga2cyskz2Q,b_zmEFVIU5cakWga2cyskz2Q,34.4119015,-119.6906104,"34.4119015000,-119.6906104000",Harbor View Inn,Santa Barbara,CA
10844,rPVmM0aJbC6lU_mnDiZ2Rw,b_rPVmM0aJbC6lU_mnDiZ2Rw,34.4400608,-119.7413536,"34.4400608000,-119.7413536000",Tee-Off Restaurant and Lounge,Santa Barbara,CA
10845,9dYarThtZVX4PvmtnFIrxA,b_9dYarThtZVX4PvmtnFIrxA,34.4098797,-119.6855073,"34.4098797000,-119.6855073000",Mother Stearns Candy,Santa Barbara,CA
10846,x8JcV7sAyDN5k9qbnlfGdA,b_x8JcV7sAyDN5k9qbnlfGdA,34.4098797,-119.6855073,"34.4098797000,-119.6855073000",Great Pacific Ice Cream,Santa Barbara,CA
10847,7j8rT3FZbXgL4k0DnXi2Mw,b_7j8rT3FZbXgL4k0DnXi2Mw,34.4092802,-119.69348,"34.4092802000,-119.6934800000","West Beach Inn, a Coast Hotel",Santa Barbara,CA
10848,TCWnTa69sJ3vGQsdEe3Esw,b_TCWnTa69sJ3vGQsdEe3Esw,34.4165849,-119.6955333,"34.4165849000,-119.6955333000",Uncle Roccos Famous NY Pizza,Santa Barbara,CA
10849,shA4op1763K-ipMqVdZMvA,b_shA4op1763K-ipMqVdZMvA,34.4245797,-119.7065641,"34.4245797000,-119.7065641000",Arlington Theatre,Santa Barbara,CA
10850,yLbWh-qmQiCMaNTySMy30Q,b_yLbWh-qmQiCMaNTySMy30Q,34.412858,-119.689418,"34.4128580000,-119.6894180000",Mountain Air Sports,Santa Barbara,CA
10851,PsFQZqgJ_219iIi51PJPAg,b_PsFQZqgJ_219iIi51PJPAg,34.4128205,-119.6892567,"34.4128205000,-119.6892567000",Surf N Wear's Beach House,Santa Barbara,CA
10852,BEzvmorW8ILha6tcSxBBwA,b_BEzvmorW8ILha6tcSxBBwA,34.439746,-119.770649,"34.4397460000,-119.7706490000",Valentino's Take N Bake Pizza,Santa Barbara,CA
10853,8lhyqiOAFjIipheDtk8gXA,b_8lhyqiOAFjIipheDtk8gXA,34.4255544,-119.7148108,"34.4255544000,-119.7148108000",Bath Street Inn,Santa Barbara,CA
10854,_QohBRBxWuwlIUuHj5_fZQ,b__QohBRBxWuwlIUuHj5_fZQ,34.4168023,-119.6772776,"34.4168023000,-119.6772776000",Fess Parker's DoubleTree Resort,Santa Barbara,CA
10855,yw3vRR7XLIjEnlhMnVzR7w,b_yw3vRR7XLIjEnlhMnVzR7w,34.419763,-119.6989834,"34.4197630000,-119.6989834000",Kai Sushi Shabu-Shabu,Santa Barbara,CA
10856,uriD7RFuHhLJeDdKaf0nFA,b_uriD7RFuHhLJeDdKaf0nFA,34.4406893,-119.7396807,"34.4406893000,-119.7396807000",Pizza Guru,Santa Barbara,CA
10857,E451ihy72tsLMAxbpPa0WQ,b_E451ihy72tsLMAxbpPa0WQ,34.4154595,-119.7016646,"34.4154595000,-119.7016646000",Little Corner Store,Santa Barbara,CA
10858,M9kbUs_xPc9HnU-O6qZX1g,b_M9kbUs_xPc9HnU-O6qZX1g,34.4161257,-119.6947938,"34.4161257000,-119.6947938000",Lettuce B. Frank,Santa Barbara,CA
10859,ZEGTeJHuZmpwHxZLE-yd3g,b_ZEGTeJHuZmpwHxZLE-yd3g,34.4295581,-119.7157951,"34.4295581000,-119.7157951000",Cat & Bird Clinic,Santa Barbara,CA
10860,w3rJyrTjkRW6LMOMbMIrYw,b_w3rJyrTjkRW6LMOMbMIrYw,34.4192405,-119.6786349,"34.4192405000,-119.6786349000",Moto Loco,Santa Barbara,CA
10861,dWP5Ysbz_SWH5xZ6Jtb3cQ,b_dWP5Ysbz_SWH5xZ6Jtb3cQ,34.4377205,-119.808172,"34.4377205000,-119.8081720000","Joanne S Garofalo, MD",Santa Barbara,CA
10862,EtM079Cj7-B3G7jPsGYb_Q,b_EtM079Cj7-B3G7jPsGYb_Q,34.417371,-119.695827,"34.4173710000,-119.6958270000",Sandbar,Santa Barbara,CA
10863,2bxZhBk8JZkJ1GqfTB0cUQ,b_2bxZhBk8JZkJ1GqfTB0cUQ,34.4195303,-119.7001825,"34.4195303000,-119.7001825000",California Pasta,Santa Barbara,CA
10864,22q2wGlAmJN8MkhZl2RzRw,b_22q2wGlAmJN8MkhZl2RzRw,34.4198015,-119.7001905,"34.4198015000,-119.7001905000",Sakura Express,Santa Barbara,CA
10865,L8rhRyXtpq2nCE0il1KN_g,b_L8rhRyXtpq2nCE0il1KN_g,34.4157346304,-119.846678722,"34.4157346304,-119.8466787220",Coral Tree Cafe,Santa Barbara,CA
10866,grEJZ7iyhUbF8xuwmFRdAA,b_grEJZ7iyhUbF8xuwmFRdAA,34.4115493,-119.6912666,"34.4115493000,-119.6912666000",Villa Rosa Inn,Santa Barbara,CA
10867,iN8PdSkfVb6y83Pg8F9w9w,b_iN8PdSkfVb6y83Pg8F9w9w,34.4216570357,-119.6466590025,"34.4216570357,-119.6466590025",Letter Perfect Stationery,Santa Barbara,CA
10868,wtEgueguwMSfHsmuFnS42w,b_wtEgueguwMSfHsmuFnS42w,34.4201602,-119.6998413,"34.4201602000,-119.6998413000",Bryant & Sons,Santa Barbara,CA
10869,SqVKxcfYHOoJi-8kwEzjpA,b_SqVKxcfYHOoJi-8kwEzjpA,34.4195961,-119.7001497,"34.4195961000,-119.7001497000",Planet Beauty,Santa Barbara,CA
10870,vTKvukNEAErW24Y6QxKDKw,b_vTKvukNEAErW24Y6QxKDKw,34.4406557762,-119.7329092026,"34.4406557762,-119.7329092026",Enterprise Rent-A-Car,Santa Barbara,CA
10871,ayhcmJ7zoUS_GsNg6L8w9w,b_ayhcmJ7zoUS_GsNg6L8w9w,34.438989,-119.814055,"34.4389890000,-119.8140550000",B.U.N.S.,Santa Barbara,CA
10872,f0g9JK6FUWNVgmS7AnJ3Gg,b_f0g9JK6FUWNVgmS7AnJ3Gg,34.430838,-119.713601,"34.4308380000,-119.7136010000",Orange Tree Inn,Santa Barbara,CA
10873,1ELQjj8JfYZQF2Z4fu5Jvw,b_1ELQjj8JfYZQF2Z4fu5Jvw,34.4403,-119.7535,"34.4403000000,-119.7535000000",Petco,Santa Barbara,CA
10874,h1Um2n9bY99VvV_866r3kA,b_h1Um2n9bY99VvV_866r3kA,34.411813,-119.695919,"34.4118130000,-119.6959190000",Salon Bamboo,Santa Barbara,CA
10875,8nTweI0fJC4t3GQ3YmlX4w,b_8nTweI0fJC4t3GQ3YmlX4w,34.4239606,-119.7040971,"34.4239606000,-119.7040971000",The Book Den,Santa Barbara,CA
10876,HrnSaz2f1WUEoAQQ6iD6gw,b_HrnSaz2f1WUEoAQQ6iD6gw,34.4382259301,-119.7250353901,"34.4382259301,-119.7250353901",Lemon Tree Inn,Santa Barbara,CA
10877,82gwcD3UmhQ7uwNwkeNKTw,b_82gwcD3UmhQ7uwNwkeNKTw,34.4250786,-119.8365193,"34.4250786000,-119.8365193000",Santa Barbara Airport,Santa Barbara,CA
10878,wyXout3yStwg-knF6Bnelw,b_wyXout3yStwg-knF6Bnelw,34.409030241,-119.6952208575,"34.4090302410,-119.6952208575",Old Spanish Days Fiesta,Santa Barbara,CA
10879,Na0AbPf1GDkN33FllkOfDQ,b_Na0AbPf1GDkN33FllkOfDQ,34.4290241,-119.7080975,"34.4290241000,-119.7080975000",Simpson House Inn,Santa Barbara,CA
10880,TI3Rydw47yBMzY1oW2wJUg,b_TI3Rydw47yBMzY1oW2wJUg,34.4178715,-119.7008868,"34.4178715000,-119.7008868000",Elsie's,Santa Barbara,CA
10881,45l9CK5t_Vg5jPfyzip0WA,b_45l9CK5t_Vg5jPfyzip0WA,34.4393826505,-119.7346003601,"34.4393826505,-119.7346003601",Fantastic Sams Cut and Color,Santa Barbara,CA
10882,MqiWE_eJrhrJfRZUDXZvmw,b_MqiWE_eJrhrJfRZUDXZvmw,34.4226464,-119.7029555,"34.4226464000,-119.7029555000",Knit & Pearl,Santa Barbara,CA
10883,C-aATB7SbuwMBPN5dgjghQ,b_C-aATB7SbuwMBPN5dgjghQ,34.4400942,-119.7434636,"34.4400942000,-119.7434636000",Rusty's Pizza Parlor,Santa Barbara,CA
10884,YzcchXErwyb_8FL6bVPwEA,b_YzcchXErwyb_8FL6bVPwEA,34.4210687,-119.6447302,"34.4210687000,-119.6447302000",Peabody's,Santa Barbara,CA
10885,ZjyTmpOdp7v_7Un8rdgRWA,b_ZjyTmpOdp7v_7Un8rdgRWA,34.4242022,-119.7051688,"34.4242022000,-119.7051688000",The Sportsman,Santa Barbara,CA
10886,_W9lITxMHNInaS2Lv2XoUw,b__W9lITxMHNInaS2Lv2XoUw,34.4096190198,-119.6932475086,"34.4096190198,-119.6932475086",Casa Del Mar Inn,Santa Barbara,CA
10887,I48NFpg7Jc7EF1kb9TgaOA,b_I48NFpg7Jc7EF1kb9TgaOA,34.4213438,-119.701663,"34.4213438000,-119.7016630000",Betsey Johnson,Santa Barbara,CA
10888,ZZQs5sQpWnYOfolSb3CXMA,b_ZZQs5sQpWnYOfolSb3CXMA,34.4094606,-119.6947742,"34.4094606000,-119.6947742000",Mason Beach Inn,Santa Barbara,CA
10889,Crm2XgMdcpHlZ1WgVL1ZPw,b_Crm2XgMdcpHlZ1WgVL1ZPw,34.4145657,-119.694784,"34.4145657000,-119.6947840000",Avia Spa,Santa Barbara,CA
10890,EzhRlsTdACV60rOgrGYyqA,b_EzhRlsTdACV60rOgrGYyqA,34.42808,-119.71125,"34.4280800000,-119.7112500000",IHOP,Santa Barbara,CA
10891,c12V0ARL6jmrmge1ZPf9WA,b_c12V0ARL6jmrmge1ZPf9WA,34.4199481,-119.7041816,"34.4199481000,-119.7041816000",Ralphs Fresh Fare,Santa Barbara,CA
10892,--O3ip9NpXTKD4oBS1pY2A,b_--O3ip9NpXTKD4oBS1pY2A,34.4283025212,-119.7053968432,"34.4283025212,-119.7053968432",Alameda Park,Santa Barbara,CA
10893,2Vg3EYsyjrXQJkT3YzNEXA,b_2Vg3EYsyjrXQJkT3YzNEXA,34.4175349,-119.6968037,"34.4175349000,-119.6968037000",Game Seeker,Santa Barbara,CA
10894,CZCzlptQEGzpoVgxca1V8g,b_CZCzlptQEGzpoVgxca1V8g,34.4243951,-119.7054164,"34.4243951000,-119.7054164000",Chicken Little,Santa Barbara,CA
10895,g4mMCXlK-P7tVpA4AYSdTg,b_g4mMCXlK-P7tVpA4AYSdTg,34.415427,-119.682881,"34.4154270000,-119.6828810000",Chase Palm Park Antique Carousel,Santa Barbara,CA
10896,hjyII_vOD7HvEiY1xHrikg,b_hjyII_vOD7HvEiY1xHrikg,34.4196752,-119.6896826,"34.4196752000,-119.6896826000",Lemos Feed & Pet Supply,Santa Barbara,CA
10897,E_ac8Q20OJD9L8cafCBKaQ,b_E_ac8Q20OJD9L8cafCBKaQ,34.42257,-119.7054592,"34.4225700000,-119.7054592000",Milk & Honey Tapas,Santa Barbara,CA
10898,wQmfIOPFyyLdWVolPwSiqA,b_wQmfIOPFyyLdWVolPwSiqA,34.439527,-119.734513,"34.4395270000,-119.7345130000",Cox Store,Santa Barbara,CA
10899,Bo-GGwQNcLVwyKeYkbfAYg,b_Bo-GGwQNcLVwyKeYkbfAYg,34.4291544,-119.7172224,"34.4291544000,-119.7172224000",Vino Divino,Santa Barbara,CA
10900,BQv7ntaOxs80FJAji2U9pg,b_BQv7ntaOxs80FJAji2U9pg,34.439317,-119.735834,"34.4393170000,-119.7358340000",Harry's Plaza Cafe,Santa Barbara,CA
10901,WU6bc33HR3sum-07FJkkbQ,b_WU6bc33HR3sum-07FJkkbQ,34.427888,-119.716433,"34.4278880000,-119.7164330000",Source Yoga,Santa Barbara,CA
10902,zWwGjQlUEiLS7hCXDkBGzg,b_zWwGjQlUEiLS7hCXDkBGzg,34.4164712,-119.6956712,"34.4164712000,-119.6956712000",Greek House Cafe,Santa Barbara,CA
10903,OoCdhmCam-ZmTnaup48mDw,b_OoCdhmCam-ZmTnaup48mDw,34.4355857,-119.7247546,"34.4355857000,-119.7247546000",Launderland,Santa Barbara,CA
10904,wdO59jXr1uulOCJ9Pwc0UQ,b_wdO59jXr1uulOCJ9Pwc0UQ,34.4232444,-119.7072136,"34.4232444000,-119.7072136000",Ayers Automotive Repairs,Santa Barbara,CA
10905,YKkfFrXqiu9luFUp1VqpBw,b_YKkfFrXqiu9luFUp1VqpBw,34.422731,-119.7024039,"34.4227310000,-119.7024039000",Santa Barbara Independent,Santa Barbara,CA
10906,HINYiyaaJ1rcwXV2Kc-6rA,b_HINYiyaaJ1rcwXV2Kc-6rA,34.4285473,-119.7167192,"34.4285473000,-119.7167192000",Bubbles & Beans,Santa Barbara,CA
10907,WH6JNvJryAn6tTYVrKHktA,b_WH6JNvJryAn6tTYVrKHktA,34.4182778,-119.6973334,"34.4182778000,-119.6973334000",Rockin' Yogurt,Santa Barbara,CA
10908,5tVPbd0gJZHyEEWpXW7vCg,b_5tVPbd0gJZHyEEWpXW7vCg,34.4397058,-119.7708382,"34.4397058000,-119.7708382000",Wing's Restaurant,Santa Barbara,CA
10909,9IKLJNnaxMQ7bdnCcQgRgg,b_9IKLJNnaxMQ7bdnCcQgRgg,34.4182572,-119.6977936,"34.4182572000,-119.6977936000",Volcom Santa Barbara,Santa Barbara,CA
10910,CBbl59mN_YjOsq3Btpoktw,b_CBbl59mN_YjOsq3Btpoktw,34.420334,-119.7107494,"34.4203340000,-119.7107494000",lululemon athletica,Santa Barbara,CA
10911,FyK0sYez1ImnovyzJ_iGZw,b_FyK0sYez1ImnovyzJ_iGZw,34.4237,-119.7046937,"34.4237000000,-119.7046937000",East,Santa Barbara,CA
10912,3UhSCgqvl444e4j3l4HXyQ,b_3UhSCgqvl444e4j3l4HXyQ,34.4165908985,-119.6673613236,"34.4165908985,-119.6673613236",East Beach,Santa Barbara,CA
10913,-XjAOOYVnUIHUxxjNcpUmQ,b_-XjAOOYVnUIHUxxjNcpUmQ,34.417351,-119.696579,"34.4173510000,-119.6965790000",Yellowstone Clothing Inc,Santa Barbara,CA
10914,p2kC-cD22QAQzIGD8ZuqFA,b_p2kC-cD22QAQzIGD8ZuqFA,34.4402405999,-119.7516484945,"34.4402405999,-119.7516484945",Peet's Coffee,Santa Barbara,CA
10915,D-1BoOczhXGgwhBOR5v-nQ,b_D-1BoOczhXGgwhBOR5v-nQ,34.4228269,-119.6518629,"34.4228269000,-119.6518629000",Little Alex's,Santa Barbara,CA
10916,E7RtIisUoRMcADSebBgNAA,b_E7RtIisUoRMcADSebBgNAA,34.4136026,-119.6880758,"34.4136026000,-119.6880758000",Santa Barbara FisHouse,Santa Barbara,CA
10917,UjgqSqa4Biy34pHSEdwj_g,b_UjgqSqa4Biy34pHSEdwj_g,34.4221006,-119.7037011,"34.4221006000,-119.7037011000",Gino's Sicilian Express,Santa Barbara,CA
10918,SMqSdSAoLP06sWUJ2uXUow,b_SMqSdSAoLP06sWUJ2uXUow,34.4272219,-119.6870801,"34.4272219000,-119.6870801000",Chapala Market,Santa Barbara,CA
10919,mZ_d2i9bb3cH4_Ne0p7ldg,b_mZ_d2i9bb3cH4_Ne0p7ldg,34.4192864,-119.6999211,"34.4192864000,-119.6999211000",Walking Company,Santa Barbara,CA
10920,m8w-vLBNx_nOKgJrsJ5MUg,b_m8w-vLBNx_nOKgJrsJ5MUg,34.4180773,-119.6976238,"34.4180773000,-119.6976238000",Beads of the Earth,Santa Barbara,CA
10921,My2fwY7NOpu063bPOvE-Ig,b_My2fwY7NOpu063bPOvE-Ig,34.4191234,-119.6764799,"34.4191234000,-119.6764799000",Ramirez A C Floor Coverings,Santa Barbara,CA
10922,hJr6xw5Jn20ag2rHopI4eg,b_hJr6xw5Jn20ag2rHopI4eg,34.4018574,-119.7235037,"34.4018574000,-119.7235037000",Deano's Pizzarama,Santa Barbara,CA
10923,iT3GHSJy7gMvC16Do3NPQg,b_iT3GHSJy7gMvC16Do3NPQg,34.435311,-119.8085297,"34.4353110000,-119.8085297000",Spa Concepts Salon,Santa Barbara,CA
10924,PJvCgnr28Eppcv05LmvKng,b_PJvCgnr28Eppcv05LmvKng,34.419242,-119.700678,"34.4192420000,-119.7006780000",Sephora - Santa Barbara,Santa Barbara,CA
10925,Q8So7F6LuHCh2UGCbWkpMw,b_Q8So7F6LuHCh2UGCbWkpMw,34.4272296238,-119.7352989621,"34.4272296238,-119.7352989621",Underground Hair Artists,Santa Barbara,CA
10926,pJpNhr4Ikoz_2OHOjB8OmQ,b_pJpNhr4Ikoz_2OHOjB8OmQ,34.436864315,-119.7485216583,"34.4368643150,-119.7485216583",Massage Envy - Santa Barbara,Santa Barbara,CA
10927,I0jFTYVDs-WHwKR2XHQlRA,b_I0jFTYVDs-WHwKR2XHQlRA,34.4162591,-119.6952494,"34.4162591000,-119.6952494000",Zen Yai Thai Cuisine,Santa Barbara,CA
10928,w79qtK0PpeDWrnY7E-uTRg,b_w79qtK0PpeDWrnY7E-uTRg,34.402339,-119.721921,"34.4023390000,-119.7219210000",Taco Bell,Santa Barbara,CA
10929,bvZQLlR_TO42ogAkuE2Oog,b_bvZQLlR_TO42ogAkuE2Oog,34.4403185,-119.7636094,"34.4403185000,-119.7636094000",United Blood Services,Santa Barbara,CA
10930,PsO9LleYQJlFc_r-DJxVzg,b_PsO9LleYQJlFc_r-DJxVzg,34.429167,-119.689368,"34.4291670000,-119.6893680000",Taco Bell,Santa Barbara,CA
10931,8kp1eqQflG1bHCTXnITnqA,b_8kp1eqQflG1bHCTXnITnqA,34.4226985,-119.69886,"34.4226985000,-119.6988600000",El Presidio de Santa Bárbara State Historic Park,Santa Barbara,CA
10932,S7Cl9gYqaC9jlw32yd4_Yg,b_S7Cl9gYqaC9jlw32yd4_Yg,34.438351,-119.748331,"34.4383510000,-119.7483310000",Starbucks,Santa Barbara,CA
10933,BTV1oCzHcguAMs6JnEX3rw,b_BTV1oCzHcguAMs6JnEX3rw,34.4406917396,-119.7336849,"34.4406917396,-119.7336849000",Adobe Pet Hospital,Santa Barbara,CA
10934,1GNYUnUoTSWlz1psT-RY9w,b_1GNYUnUoTSWlz1psT-RY9w,34.4391753,-119.747802,"34.4391753000,-119.7478020000",Macy's,Santa Barbara,CA
10935,qdpdUjdkEUpzYDdce2yZng,b_qdpdUjdkEUpzYDdce2yZng,34.436708,-119.748708,"34.4367080000,-119.7487080000",Plaza Deli,Santa Barbara,CA
10936,3fPvGGLaH29WkXXcOPJ_NQ,b_3fPvGGLaH29WkXXcOPJ_NQ,34.3994073,-119.7342249,"34.3994073000,-119.7342249000",Douglas Family Preserve,Santa Barbara,CA
10937,T5serOgucL236udCsZI0jA,b_T5serOgucL236udCsZI0jA,34.4222344,-119.6521265,"34.4222344000,-119.6521265000",Xanadu Bakery,Santa Barbara,CA
10938,cNvCXy9SaWjIQNEh3bc3gQ,b_cNvCXy9SaWjIQNEh3bc3gQ,34.419983,-119.700408,"34.4199830000,-119.7004080000",Rite Aid,Santa Barbara,CA
10939,E017jKWZcpaNlNF9Gp-Fuw,b_E017jKWZcpaNlNF9Gp-Fuw,34.416801,-119.700369,"34.4168010000,-119.7003690000",St Francis Pet Clinic,Santa Barbara,CA
10940,rjeH0b1F7qj2gxxOO8vzYA,b_rjeH0b1F7qj2gxxOO8vzYA,34.4202566,-119.6921887,"34.4202566000,-119.6921887000",VCA Care Specialty and Emergency Animal Hospital,Santa Barbara,CA
10941,fLk_N8vU25DNZmbU-70gkw,b_fLk_N8vU25DNZmbU-70gkw,34.4190289,-119.699083,"34.4190289000,-119.6990830000",Chipotle Mexican Grill,Santa Barbara,CA
10942,L8Xd7I37rzXxblsmkiSGrQ,b_L8Xd7I37rzXxblsmkiSGrQ,34.4494298,-119.7600354,"34.4494298000,-119.7600354000",Foothill Pet Hospital,Santa Barbara,CA
10943,5bDjg02rlg6ODEUT-UQT-A,b_5bDjg02rlg6ODEUT-UQT-A,34.4168023,-119.6772776,"34.4168023000,-119.6772776000",Rodney's Grill,Santa Barbara,CA
10944,IoihJkcF2FcE-sHOneat-A,b_IoihJkcF2FcE-sHOneat-A,34.4229419988,-119.7030299616,"34.4229419988,-119.7030299616",Petit Valentien,Santa Barbara,CA
10945,6VVbLYay8czrjKJ4xRoTxQ,b_6VVbLYay8czrjKJ4xRoTxQ,34.4259896,-119.7026565,"34.4259896000,-119.7026565000",Judge For Yourself Cafe,Santa Barbara,CA
10946,zRWhcNF3AVuB3ti7V4t88g,b_zRWhcNF3AVuB3ti7V4t88g,34.4181245,-119.694345,"34.4181245000,-119.6943450000",EOS Lounge,Santa Barbara,CA
10947,c1oDGw0j9-Lxus_Xs7go8g,b_c1oDGw0j9-Lxus_Xs7go8g,34.441389,-119.75636,"34.4413890000,-119.7563600000",Itsuki Restaurant,Santa Barbara,CA
10948,GSOu9eugfZRtCndhMSEiNQ,b_GSOu9eugfZRtCndhMSEiNQ,34.4302486,-119.720863,"34.4302486000,-119.7208630000",Best Western Plus Santa Barbara,Santa Barbara,CA
10949,4T8uXW3UT_2m3GOaL3g2EQ,b_4T8uXW3UT_2m3GOaL3g2EQ,34.418381,-119.6978901,"34.4183810000,-119.6978901000",Gossip,Santa Barbara,CA
10950,mY0LB3JdydIYTOtLNT2EOw,b_mY0LB3JdydIYTOtLNT2EOw,34.4192995891,-119.707224,"34.4192995891,-119.7072240000",ANGL,Santa Barbara,CA
10951,BTTzmfP6FlhXSF3-zTKYMw,b_BTTzmfP6FlhXSF3-zTKYMw,34.4200739,-119.7009007,"34.4200739000,-119.7009007000",Occhiali Fine Eyewear,Santa Barbara,CA
10952,yHtS6dj20tl3ht32w6K6Qw,b_yHtS6dj20tl3ht32w6K6Qw,34.423044,-119.703208,"34.4230440000,-119.7032080000",Stateside Restaurant & Lounge,Santa Barbara,CA
10953,D_WS8rM-DVygaCKbIErZ6Q,b_D_WS8rM-DVygaCKbIErZ6Q,34.440664,-119.760507,"34.4406640000,-119.7605070000",Palapa,Santa Barbara,CA
10954,fKrmWy4GFsrgdOYhN9pyZA,b_fKrmWy4GFsrgdOYhN9pyZA,34.4248824,-119.7047448,"34.4248824000,-119.7047448000",Trattoria Vittoria,Santa Barbara,CA
10955,hLUqElKTjOzpt_ZXkWVuiA,b_hLUqElKTjOzpt_ZXkWVuiA,34.4212433,-119.6404617,"34.4212433000,-119.6404617000",Montecito Cafe,Santa Barbara,CA
10956,D2z42OxeHojKEyAYcfIIzA,b_D2z42OxeHojKEyAYcfIIzA,34.4302874,-119.7062291,"34.4302874000,-119.7062291000",Alice Keck Park Memorial Gardens,Santa Barbara,CA
10957,IRyKDIF51M0GcqS8yfPcYA,b_IRyKDIF51M0GcqS8yfPcYA,34.4022202,-119.7228003,"34.4022202000,-119.7228003000",Mesa Cafe,Santa Barbara,CA
10958,V2cQOeZwPBmjpln6_p1Ygw,b_V2cQOeZwPBmjpln6_p1Ygw,34.4100137734,-119.6855497819,"34.4100137734,-119.6855497819",Stearns Wharf,Santa Barbara,CA
10959,WC53Z0z4g1wauYe3xnhSGQ,b_WC53Z0z4g1wauYe3xnhSGQ,34.4400189,-119.7347994,"34.4400189000,-119.7347994000",7 Day Nursery,Santa Barbara,CA
10960,MJI-bNIn3QDgiGggm9Wp1w,b_MJI-bNIn3QDgiGggm9Wp1w,34.4092096,-119.6854512,"34.4092096000,-119.6854512000",Moby Dick Restaurant,Santa Barbara,CA
10961,cdxhKrl_7SK6eQruyIvP_g,b_cdxhKrl_7SK6eQruyIvP_g,34.4381815,-119.7273892,"34.4381815000,-119.7273892000",Amy's Skin Care,Santa Barbara,CA
10962,xVtO6a4dqKQQzMXkSPL80A,b_xVtO6a4dqKQQzMXkSPL80A,34.4264694,-119.7032393,"34.4264694000,-119.7032393000",Presidio Market,Santa Barbara,CA
10963,rAXWzx3dh8R4goiSwA1-Kg,b_rAXWzx3dh8R4goiSwA1-Kg,34.4183842396,-119.6973944877,"34.4183842396,-119.6973944877",Urban Outfitters,Santa Barbara,CA
10964,kGoENYHMmggpyvt4WhLvyg,b_kGoENYHMmggpyvt4WhLvyg,34.437269,-119.7483044,"34.4372690000,-119.7483044000",About Faces Skincare,Santa Barbara,CA
10965,qmOn3S_BzihpLP2aMG9QSg,b_qmOn3S_BzihpLP2aMG9QSg,34.4177392,-119.6963161,"34.4177392000,-119.6963161000",Old Kings Road,Santa Barbara,CA
10966,kfK0iQyhLIN3gOIzbLYwFw,b_kfK0iQyhLIN3gOIzbLYwFw,34.4195175,-119.6990704,"34.4195175000,-119.6990704000",Ruby's Cafe Santa Barbara,Santa Barbara,CA
10967,Nh2SVI9NCAS6STOKTrKLzQ,b_Nh2SVI9NCAS6STOKTrKLzQ,34.4356727,-119.7256143,"34.4356727000,-119.7256143000",De La Vina Lounge,Santa Barbara,CA
10968,zE93moUe9HRKdHjZsAQY4Q,b_zE93moUe9HRKdHjZsAQY4Q,34.4405679,-119.7284846,"34.4405679000,-119.7284846000",Best Nails,Santa Barbara,CA
10969,Ch6O9z9_hHDACROLTr2JUQ,b_Ch6O9z9_hHDACROLTr2JUQ,34.440266,-119.7707687,"34.4402660000,-119.7707687000",European Deli Market,Santa Barbara,CA
10970,flpTF_tLvH8PGXZ7cHwyHg,b_flpTF_tLvH8PGXZ7cHwyHg,34.4258797,-119.6866942,"34.4258797000,-119.6866942000",The Engine Company,Santa Barbara,CA
10971,qaW-xH2tjfG0bUisSSdfAA,b_qaW-xH2tjfG0bUisSSdfAA,34.4111834,-119.6908593,"34.4111834000,-119.6908593000",Ala Mar Motel,Santa Barbara,CA
10972,VAIOtbsxdNmuhUKkQZFRlA,b_VAIOtbsxdNmuhUKkQZFRlA,34.4394292,-119.7358901,"34.4394292000,-119.7358901000",Renaud's Patisserie & Bistro,Santa Barbara,CA
10973,bd0ew6pTvlP4f5KRfWK5jw,b_bd0ew6pTvlP4f5KRfWK5jw,34.418095,-119.6963804,"34.4180950000,-119.6963804000",Square One,Santa Barbara,CA
10974,GR9fdito21ebH62tG8o_Yg,b_GR9fdito21ebH62tG8o_Yg,34.4184785,-119.7160311,"34.4184785000,-119.7160311000",Palmieri's Cocktail Lounge,Santa Barbara,CA
10975,TUtf4FLtotdQDleYpRIfnw,b_TUtf4FLtotdQDleYpRIfnw,34.418802,-119.700585,"34.4188020000,-119.7005850000",California Pizza Kitchen at Santa Barbara,Santa Barbara,CA
10976,96g0BNIjSAequK5UjTqV9w,b_96g0BNIjSAequK5UjTqV9w,34.4164521,-119.694217,"34.4164521000,-119.6942170000",Staples,Santa Barbara,CA
10977,sCkN50fE_Pe9gwSnwVwiJA,b_sCkN50fE_Pe9gwSnwVwiJA,34.4225598724,-119.7051371553,"34.4225598724,-119.7051371553",The UPS Store,Santa Barbara,CA
10978,nJp-4Qb_eeXWnojBcM3hBQ,b_nJp-4Qb_eeXWnojBcM3hBQ,34.4180701,-119.6709256,"34.4180701000,-119.6709256000",Motel 6 Santa Barbara - Beach,Santa Barbara,CA
10979,C4uaJyg6FumMbX7YQWpYrQ,b_C4uaJyg6FumMbX7YQWpYrQ,34.4628230599,-119.7302440642,"34.4628230599,-119.7302440642",Rocky Nook Park,Santa Barbara,CA
10980,Gl3XO4ECKKli8-bKKdkkYA,b_Gl3XO4ECKKli8-bKKdkkYA,34.4265851783,-119.6860595043,"34.4265851783,-119.6860595043",KFC,Santa Barbara,CA
10981,1kVnChI4aqsPw9i2PVqkkw,b_1kVnChI4aqsPw9i2PVqkkw,34.4394181202,-119.7514181468,"34.4394181202,-119.7514181468",Fresco Cafe,Santa Barbara,CA
10982,WBS6KscGu5u0dzc-U86pQg,b_WBS6KscGu5u0dzc-U86pQg,34.438347,-119.8139335,"34.4383470000,-119.8139335000",DAWG - Dog Adoption and Welfare Group,Santa Barbara,CA
10983,e_LmE84zjkowFcQUd4sdfw,b_e_LmE84zjkowFcQUd4sdfw,34.4403957,-119.7451305,"34.4403957000,-119.7451305000",Downtown Brewing Co,Santa Barbara,CA
10984,jZncFsMQdrq268OHq_Q6uw,b_jZncFsMQdrq268OHq_Q6uw,34.402527,-119.724409,"34.4025270000,-119.7244090000",Super Cuca's Taqueria,Santa Barbara,CA
10985,7uYocWT3HDthh16x4p2-ag,b_7uYocWT3HDthh16x4p2-ag,34.4144419,-119.6943806,"34.4144419000,-119.6943806000",Crimson Day Spa,Santa Barbara,CA
10986,j_MFw1jIyDU_Nt-J4wKCHA,b_j_MFw1jIyDU_Nt-J4wKCHA,34.4101551,-119.6935351,"34.4101551000,-119.6935351000",Harbor House Inn,Santa Barbara,CA
10987,7ksGJFAvz6UJa_QrcK8ZEg,b_7ksGJFAvz6UJa_QrcK8ZEg,34.4174724,-119.6967175,"34.4174724000,-119.6967175000",Hotel Santa Barbara,Santa Barbara,CA
10988,B_q2xoAgTyn6U4YNEc3kSw,b_B_q2xoAgTyn6U4YNEc3kSw,34.422519,-119.7057271,"34.4225190000,-119.7057271000",China Pavilion,Santa Barbara,CA
10989,bkYLkzoMB-FeK7v-A5KROg,b_bkYLkzoMB-FeK7v-A5KROg,34.4093803,-119.6853711,"34.4093803000,-119.6853711000",Santa Barbara Museum of Natural History Sea Center,Santa Barbara,CA
10990,Hlx8S2GLF7hMuIKx4sU-gg,b_Hlx8S2GLF7hMuIKx4sU-gg,34.4285995,-119.6882227,"34.4285995000,-119.6882227000",Cesar's Place,Santa Barbara,CA
10991,QfXEdQpBojorGinfCnrKTA,b_QfXEdQpBojorGinfCnrKTA,34.4273816,-119.687148,"34.4273816000,-119.6871480000",Subway,Santa Barbara,CA
10992,W7gSJz80DywKnPRIGjA2Bw,b_W7gSJz80DywKnPRIGjA2Bw,34.428957,-119.7169716,"34.4289570000,-119.7169716000",Derf's Cafe,Santa Barbara,CA
10993,gjCxTVItFxk46rCZ-YaiFA,b_gjCxTVItFxk46rCZ-YaiFA,34.425067369,-119.7091551212,"34.4250673690,-119.7091551212",South Coast Deli- Chapala,Santa Barbara,CA
10994,d3oWR40qS6CCTFXce3yQqw,b_d3oWR40qS6CCTFXce3yQqw,34.424414,-119.8362002,"34.4244140000,-119.8362002000",Hertz Rent A Car,Santa Barbara,CA
10995,lXgITG2Ji6mhAPOmw4TRng,b_lXgITG2Ji6mhAPOmw4TRng,34.4176161693,-119.6994226761,"34.4176161693,-119.6994226761",Romanti-Ezer,Santa Barbara,CA
10996,XHxAIQR-QAz6j1RMaz_J1A,b_XHxAIQR-QAz6j1RMaz_J1A,34.4405277,-119.7290589,"34.4405277000,-119.7290589000",Giovanni's of Santa Barbara,Santa Barbara,CA
10997,a1E2BPYnufFzb6YX2pplJg,b_a1E2BPYnufFzb6YX2pplJg,34.416913,-119.6961686,"34.4169130000,-119.6961686000",Wahoo's Fish Tacos,Santa Barbara,CA
10998,wfjqxgLSsLtyzswzQBziSw,b_wfjqxgLSsLtyzswzQBziSw,34.4226944,-119.6979774,"34.4226944000,-119.6979774000",Panino,Santa Barbara,CA
10999,3lty2YUwjp61iUqNgKVEMw,b_3lty2YUwjp61iUqNgKVEMw,34.4384628659,-119.7483475497,"34.4384628659,-119.7483475497",Marmalade Cafe,Santa Barbara,CA
11000,oQl9X8cK3BxpLl6hN4u-xA,b_oQl9X8cK3BxpLl6hN4u-xA,34.4193910999,-119.7038278354,"34.4193910999,-119.7038278354",Jiffy Lube,Santa Barbara,CA
11001,9dp3hVDlQ0VtjPW_7ISoXg,b_9dp3hVDlQ0VtjPW_7ISoXg,34.4042863854,-119.6936833275,"34.4042863854,-119.6936833275",Chuck's Waterfront Grill,Santa Barbara,CA
11002,xPwwiAa5YgA0blH_DuBkdw,b_xPwwiAa5YgA0blH_DuBkdw,34.4196292,-119.7000654,"34.4196292000,-119.7000654000",The Cheese Shop,Santa Barbara,CA
11003,ifjluUv4VASwmFqEp8cWlQ,b_ifjluUv4VASwmFqEp8cWlQ,34.4362361,-119.7261474,"34.4362361000,-119.7261474000",Marty's Pizza,Santa Barbara,CA
11004,tGQytMbOXDdZS_OSK9hkBw,b_tGQytMbOXDdZS_OSK9hkBw,34.4234023,-119.7091656,"34.4234023000,-119.7091656000",Louie's California Bistro,Santa Barbara,CA
11005,_TEWOkqBWDtNigjujuPQfw,b__TEWOkqBWDtNigjujuPQfw,34.440822,-119.7374914,"34.4408220000,-119.7374914000",7-Eleven,Santa Barbara,CA
11006,qyXcWGL5-bU_uV2VKxqzTw,b_qyXcWGL5-bU_uV2VKxqzTw,34.4191467,-119.6759499,"34.4191467000,-119.6759499000",The Habit,Santa Barbara,CA
11007,PY7gfceCvj-e-dYJWIrmvA,b_PY7gfceCvj-e-dYJWIrmvA,34.440058,-119.7364633,"34.4400580000,-119.7364633000",US Post Office,Santa Barbara,CA
11008,UuRZpgZsHX7PyykHV3wbZg,b_UuRZpgZsHX7PyykHV3wbZg,34.4257198484,-119.7052413177,"34.4257198484,-119.7052413177",Crushcakes & Cafe,Santa Barbara,CA
11009,zxW8zECvT_SqejieMMjb5A,b_zxW8zECvT_SqejieMMjb5A,34.4167916,-119.6958944,"34.4167916000,-119.6958944000",Chilango's Mexican Restaurant,Santa Barbara,CA
11010,KTlABGqop4Q7FzD7lSkHJQ,b_KTlABGqop4Q7FzD7lSkHJQ,34.4112256,-119.6972939,"34.4112256000,-119.6972939000",Santa Cruz Markets,Santa Barbara,CA
11011,ALMuGwPnbAVc4SIbcmQmcA,b_ALMuGwPnbAVc4SIbcmQmcA,34.4149049,-119.6902891,"34.4149049000,-119.6902891000",Santa Barbara Bay Cafe,Santa Barbara,CA
11012,8JzURExziDYuCrd7Ve9nDQ,b_8JzURExziDYuCrd7Ve9nDQ,34.4202813,-119.6915269,"34.4202813000,-119.6915269000",Los Tarascos Bakery and Deli,Santa Barbara,CA
11013,3-boHajTIv_mXnd6_yLoRQ,b_3-boHajTIv_mXnd6_yLoRQ,34.4203946,-119.6432795,"34.4203946000,-119.6432795000",Skin Prophecy,Santa Barbara,CA
11014,U1lGcthY52-LUPdxhV3qVw,b_U1lGcthY52-LUPdxhV3qVw,34.418421,-119.716,"34.4184210000,-119.7160000000",Paesano's Pizzeria,Santa Barbara,CA
11015,AYSZCdB7oUiKMaOy0yud6g,b_AYSZCdB7oUiKMaOy0yud6g,34.4224262,-119.7036728,"34.4224262000,-119.7036728000",So Good Jewelry,Santa Barbara,CA
11016,IUgQmteI-mbt_qjL2ZENKA,b_IUgQmteI-mbt_qjL2ZENKA,34.423515,-119.706222,"34.4235150000,-119.7062220000",Epiphany Restaurant,Santa Barbara,CA
11017,KU4zXPo6v8c3N_l14wivQA,b_KU4zXPo6v8c3N_l14wivQA,34.440625,-119.7323971,"34.4406250000,-119.7323971000",Jade Restaurant,Santa Barbara,CA
11018,R6NxHoRRK5Y4ishGsLrGwA,b_R6NxHoRRK5Y4ishGsLrGwA,34.4191654,-119.6983385,"34.4191654000,-119.6983385000",Restaurant Mimosa,Santa Barbara,CA
11019,ZyplC1MYtyPS3dxuBTLziA,b_ZyplC1MYtyPS3dxuBTLziA,34.4400656,-119.74073,"34.4400656000,-119.7407300000",Baskin Robbins,Santa Barbara,CA
11020,shABaXkhIW1Xg7Uoo4Hj9w,b_shABaXkhIW1Xg7Uoo4Hj9w,34.4380207,-119.632479,"34.4380207000,-119.6324790000",Lost Horizon Bookstore,Santa Barbara,CA
11021,F2IhoE1C4w7-zhusHoMiTg,b_F2IhoE1C4w7-zhusHoMiTg,34.437816,-119.791453,"34.4378160000,-119.7914530000",Craft Essentials,Santa Barbara,CA
11022,98H6lNXssLWlPbwwqmDq6w,b_98H6lNXssLWlPbwwqmDq6w,34.4017150975,-119.7217631331,"34.4017150975,-119.7217631331",The Mesa Bookstore,Santa Barbara,CA
11023,jMAQupx06hHjie54wV2yNQ,b_jMAQupx06hHjie54wV2yNQ,34.4393251,-119.7475316,"34.4393251000,-119.7475316000",Ruth's Chris Steak House,Santa Barbara,CA
11024,jZAU0OShjmcxIhkruFlZng,b_jZAU0OShjmcxIhkruFlZng,34.420334,-119.7107494,"34.4203340000,-119.7107494000",Coast Restaurant & Bar,Santa Barbara,CA
11025,PTGq3QNcnOfcddz35Wq5HQ,b_PTGq3QNcnOfcddz35Wq5HQ,34.4252399,-119.7007966,"34.4252399000,-119.7007966000",Santa Barbara Police Department,Santa Barbara,CA
11026,-Fka99c-tJ-epWYNIobqyQ,b_-Fka99c-tJ-epWYNIobqyQ,34.4208305,-119.6981901,"34.4208305000,-119.6981901000",Pizza Mizza,Santa Barbara,CA
11027,PGNeL8cGPuDwUcem7og51Q,b_PGNeL8cGPuDwUcem7og51Q,34.4165236,-119.6958554,"34.4165236000,-119.6958554000",Fig & Haley,Santa Barbara,CA
11028,jh40gx3wcYX0NL_i2Dip-A,b_jh40gx3wcYX0NL_i2Dip-A,34.4302529,-119.6903156,"34.4302529000,-119.6903156000",Sal's Pizza,Santa Barbara,CA
11029,6JFTijOMHB46yBoyVOjPCA,b_6JFTijOMHB46yBoyVOjPCA,34.4242013,-119.7023282,"34.4242013000,-119.7023282000",Santa Barbara County Courthouse,Santa Barbara,CA
11030,FH0MVF7kK0D76Hh4e7hXfQ,b_FH0MVF7kK0D76Hh4e7hXfQ,34.4401942,-119.7408847,"34.4401942000,-119.7408847000",Jeannine's American Bakery Restaurant,Santa Barbara,CA
11031,CkENBnSJFfPA1hY0qrqfCg,b_CkENBnSJFfPA1hY0qrqfCg,34.42505409,-119.7065041501,"34.4250540900,-119.7065041501",Carlitos Cafe Y Cantina,Santa Barbara,CA
11032,bDCpBpB_qWllhop4BI11Bg,b_bDCpBpB_qWllhop4BI11Bg,34.4132738417,-119.8456048965,"34.4132738417,-119.8456048965",UCSB Library,Santa Barbara,CA
11033,cmm6BmxVPcwcAOC9gQxT0g,b_cmm6BmxVPcwcAOC9gQxT0g,34.4141772,-119.6918671,"34.4141772000,-119.6918671000",Giessinger Winery By the Sea,Santa Barbara,CA
11034,wWbfjQJ_y4m68pwPAUmCqw,b_wWbfjQJ_y4m68pwPAUmCqw,34.4141966,-119.6918921,"34.4141966000,-119.6918921000",Kalyra Winery,Santa Barbara,CA
11035,-6jvfSJGprbfBD2QrS9zQw,b_-6jvfSJGprbfBD2QrS9zQw,34.4025384,-119.724894,"34.4025384000,-119.7248940000",Mesa Produce,Santa Barbara,CA
11036,bNSiPOsJ299IVT97u7TeUQ,b_bNSiPOsJ299IVT97u7TeUQ,34.4213227,-119.7070663,"34.4213227000,-119.7070663000",Nina Lafuente Waxing,Santa Barbara,CA
11037,nlyoZfp2bvvSOTkvNqY6mA,b_nlyoZfp2bvvSOTkvNqY6mA,34.417355,-119.698127,"34.4173550000,-119.6981270000",Samy's Camera,Santa Barbara,CA
11038,EWl5aixg4hCcuVYpz4BLKQ,b_EWl5aixg4hCcuVYpz4BLKQ,34.417139,-119.6758097,"34.4171390000,-119.6758097000",Cafe Los Arcos,Santa Barbara,CA
11039,MfyUK58sdUokMdIZNdem0w,b_MfyUK58sdUokMdIZNdem0w,34.439351,-119.739423,"34.4393510000,-119.7394230000",Sandpiper Lodge,Santa Barbara,CA
11040,Iy-wu0TDX50r2DlgbOwAJw,b_Iy-wu0TDX50r2DlgbOwAJw,34.421214,-119.700666,"34.4212140000,-119.7006660000",Metropolitan Fiesta 5 Theatre,Santa Barbara,CA
11041,ewFBNKZUvPOaMaeWwWfwyA,b_ewFBNKZUvPOaMaeWwWfwyA,34.4192864,-119.6999211,"34.4192864000,-119.6999211000",Miss Behavin,Santa Barbara,CA
11042,z8NOn166vA5SB1YOXtdEeA,b_z8NOn166vA5SB1YOXtdEeA,34.4200644,-119.7009539,"34.4200644000,-119.7009539000",Studio S Salon & Spa,Santa Barbara,CA
11043,7v0y0ugH4r0lLp7z4Z6bsg,b_7v0y0ugH4r0lLp7z4Z6bsg,34.4405065,-119.7433042,"34.4405065000,-119.7433042000",The Sandman Inn,Santa Barbara,CA
11044,B5XSoSG3SfvQGtKEGQ1tSQ,b_B5XSoSG3SfvQGtKEGQ1tSQ,34.597239,-119.510772,"34.5972390000,-119.5107720000",Los Padres National Forest,Santa Barbara,CA
11045,lqwbnNd_SXzkIK_pkU2FkA,b_lqwbnNd_SXzkIK_pkU2FkA,34.4180658,-119.7029526,"34.4180658000,-119.7029526000",D'Vine,Santa Barbara,CA
11046,aOcTUvH7Vh6v0jPeVPieUA,b_aOcTUvH7Vh6v0jPeVPieUA,34.4128895,-119.6898255,"34.4128895000,-119.6898255000",Wheel Fun Rentals,Santa Barbara,CA
11047,k3lTRgvPvYUI-cX7_TAqNA,b_k3lTRgvPvYUI-cX7_TAqNA,34.427284,-119.704006,"34.4272840000,-119.7040060000",University Club of Santa Barbara,Santa Barbara,CA
11048,Yea6reis5dgRnI4TwBoEmQ,b_Yea6reis5dgRnI4TwBoEmQ,34.4180509,-119.6961803,"34.4180509000,-119.6961803000",A Tropical Affair Lingerie & Bikinis,Santa Barbara,CA
11049,rS0BLb6nI2BfBelOlcEEYA,b_rS0BLb6nI2BfBelOlcEEYA,34.43193,-119.7024394,"34.4319300000,-119.7024394000","Stuart R Winthrop, MD",Santa Barbara,CA
11050,D1OT9vuepvXJrn5VDgm4YA,b_D1OT9vuepvXJrn5VDgm4YA,34.419744,-119.695264,"34.4197440000,-119.6952640000",Santa Barbara Certified Farmers Market,Santa Barbara,CA
11051,tDLbqqAIzuNcU6WSFTzRww,b_tDLbqqAIzuNcU6WSFTzRww,34.4203414,-119.6422423,"34.4203414000,-119.6422423000",Montecito Dental Group,Santa Barbara,CA
11052,eFn-8QlFGdkT_B-bWigtFQ,b_eFn-8QlFGdkT_B-bWigtFQ,34.4215541,-119.6901188,"34.4215541000,-119.6901188000",Rose Cafe,Santa Barbara,CA
11053,sRopdCT6Hf0mwaAHJek7Fw,b_sRopdCT6Hf0mwaAHJek7Fw,34.4406191,-119.7288749,"34.4406191000,-119.7288749000",San Roque Market & Liquors,Santa Barbara,CA
11054,OJ9DJLWvQV0h-ZU07QEKag,b_OJ9DJLWvQV0h-ZU07QEKag,34.4241109,-119.7050551,"34.4241109000,-119.7050551000",Gelato n More,Santa Barbara,CA
11055,boTwyOpii_MfFwwo6gPp6w,b_boTwyOpii_MfFwwo6gPp6w,34.4183674,-119.6970762,"34.4183674000,-119.6970762000",Metropolitan Metro 4 Theatre,Santa Barbara,CA
11056,zNlJxBcmLPooXY9N2iH_6w,b_zNlJxBcmLPooXY9N2iH_6w,34.4028358,-119.7432398,"34.4028358000,-119.7432398000",Arroyo Burro Beach,Santa Barbara,CA
11057,dGVsh3S39RlPj_MfBZklZQ,b_dGVsh3S39RlPj_MfBZklZQ,34.4114541722,-119.735932001,"34.4114541722,-119.7359320010",Elings Park,Santa Barbara,CA
11058,uBvHmZ7BMT8JW5kxgimPWg,b_uBvHmZ7BMT8JW5kxgimPWg,34.4154082,-119.6905539,"34.4154082000,-119.6905539000",Santa Barbara Winery,Santa Barbara,CA
11059,KBDM9Pab3F8_tzoUWvDBrQ,b_KBDM9Pab3F8_tzoUWvDBrQ,34.4398445,-119.7358761,"34.4398445000,-119.7358761000",Norvell Bass Cleaners,Santa Barbara,CA
11060,MKhO59xI_isYS9HKndqjSA,b_MKhO59xI_isYS9HKndqjSA,34.423923,-119.7134154,"34.4239230000,-119.7134154000",Maharani Ayurveda,Santa Barbara,CA
11061,BvGL0uHI5laa5hKIsnPbNQ,b_BvGL0uHI5laa5hKIsnPbNQ,34.4182352,-119.6699629,"34.4182352000,-119.6699629000",Inn At East Beach,Santa Barbara,CA
11062,Zqc8nrT3Z1IbQBckFuU3Fw,b_Zqc8nrT3Z1IbQBckFuU3Fw,34.419192,-119.698318,"34.4191920000,-119.6983180000",Matador Tapas Bar & Latin Steakhouse,Santa Barbara,CA
11063,BcNK_inbhR6nNKnBoWNplg,b_BcNK_inbhR6nNKnBoWNplg,34.4258677,-119.7081071,"34.4258677000,-119.7081071000",Nail Palace,Santa Barbara,CA
11064,kB4Uz9F9w7QkmNwjzQhPAw,b_kB4Uz9F9w7QkmNwjzQhPAw,34.4228101,-119.6865239,"34.4228101000,-119.6865239000",Der Volks Werks,Santa Barbara,CA
11065,Ss6f5v_t5Vddiaz4ZOxL0g,b_Ss6f5v_t5Vddiaz4ZOxL0g,34.422719,-119.703303,"34.4227190000,-119.7033030000",Andersen's Danish Bakery & Restaurant,Santa Barbara,CA
11066,8rbSkMvS46I5wgVP8UVnvg,b_8rbSkMvS46I5wgVP8UVnvg,34.4186596,-119.7001475,"34.4186596000,-119.7001475000",Step-N-Out Instant Shoe Repair,Santa Barbara,CA
11067,ANMHEMoZqxjn7qjaNmYIrg,b_ANMHEMoZqxjn7qjaNmYIrg,34.4024779,-119.7236762,"34.4024779000,-119.7236762000",Albertsons,Santa Barbara,CA
11068,cQFaUkvUyILSCd3vqhgJMg,b_cQFaUkvUyILSCd3vqhgJMg,34.404272,-119.693761,"34.4042720000,-119.6937610000",Santa Barbara Maritime Museum,Santa Barbara,CA
11069,AFOxzMQ9gjxeaIeCJdlV6g,b_AFOxzMQ9gjxeaIeCJdlV6g,34.4185623,-119.6931305,"34.4185623000,-119.6931305000",Big O Tires,Santa Barbara,CA
11070,s-iUpeKVCuPd5m4OJ3HixQ,b_s-iUpeKVCuPd5m4OJ3HixQ,34.4164204,-119.6955745,"34.4164204000,-119.6955745000",Whiskey Richards,Santa Barbara,CA
11071,x6ByESFVanIYcomQsXQYGw,b_x6ByESFVanIYcomQsXQYGw,34.4179736,-119.6984966,"34.4179736000,-119.6984966000",19 Blue Salon,Santa Barbara,CA
11072,8MQNb0Cnkfq-G1OIViukjQ,b_8MQNb0Cnkfq-G1OIViukjQ,34.4194068,-119.6968234,"34.4194068000,-119.6968234000",Seagrass Restaurant,Santa Barbara,CA
11073,akRx4OpfXtXu3yNd-Zzehw,b_akRx4OpfXtXu3yNd-Zzehw,34.425361,-119.706236,"34.4253610000,-119.7062360000",Treat,Santa Barbara,CA
11074,7V_I4YRGEXZVSGrw3jDbDA,b_7V_I4YRGEXZVSGrw3jDbDA,34.4645358577,-119.7122627201,"34.4645358577,-119.7122627201",Inspiration Point,Santa Barbara,CA
11075,VEbHYioBfoPiIOWntE_DBA,b_VEbHYioBfoPiIOWntE_DBA,34.422317,-119.7036672,"34.4223170000,-119.7036672000",Tienda Ho,Santa Barbara,CA
11076,Gz3vi3dVKMylBb8HV1tP8Q,b_Gz3vi3dVKMylBb8HV1tP8Q,34.4219674,-119.6501878,"34.4219674000,-119.6501878000",Blenders In the Grass,Santa Barbara,CA
11077,hYlAyz4RM1kE7ErPhPQ2xw,b_hYlAyz4RM1kE7ErPhPQ2xw,34.546835,-119.875622,"34.5468350000,-119.8756220000",Rancho San Marcos Golf Course,Santa Barbara,CA
11078,iBTc6XKgW5HESEZIii-G4g,b_iBTc6XKgW5HESEZIii-G4g,34.4225755,-119.6875599,"34.4225755000,-119.6875599000",Carr Winery,Santa Barbara,CA
11079,V_-Z5oVPM37sycnxpWHHsA,b_V_-Z5oVPM37sycnxpWHHsA,34.4346563,-119.7460824,"34.4346563000,-119.7460824000",Metropolitan Plaza de Oro,Santa Barbara,CA
11080,sor6oj-nuslOcSx7di4urA,b_sor6oj-nuslOcSx7di4urA,34.4037491,-119.6935611,"34.4037491000,-119.6935611000",Santa Barbara Fish Market,Santa Barbara,CA
11081,TzNk1TcWLZn0JCpO83hBAA,b_TzNk1TcWLZn0JCpO83hBAA,34.4225035,-119.6580896,"34.4225035000,-119.6580896000",Stella Mare's,Santa Barbara,CA
11082,GtrY5U_M1ac3bYCk0DUeIg,b_GtrY5U_M1ac3bYCk0DUeIg,34.4221614,-119.698622,"34.4221614000,-119.6986220000",Three Pickles Subs and Sandwiches,Santa Barbara,CA
11083,kzpOb196bUlnr9ncGFjfew,b_kzpOb196bUlnr9ncGFjfew,34.4192333,-119.6920134,"34.4192333000,-119.6920134000",Officemax,Santa Barbara,CA
11084,oS02owt-XB2RtDbogYyn-A,b_oS02owt-XB2RtDbogYyn-A,34.4401036,-119.7293429,"34.4401036000,-119.7293429000",The Coffee Bean & Tea Leaf,Santa Barbara,CA
11085,B3kpvT4oLJdQmU9lPnxdKA,b_B3kpvT4oLJdQmU9lPnxdKA,34.4121908,-119.6896118,"34.4121908000,-119.6896118000",Eladio's Restaurant,Santa Barbara,CA
11086,aFhPwy7OhyKah4cJY2QdEQ,b_aFhPwy7OhyKah4cJY2QdEQ,34.446845,-119.623092,"34.4468450000,-119.6230920000",Stonehouse Restaurant,Santa Barbara,CA
11087,2h3SEwpI6fiuTF9mcN1S_Q,b_2h3SEwpI6fiuTF9mcN1S_Q,34.4185582,-119.7161005,"34.4185582000,-119.7161005000",El Zarape,Santa Barbara,CA
11088,68hzATbPYhATdzuNeqW4aw,b_68hzATbPYhATdzuNeqW4aw,34.439221,-119.749126,"34.4392210000,-119.7491260000",The Winehound,Santa Barbara,CA
11089,PvCCwun_1sD5Vg6GDguw3g,b_PvCCwun_1sD5Vg6GDguw3g,34.4400042808,-119.7299682884,"34.4400042808,-119.7299682884",Quality Inn Santa Barbara,Santa Barbara,CA
11090,kN1Z5QTAPqDgi-GG1sqacA,b_kN1Z5QTAPqDgi-GG1sqacA,34.4143026,-119.6871537,"34.4143026000,-119.6871537000",Santa Barbara Trolley,Santa Barbara,CA
11091,elnmOdMKGQvAF9FoVXg6Eg,b_elnmOdMKGQvAF9FoVXg6Eg,34.4136345,-119.6894577,"34.4136345000,-119.6894577000",Wheel Fun Rentals - 24 E Mason St,Santa Barbara,CA
11092,lOa1BVmTcbPpu05h3OPAQA,b_lOa1BVmTcbPpu05h3OPAQA,34.4174898,-119.6728782,"34.4174898000,-119.6728782000",Blue Sands  Motel,Santa Barbara,CA
11093,hiACqS2wK4OL-add300V5Q,b_hiACqS2wK4OL-add300V5Q,34.4257847,-119.7107155,"34.4257847000,-119.7107155000","Kunz John David, MD",Santa Barbara,CA
11094,hAZVddSvvODaa_3KnWBnPg,b_hAZVddSvvODaa_3KnWBnPg,34.4393677,-119.7286812,"34.4393677000,-119.7286812000",Creative Nails,Santa Barbara,CA
11095,dsmp50IKQufbf1CaKl9iRw,b_dsmp50IKQufbf1CaKl9iRw,34.4407092669,-119.7519481,"34.4407092669,-119.7519481000",La Cumbre Animal Hospital,Santa Barbara,CA
11096,VUPpj-CsDJY4cIGQLqJ_xw,b_VUPpj-CsDJY4cIGQLqJ_xw,34.418894,-119.699594,"34.4188940000,-119.6995940000",Ben And Jerry's,Santa Barbara,CA
11097,od_MWVpghkvSsl1HKasM9A,b_od_MWVpghkvSsl1HKasM9A,34.4386437791,-119.751798573,"34.4386437791,-119.7517985730",Blenders In the Grass,Santa Barbara,CA
11098,qajTEzYjNZJ1OLpNb8xtFg,b_qajTEzYjNZJ1OLpNb8xtFg,34.4307337,-119.7154364,"34.4307337000,-119.7154364000","Dennis B Dierenfield, DDS",Santa Barbara,CA
11099,kcSgJiaI6rvwSt9okjX8sQ,b_kcSgJiaI6rvwSt9okjX8sQ,34.4083134126,-119.6914691,"34.4083134126,-119.6914691000",SEA Landing,Santa Barbara,CA
11100,FlmRcGv-PrBuRlnv20p_lw,b_FlmRcGv-PrBuRlnv20p_lw,34.4199256,-119.6758383,"34.4199256000,-119.6758383000",Tina's Salon,Santa Barbara,CA
11101,rpekzyLlfjr6eyxty6Efhg,b_rpekzyLlfjr6eyxty6Efhg,34.4189482,-119.6999449,"34.4189482000,-119.6999449000",Aveda Store,Santa Barbara,CA
11102,R-jbPtxfK7PhdjrXFLwTCQ,b_R-jbPtxfK7PhdjrXFLwTCQ,34.42,-119.7,"34.4200000000,-119.7000000000",Summer Solstice Celebration,Santa Barbara,CA
11103,tnoUVvJZRPcawXl2gTlWpQ,b_tnoUVvJZRPcawXl2gTlWpQ,34.4241946,-119.6835904,"34.4241946000,-119.6835904000",Jaffurs Wine Cellars,Santa Barbara,CA
11104,QcMPEiTXY2wS5dKZdzIW0w,b_QcMPEiTXY2wS5dKZdzIW0w,34.4174659791,-119.681281756,"34.4174659791,-119.6812817560",Whitcraft Winery,Santa Barbara,CA
11105,mHmIoIGOfpidrS1fYQ9PbQ,b_mHmIoIGOfpidrS1fYQ9PbQ,34.412192,-119.689592,"34.4121920000,-119.6895920000",State Street Coffee,Santa Barbara,CA
11106,CF4naMaOwi870USAkNG2AQ,b_CF4naMaOwi870USAkNG2AQ,34.447650584,-119.7795856122,"34.4476505840,-119.7795856122",Integrity Appliance Repair,Santa Barbara,CA
11107,-ALqLSTzkGDMscHdxA1NgA,b_-ALqLSTzkGDMscHdxA1NgA,34.418221,-119.7157951,"34.4182210000,-119.7157951000",Su Casa Fresh Mexican Grill,Santa Barbara,CA
11108,lkLTSknBEvbLGwwc1lQRlQ,b_lkLTSknBEvbLGwwc1lQRlQ,34.4097466436,-119.6982209283,"34.4097466436,-119.6982209283",Inn by the Harbor,Santa Barbara,CA
11109,P3zq1bsGCZm3qp4yLkqHnA,b_P3zq1bsGCZm3qp4yLkqHnA,34.4020501247,-119.6988984091,"34.4020501247,-119.6988984091",Leadbetter Beach,Santa Barbara,CA
11110,PRbGgG9So6TZaaKcQbybqg,b_PRbGgG9So6TZaaKcQbybqg,34.44006,-119.737794,"34.4400600000,-119.7377940000",MacMechanic,Santa Barbara,CA
11111,jDkuSoW_3i1k0EwXAGwUaw,b_jDkuSoW_3i1k0EwXAGwUaw,34.42677,-119.6862896,"34.4267700000,-119.6862896000",Classic Barber Shop,Santa Barbara,CA
11112,8CrbW0uO-wkIs8CLORE-yw,b_8CrbW0uO-wkIs8CLORE-yw,34.4203917,-119.6998021,"34.4203917000,-119.6998021000",24 Hour Fitness - Santa Barbara,Santa Barbara,CA
11113,YiacEsqs00x-Gsa4t9_DDA,b_YiacEsqs00x-Gsa4t9_DDA,34.42,-119.7,"34.4200000000,-119.7000000000",Romina Murillo Makeup Artistry,Santa Barbara,CA
11114,Xh0qPuyGJkb7zqmOJNI5pQ,b_Xh0qPuyGJkb7zqmOJNI5pQ,34.423473,-119.703926,"34.4234730000,-119.7039260000",Santa Barbara Museum of Art,Santa Barbara,CA
11115,qQmdJFMWoDe2T2lbacBE8g,b_qQmdJFMWoDe2T2lbacBE8g,34.4408758,-119.7486002,"34.4408758000,-119.7486002000",Best Western Plus Pepper Tree Inn,Santa Barbara,CA
11116,Ey0t4U6yqtxCeMaGPf7GcA,b_Ey0t4U6yqtxCeMaGPf7GcA,34.440696,-119.732304,"34.4406960000,-119.7323040000",Brummis - the German Taste,Santa Barbara,CA
11117,yj6eNCkKpt_x2ixKqTWd6g,b_yj6eNCkKpt_x2ixKqTWd6g,34.4193654,-119.7025836,"34.4193654000,-119.7025836000",Santa Barbara Car Wash & Detail Center,Santa Barbara,CA
11118,E964sbwO5A8c348vZchBtA,b_E964sbwO5A8c348vZchBtA,34.41898,-119.69876,"34.4189800000,-119.6987600000",Men's Wearhouse,Santa Barbara,CA
11119,X9eQxXnIAViTIlRtBRkqvQ,b_X9eQxXnIAViTIlRtBRkqvQ,34.4209013,-119.80299,"34.4209013000,-119.8029900000",Santa Barbara Orchid Estate,Santa Barbara,CA
11120,YbnJYHNp_fHbI-hcFg48vQ,b_YbnJYHNp_fHbI-hcFg48vQ,34.4176812,-119.6943492,"34.4176812000,-119.6943492000",Santa Barbara Adventure Company,Santa Barbara,CA
11121,9cJ9vOI-wmOBdfq_KyZnFw,b_9cJ9vOI-wmOBdfq_KyZnFw,34.435813,-119.80942,"34.4358130000,-119.8094200000",Top Shop Automotive,Santa Barbara,CA
11122,6swZ2vF-r8TllIuB25eQCQ,b_6swZ2vF-r8TllIuB25eQCQ,34.4167051,-119.6949326,"34.4167051000,-119.6949326000",Energy Tattoo,Santa Barbara,CA
11123,Id8LiSdQ9FbHzwxxUHwGjw,b_Id8LiSdQ9FbHzwxxUHwGjw,34.420472,-119.8543861,"34.4204720000,-119.8543861000",UC Santa Barbara Soccer,Santa Barbara,CA
11124,AmVtOBHPthh_Kc2QQCi7DA,b_AmVtOBHPthh_Kc2QQCi7DA,34.4182369,-119.6971063,"34.4182369000,-119.6971063000",Silver And,Santa Barbara,CA
11125,ziXR7sUrbKRCNeDqfjibUg,b_ziXR7sUrbKRCNeDqfjibUg,34.4113137,-119.6962919,"34.4113137000,-119.6962919000",Rudy's Restaurant No 1,Santa Barbara,CA
11126,7yR4oQcapZBKCkRLB3Isig,b_7yR4oQcapZBKCkRLB3Isig,34.4131069,-119.688496,"34.4131069000,-119.6884960000",El Torito,Santa Barbara,CA
11127,kFdR21vPWa26COwiO7kOSQ,b_kFdR21vPWa26COwiO7kOSQ,34.4098365,-119.6947637,"34.4098365000,-119.6947637000",Franciscan Inn & Suites,Santa Barbara,CA
11128,TteUG63xhW8ORWNzQ1i_1w,b_TteUG63xhW8ORWNzQ1i_1w,34.419317,-119.699999,"34.4193170000,-119.6999990000",Gap,Santa Barbara,CA
11129,ygZyTUWS4dbVL8d6vAiN4A,b_ygZyTUWS4dbVL8d6vAiN4A,34.418462,-119.693982,"34.4184620000,-119.6939820000",Taqueria Rincon Alteno,Santa Barbara,CA
11130,fqm8MD9mJycpD9Lk7szjng,b_fqm8MD9mJycpD9Lk7szjng,34.4361158,-119.7254333,"34.4361158000,-119.7254333000",Iyengar Yoga Studio of Santa Barbara,Santa Barbara,CA
11131,b1shfPbHpkeWtbGbz5iAtg,b_b1shfPbHpkeWtbGbz5iAtg,34.440062,-119.7408542,"34.4400620000,-119.7408542000",Rudy's Mexican Restaurant,Santa Barbara,CA
11132,2nF2syYoD5VBFk01le6NkA,b_2nF2syYoD5VBFk01le6NkA,34.4213976639,-119.646426848,"34.4213976639,-119.6464268480",Montecito Deli & Catering,Santa Barbara,CA
11133,edDmC1Zcr5SVczbKBfiXqw,b_edDmC1Zcr5SVczbKBfiXqw,34.438242,-119.633683,"34.4382420000,-119.6336830000",Montecito Village Grocery,Santa Barbara,CA
11134,jX1kNhinDzathM9gLumIjA,b_jX1kNhinDzathM9gLumIjA,34.4101247243,-119.6972139087,"34.4101247243,-119.6972139087","Brisas Del Mar, Inn at the Beach",Santa Barbara,CA
11135,956T4nw0gCoORsLtes6rlg,b_956T4nw0gCoORsLtes6rlg,34.4399624,-119.7389569,"34.4399624000,-119.7389569000",Motel 6 Santa Barbara - State Street,Santa Barbara,CA
11136,M4n8LURoCNCMYkw_Yd9q1A,b_M4n8LURoCNCMYkw_Yd9q1A,34.4190504,-119.698095,"34.4190504000,-119.6980950000",Antique Alley,Santa Barbara,CA
11137,crlk8kaurC4zrPUTt7BevQ,b_crlk8kaurC4zrPUTt7BevQ,34.4376929,-119.7269265,"34.4376929000,-119.7269265000",Chubbies Hamburgers,Santa Barbara,CA
11138,JZrspVMm79n_iHTYftkI0g,b_JZrspVMm79n_iHTYftkI0g,34.4301395303,-119.6897619065,"34.4301395303,-119.6897619065",La Tapatia Bakery,Santa Barbara,CA
11139,CPnVUkzOO0M90sWjD_gcOQ,b_CPnVUkzOO0M90sWjD_gcOQ,34.4267609,-119.6553113,"34.4267609000,-119.6553113000",Montecito Club,Santa Barbara,CA
11140,qxo35x030xfjwjxJ4LGC6w,b_qxo35x030xfjwjxJ4LGC6w,34.4277775,-119.7100343,"34.4277775000,-119.7100343000",The Presidio Hotel,Santa Barbara,CA
11141,BEyeRiDB3VH1_1JvsylByg,b_BEyeRiDB3VH1_1JvsylByg,34.426119,-119.68419,"34.4261190000,-119.6841900000",Santa Barbara Consignment Company,Santa Barbara,CA
11142,LsniEK_m_Jbj7JMbT4eRxQ,b_LsniEK_m_Jbj7JMbT4eRxQ,34.4206191,-119.6842739,"34.4206191000,-119.6842739000",101 Deli,Santa Barbara,CA
11143,-fxH1XplVLVtWg2ZJWwRdA,b_-fxH1XplVLVtWg2ZJWwRdA,34.400863,-119.722647,"34.4008630000,-119.7226470000",Sam's To Go,Santa Barbara,CA
11144,EPjWfixb8L_Kmn6_KR0wjg,b_EPjWfixb8L_Kmn6_KR0wjg,34.4201186,-119.6876302,"34.4201186000,-119.6876302000",Cory Motors,Santa Barbara,CA
11145,CrWrO6KT5KKg_EdhAgKsaw,b_CrWrO6KT5KKg_EdhAgKsaw,34.4182166,-119.6961201,"34.4182166000,-119.6961201000",Cafe Luck,Santa Barbara,CA
11146,E1STFV8MMLrtUFQ8MTziIg,b_E1STFV8MMLrtUFQ8MTziIg,34.4171011,-119.6964196,"34.4171011000,-119.6964196000",Statemynt,Santa Barbara,CA
11147,94VEqr73aUrj6LnJfvfeAw,b_94VEqr73aUrj6LnJfvfeAw,34.4059160546,-119.6973208022,"34.4059160546,-119.6973208022",Santa Barbara City College,Santa Barbara,CA
11148,uozdxwCZUHPubziu76Y2Ag,b_uozdxwCZUHPubziu76Y2Ag,34.4400429,-119.7373433,"34.4400429000,-119.7373433000",Farmer Boy,Santa Barbara,CA
11149,gkwSfsu1bxyTzTY3XCW0DA,b_gkwSfsu1bxyTzTY3XCW0DA,34.420436736,-119.7026383222,"34.4204367360,-119.7026383222",Kimpton Canary Hotel,Santa Barbara,CA
11150,r8tU21scBflMxWiBESPtRQ,b_r8tU21scBflMxWiBESPtRQ,34.4300129035,-119.689825556,"34.4300129035,-119.6898255560",Shang Hai,Santa Barbara,CA
11151,bjsBMTS4RD7Bs35ugv_fPA,b_bjsBMTS4RD7Bs35ugv_fPA,34.4105211033,-119.6943283081,"34.4105211033,-119.6943283081",The Eagle Inn,Santa Barbara,CA
11152,Sf6I1wpzVAZFxCQSAUkbZA,b_Sf6I1wpzVAZFxCQSAUkbZA,34.436746,-119.803631,"34.4367460000,-119.8036310000",United Family Association Thrift Shoppe,Santa Barbara,CA
11153,tzArEcM0tA9fW5iI8gw57A,b_tzArEcM0tA9fW5iI8gw57A,34.4364152,-119.7258292,"34.4364152000,-119.7258292000",Mishay Salon & Spa,Santa Barbara,CA
11154,fnGZspqyamRremXor0sAyg,b_fnGZspqyamRremXor0sAyg,34.4429379178,-119.8800369458,"34.4429379178,-119.8800369458",Frog Bar & Grill,Santa Barbara,CA
11155,zttPNNUD5QCxm__L39DAmg,b_zttPNNUD5QCxm__L39DAmg,34.4271761719,-119.6893991313,"34.4271761719,-119.6893991313",Marjorie Luke Theater,Santa Barbara,CA
11156,iIwnJPJJMVExGDwRE3UhUw,b_iIwnJPJJMVExGDwRE3UhUw,34.4374845506,-119.7483566735,"34.4374845506,-119.7483566735",Williams-Sonoma,Santa Barbara,CA
11157,3-dQbvti2EpSfs9jKcyIjQ,b_3-dQbvti2EpSfs9jKcyIjQ,34.423331,-119.704805,"34.4233310000,-119.7048050000",State & A Bar and Grill,Santa Barbara,CA
11158,kxxexMsFL4xJLIafhXXFlw,b_kxxexMsFL4xJLIafhXXFlw,34.418003,-119.7000473,"34.4180030000,-119.7000473000",Esau's Cafe,Santa Barbara,CA
11159,VafFgSte05Q2erUYIxINSQ,b_VafFgSte05Q2erUYIxINSQ,34.4208305,-119.6981901,"34.4208305000,-119.6981901000",City of Santa Barbara,Santa Barbara,CA
11160,qfOuGY0MMh068ZFDbG5Egw,b_qfOuGY0MMh068ZFDbG5Egw,34.4272075,-119.7120215,"34.4272075000,-119.7120215000",Cheshire Cat Inn,Santa Barbara,CA
11161,etqiTJ31Bl3Fuh3CWTSHxw,b_etqiTJ31Bl3Fuh3CWTSHxw,34.4207853,-119.6441438,"34.4207853000,-119.6441438000",The Coffee Bean & Tea Leaf,Santa Barbara,CA
11162,j-lxie7nEh3UeUTpiqekkQ,b_j-lxie7nEh3UeUTpiqekkQ,34.4242779,-119.6833015,"34.4242779000,-119.6833015000",Presto Pasta,Santa Barbara,CA
11163,v1Uxox6sMjOV2z1Wk8KN3Q,b_v1Uxox6sMjOV2z1Wk8KN3Q,34.4113223,-119.6900536,"34.4113223000,-119.6900536000",Land and Sea Shark Tour,Santa Barbara,CA
11164,dO8mWdDY04Bxejg2AQ6mew,b_dO8mWdDY04Bxejg2AQ6mew,34.4276656,-119.7108187,"34.4276656000,-119.7108187000",Optometry Care Santa Barbara,Santa Barbara,CA
11165,skY6r8WAkYqpV7_TxNm23w,b_skY6r8WAkYqpV7_TxNm23w,34.4032573848,-119.7437518546,"34.4032573848,-119.7437518546",Boathouse at Hendry's Beach,Santa Barbara,CA
11166,zu4p6IZLSVn2Noto-vcwzw,b_zu4p6IZLSVn2Noto-vcwzw,34.4170185,-119.6689747,"34.4170185000,-119.6689747000",East Beach Grill,Santa Barbara,CA
11167,JgSTUp2pz0b0I6uxXQKnVw,b_JgSTUp2pz0b0I6uxXQKnVw,34.4316418,-119.7239175,"34.4316418000,-119.7239175000",Santa Barbara Dental Care,Santa Barbara,CA
11168,yPSejq3_erxo9zdVYTBnZA,b_yPSejq3_erxo9zdVYTBnZA,34.4274939,-119.686624,"34.4274939000,-119.6866240000",Los Agaves,Santa Barbara,CA
11169,jW4a3W9-UkFxpglHvo_Kqg,b_jW4a3W9-UkFxpglHvo_Kqg,34.401169,-119.721505,"34.4011690000,-119.7215050000",Meun Fan Thai Cafe,Santa Barbara,CA
11170,mPKqBWLSD8wxJLJ_4juY2w,b_mPKqBWLSD8wxJLJ_4juY2w,34.4152547,-119.6945635,"34.4152547000,-119.6945635000",Chocolate Maya,Santa Barbara,CA
11171,okKaZt47m3hhUi24KwBadQ,b_okKaZt47m3hhUi24KwBadQ,34.415852,-119.694732,"34.4158520000,-119.6947320000",Golden Eagle Tattoo,Santa Barbara,CA
11172,OzGk7arJv6FPrWqaYSvyKQ,b_OzGk7arJv6FPrWqaYSvyKQ,34.4356695,-119.8097733,"34.4356695000,-119.8097733000",Choi's Oriental Market,Santa Barbara,CA
11173,JWyBKuDjc1tKP4DZXVEnpg,b_JWyBKuDjc1tKP4DZXVEnpg,34.4213766338,-119.7025063634,"34.4213766338,-119.7025063634",Saks OFF 5TH,Santa Barbara,CA
11174,Ea030K8FnL174q_Y-Wr1_w,b_Ea030K8FnL174q_Y-Wr1_w,34.410424,-119.697885,"34.4104240000,-119.6978850000",Orchid Inn at Santa Barbara,Santa Barbara,CA
11175,iBBV8vesQ8fo2IQA7an1JA,b_iBBV8vesQ8fo2IQA7an1JA,34.4243524,-119.7064283,"34.4243524000,-119.7064283000",Jane,Santa Barbara,CA
11176,ctVn7wMvJX8f4Z9SnOnrHw,b_ctVn7wMvJX8f4Z9SnOnrHw,34.433341,-119.918381,"34.4333410000,-119.9183810000",The Bistro,Santa Barbara,CA
11177,xIxaczgUFRr5C1LNbQSKow,b_xIxaczgUFRr5C1LNbQSKow,34.4468773902,-119.623055,"34.4468773902,-119.6230550000",San Ysidro Ranch,Santa Barbara,CA
11178,dKuSZlhFwYj4wetpmOQakA,b_dKuSZlhFwYj4wetpmOQakA,34.4436426,-119.6577708,"34.4436426000,-119.6577708000",Lotusland,Santa Barbara,CA
11179,qM2gfO-cqpDzxmIX-XzuWA,b_qM2gfO-cqpDzxmIX-XzuWA,34.4468032725,-119.6230980256,"34.4468032725,-119.6230980256",Plow & Angel,Santa Barbara,CA
11180,2cRTgUdOx7PNOQ6C0nnnug,b_2cRTgUdOx7PNOQ6C0nnnug,34.402491,-119.723481,"34.4024910000,-119.7234810000",Bagel Market Cafe,Santa Barbara,CA
11181,xGW1sa5bgvJWA0PO4mBV8g,b_xGW1sa5bgvJWA0PO4mBV8g,34.416073,-119.698301,"34.4160730000,-119.6983010000",Loop & Leaf,Santa Barbara,CA
11182,-ipZBVF9nWm1vzrvQ3444A,b_-ipZBVF9nWm1vzrvQ3444A,34.4383258245,-119.7496509558,"34.4383258245,-119.7496509558",Habit Burger Grill,Santa Barbara,CA
11183,EXYbKA1tocvOK_1tXxZXLA,b_EXYbKA1tocvOK_1tXxZXLA,34.4039742,-119.6933033,"34.4039742000,-119.6933033000",Sushi GoGo,Santa Barbara,CA
11184,OARRMVkGGZ42AFU34dyY6w,b_OARRMVkGGZ42AFU34dyY6w,34.4370206,-119.725784,"34.4370206000,-119.7257840000",Regal Cleaners & Laundry,Santa Barbara,CA
11185,sQFk2gZFUCmLhfYX0ufPbA,b_sQFk2gZFUCmLhfYX0ufPbA,34.4191123959,-119.6997368346,"34.4191123959,-119.6997368346",Kahuna Grill,Santa Barbara,CA
11186,ui8WHNtcg-zcrUwtR_3W8g,b_ui8WHNtcg-zcrUwtR_3W8g,34.4293549,-119.689167,"34.4293549000,-119.6891670000",Milpas Optometric Center,Santa Barbara,CA
11187,oV764TibO33JtT8UbN--mw,b_oV764TibO33JtT8UbN--mw,34.44002,-119.738246,"34.4400200000,-119.7382460000",Aqua Nail Bar,Santa Barbara,CA
11188,kGIYjw47bm_1t2nTpEavfA,b_kGIYjw47bm_1t2nTpEavfA,34.4272367,-119.7024,"34.4272367000,-119.7024000000","Richard A Stein, DDS",Santa Barbara,CA
11189,-TArOdux8Z4oH-jIM1FJuQ,b_-TArOdux8Z4oH-jIM1FJuQ,34.4176524,-119.6691214,"34.4176524000,-119.6691214000",Bistro 1111,Santa Barbara,CA
11190,KobS8yqBelXH11gaIhZJSg,b_KobS8yqBelXH11gaIhZJSg,34.4034873694,-119.6937026829,"34.4034873694,-119.6937026829",The Endless Summer Bar Cafe,Santa Barbara,CA
11191,2hKP7ECCK5IqnjSI0VKp3w,b_2hKP7ECCK5IqnjSI0VKp3w,34.436774,-119.790045,"34.4367740000,-119.7900450000",Killer B Fitness,Santa Barbara,CA
11192,C6AiAF35zwpAoK5jjm-nhA,b_C6AiAF35zwpAoK5jjm-nhA,34.4372898,-119.632278,"34.4372898000,-119.6322780000",Montecito Coffee Shop,Santa Barbara,CA
11193,mIhTKiCFvASrx1IrNT6Ktw,b_mIhTKiCFvASrx1IrNT6Ktw,34.4440217,-119.7879814,"34.4440217000,-119.7879814000",Ramada by Wyndham Santa Barbara,Santa Barbara,CA
11194,QFh-h_OZ5Io-mBk32HN28A,b_QFh-h_OZ5Io-mBk32HN28A,34.4182687,-119.7005116,"34.4182687000,-119.7005116000",Kyle's Kitchen,Santa Barbara,CA
11195,7wcHZ80HLJVwUijAH_efJQ,b_7wcHZ80HLJVwUijAH_efJQ,34.404278,-119.694053,"34.4042780000,-119.6940530000",Breakwater Restaurant,Santa Barbara,CA
11196,-3AooxIkg38UyUdlz5oXdw,b_-3AooxIkg38UyUdlz5oXdw,34.421931,-119.7021852,"34.4219310000,-119.7021852000",Chase Restaurant,Santa Barbara,CA
11197,txfIwMeeGGhKGfSB-y6DUQ,b_txfIwMeeGGhKGfSB-y6DUQ,34.424752,-119.687939,"34.4247520000,-119.6879390000",Santa Barbara Body Therapy Institute,Santa Barbara,CA
11198,k27OsQ3Bwpkr_cZkS2BO2A,b_k27OsQ3Bwpkr_cZkS2BO2A,34.4376229,-119.7262251,"34.4376229000,-119.7262251000",Yen Ching Restaurant,Santa Barbara,CA
11199,dQ6d9H7rnFSOSC_FXbJ_FQ,b_dQ6d9H7rnFSOSC_FXbJ_FQ,34.4005756,-119.7227184,"34.4005756000,-119.7227184000",Blenders In the Grass,Santa Barbara,CA
11200,NOGCVpC2WeQVGDTA47DTyg,b_NOGCVpC2WeQVGDTA47DTyg,34.4251589,-119.7051213,"34.4251589000,-119.7051213000",Members Only Barber Shop,Santa Barbara,CA
11201,VqXqBWHiiVJ9ysfQ3kDbLg,b_VqXqBWHiiVJ9ysfQ3kDbLg,34.439884,-119.7703036,"34.4398840000,-119.7703036000",U-Haul of Santa Barbara,Santa Barbara,CA
11202,s193M1ymKdtefjhOz90Sjg,b_s193M1ymKdtefjhOz90Sjg,34.4197642,-119.6993301,"34.4197642000,-119.6993301000",Pinkberry,Santa Barbara,CA
11203,7o_nVcxUgI4r1LC0OLDv0g,b_7o_nVcxUgI4r1LC0OLDv0g,34.4193738,-119.6930916,"34.4193738000,-119.6930916000",Love's Towing Service,Santa Barbara,CA
11204,xFJ4R9nKQt_JoD5CXgyFjw,b_xFJ4R9nKQt_JoD5CXgyFjw,34.4400502,-119.7359216,"34.4400502000,-119.7359216000",Northside Shoe Repair,Santa Barbara,CA
11205,HFhjwiTaIzXrKCPiN5EXmw,b_HFhjwiTaIzXrKCPiN5EXmw,34.4214956,-119.6776412,"34.4214956000,-119.6776412000",Trader Joe's,Santa Barbara,CA
11206,sjP_8huVi91BiGB6dOBn1Q,b_sjP_8huVi91BiGB6dOBn1Q,34.43554,-119.8028737873,"34.4355400000,-119.8028737873",Monty's,Santa Barbara,CA
11207,4cJOsHOTYSQFfpNqC4sSiw,b_4cJOsHOTYSQFfpNqC4sSiw,34.4403824955,-119.751329273,"34.4403824955,-119.7513292730",American Laser Skincare,Santa Barbara,CA
11208,elX9a3nvGMSweRaMWgSb0Q,b_elX9a3nvGMSweRaMWgSb0Q,34.417558,-119.696785,"34.4175580000,-119.6967850000",Starbucks,Santa Barbara,CA
11209,Ts16glxcNkUxjTIstl3fiA,b_Ts16glxcNkUxjTIstl3fiA,34.4316819,-119.7211619,"34.4316819000,-119.7211619000","Quijano Ralph, MD",Santa Barbara,CA
11210,sdzD-6O7eKIYgF9WzOuasg,b_sdzD-6O7eKIYgF9WzOuasg,34.4406445,-119.7387679,"34.4406445000,-119.7387679000",Max's Restaurant & Cucina,Santa Barbara,CA
11211,yIAgFdYQY3UdfDn-qO0K7g,b_yIAgFdYQY3UdfDn-qO0K7g,34.423818,-119.704297,"34.4238180000,-119.7042970000",Arts & Letters Cafe,Santa Barbara,CA
11212,byhMPOujWJ32LsH9IJ5pXA,b_byhMPOujWJ32LsH9IJ5pXA,34.4281921,-119.7081079,"34.4281921000,-119.7081079000","Michael J. Paveloff, M.D F.A.C.S. - Paveloff Vision center",Santa Barbara,CA
11213,SQdgv12hifah8Syr2scKEg,b_SQdgv12hifah8Syr2scKEg,34.4192762,-119.6973918,"34.4192762000,-119.6973918000",Santa Barbara City Parking Lot #10,Santa Barbara,CA
11214,wUHUyTrOpUcTVTQpyZFo8w,b_wUHUyTrOpUcTVTQpyZFo8w,34.423608,-119.705139,"34.4236080000,-119.7051390000",McDonald's,Santa Barbara,CA
11215,MX2YGruhd0sMNHZGK7p5-Q,b_MX2YGruhd0sMNHZGK7p5-Q,34.417214,-119.642527,"34.4172140000,-119.6425270000",Bella Vista,Santa Barbara,CA
11216,7tO1ZfWN6OEo1pWtdgxfqA,b_7tO1ZfWN6OEo1pWtdgxfqA,34.4193444,-119.6961295,"34.4193444000,-119.6961295000",The Melting Pot,Santa Barbara,CA
11217,oktohqIGhMQxOP7h5ugHlg,b_oktohqIGhMQxOP7h5ugHlg,34.4225499368,-119.6982773534,"34.4225499368,-119.6982773534",Julienne,Santa Barbara,CA
11218,eFafEbJKZ4gs0Eefl20mOA,b_eFafEbJKZ4gs0Eefl20mOA,34.421933,-119.710226,"34.4219330000,-119.7102260000",A White Jasmine Inn,Santa Barbara,CA
11219,DViuFufL4PKhLVy9hVDTnQ,b_DViuFufL4PKhLVy9hVDTnQ,34.4381815,-119.7273892,"34.4381815000,-119.7273892000",Callender's House of Glass,Santa Barbara,CA
11220,TsSiySYySLYtuQKlEQiZPw,b_TsSiySYySLYtuQKlEQiZPw,34.4145189066,-119.6948024346,"34.4145189066,-119.6948024346",Evolutions Medical & Day Spa,Santa Barbara,CA
11221,ZmQHzv1pf0fbk-tm8lu0EA,b_ZmQHzv1pf0fbk-tm8lu0EA,34.4242908,-119.7061746,"34.4242908000,-119.7061746000",Downey's,Santa Barbara,CA
11222,-rEZrddgbkI-gU24HuqfKQ,b_-rEZrddgbkI-gU24HuqfKQ,34.4249041,-119.7049345,"34.4249041000,-119.7049345000",The Massage Place,Santa Barbara,CA
11223,iBGR1hX6To3FGtCgCgDtqQ,b_iBGR1hX6To3FGtCgCgDtqQ,34.4281804,-119.716529,"34.4281804000,-119.7165290000",Feast and Fest Catering,Santa Barbara,CA
11224,GZLb-CqVp9X4C76BxF77bg,b_GZLb-CqVp9X4C76BxF77bg,34.4189383557,-119.6712183952,"34.4189383557,-119.6712183952",Parkside Inn,Santa Barbara,CA
11225,Gh_T5EjpOb2Pm4OTOAQteg,b_Gh_T5EjpOb2Pm4OTOAQteg,34.4148505,-119.6944454,"34.4148505000,-119.6944454000",Yoga Soup,Santa Barbara,CA
11226,_WsbPtqSuxaBu5zd7H0-HQ,b__WsbPtqSuxaBu5zd7H0-HQ,34.4229928,-119.6870122,"34.4229928000,-119.6870122000",Lara's Auto Repair,Santa Barbara,CA
11227,piu_XxmLEgW2mZXn0FNyuA,b_piu_XxmLEgW2mZXn0FNyuA,34.4017155,-119.7212704,"34.4017155000,-119.7212704000",Charming Nails,Santa Barbara,CA
11228,_o3AtnA941ClNRa8Rx7c-A,b__o3AtnA941ClNRa8Rx7c-A,34.421468,-119.677352,"34.4214680000,-119.6773520000",Rite Aid,Santa Barbara,CA
11229,LR6rFmqGRDFRKbkGrPQBKg,b_LR6rFmqGRDFRKbkGrPQBKg,34.425503,-119.702477,"34.4255030000,-119.7024770000",Victor The Florist,Santa Barbara,CA
11230,lNqjfEdHh2zuNArHJWaqbg,b_lNqjfEdHh2zuNArHJWaqbg,34.4150989,-119.694707,"34.4150989000,-119.6947070000",Le Reve Organic Day  Spa & Boutique,Santa Barbara,CA
11231,d-8uNLbRCntAg1evqnU4sw,b_d-8uNLbRCntAg1evqnU4sw,34.42349,-119.709344,"34.4234900000,-119.7093440000",Upham Hotel,Santa Barbara,CA
11232,q2Ao2HQyhvcT9UG-5-ZGYg,b_q2Ao2HQyhvcT9UG-5-ZGYg,34.420334,-119.7107494,"34.4203340000,-119.7107494000",Captain Jack's Tours & Events,Santa Barbara,CA
11233,CgjtA5DXxQBqWSvcC8zl6Q,b_CgjtA5DXxQBqWSvcC8zl6Q,34.4088277,-119.6946257,"34.4088277000,-119.6946257000",Castillo Inn at the Beach,Santa Barbara,CA
11234,dPt9QgLAIuI2a-CKdv5cSA,b_dPt9QgLAIuI2a-CKdv5cSA,34.4397728126,-119.8123468901,"34.4397728126,-119.8123468901",Santa Barbara Humane ,Santa Barbara,CA
11235,KXVC9UqRtRxRvLOn6pVBYw,b_KXVC9UqRtRxRvLOn6pVBYw,34.4290621,-119.7177594,"34.4290621000,-119.7177594000",Glow Beauty Boutique,Santa Barbara,CA
11236,qhjyrEkoeB9dp5yEnQiEvA,b_qhjyrEkoeB9dp5yEnQiEvA,34.4239841,-119.7033243,"34.4239841000,-119.7033243000",Santa Barbara City Library,Santa Barbara,CA
11237,svNB9xp0PWFKj6jDrCmRyw,b_svNB9xp0PWFKj6jDrCmRyw,34.4083694493,-119.6939335765,"34.4083694493,-119.6939335765",Best Western Beachside Inn,Santa Barbara,CA
11238,_qctTOH47aCTxtnRs9EZvA,b__qctTOH47aCTxtnRs9EZvA,34.424691,-119.705823,"34.4246910000,-119.7058230000",Chase Bank,Santa Barbara,CA
11239,_EqOdBvXK8t4apKdIF_QGg,b__EqOdBvXK8t4apKdIF_QGg,34.4287578,-119.7166562,"34.4287578000,-119.7166562000",Santa Barbara Baby Furniture & Accessories,Santa Barbara,CA
11240,ktzn-ITro3m396yRBecANA,b_ktzn-ITro3m396yRBecANA,34.4319146,-119.7243021,"34.4319146000,-119.7243021000","Kiken Robert, DDS - Ocean Oral and Maxillofacial Surgery",Santa Barbara,CA
11241,L9QTAucz_in5f-ufCrvb1Q,b_L9QTAucz_in5f-ufCrvb1Q,34.420334,-119.7107494,"34.4203340000,-119.7107494000",Live Culture,Santa Barbara,CA
11242,2pBNVsJo3a3CPbInUu9lvQ,b_2pBNVsJo3a3CPbInUu9lvQ,34.4097583,-119.6853378,"34.4097583000,-119.6853378000",Char West,Santa Barbara,CA
11243,M9tqq4TM5tEATG1J6ncM6Q,b_M9tqq4TM5tEATG1J6ncM6Q,34.422955,-119.690523,"34.4229550000,-119.6905230000",Santa Barbara MTD,Santa Barbara,CA
11244,dnJ4_MLhydbzGievblH4GA,b_dnJ4_MLhydbzGievblH4GA,34.4260496,-119.7066161,"34.4260496000,-119.7066161000",Our Lady of Sorrows Church,Santa Barbara,CA
11245,wMG7vnGBKo-xWkV8FSMecA,b_wMG7vnGBKo-xWkV8FSMecA,34.440742,-119.753867,"34.4407420000,-119.7538670000",Meineke Car Care Centers,Santa Barbara,CA
11246,425FOxIzHPcOB0niWc6-1w,b_425FOxIzHPcOB0niWc6-1w,34.4189876171,-119.7047993817,"34.4189876171,-119.7047993817",Spudnuts Donuts,Santa Barbara,CA
11247,VeIrgRMOK_0ZToziUd2kUA,b_VeIrgRMOK_0ZToziUd2kUA,34.4399258,-119.6939139,"34.4399258000,-119.6939139000",Franceschi Park,Santa Barbara,CA
11248,lGwD6-xQXFtNqs6rjQBGIA,b_lGwD6-xQXFtNqs6rjQBGIA,34.4403238,-119.7347963,"34.4403238000,-119.7347963000",Paper Ink,Santa Barbara,CA
11249,NDeUK3gmXOI31_8VLoWKWQ,b_NDeUK3gmXOI31_8VLoWKWQ,34.4407028,-119.7352194,"34.4407028000,-119.7352194000",ZenSpa,Santa Barbara,CA
11250,LuStq56g1xxETv_adQKvpg,b_LuStq56g1xxETv_adQKvpg,34.4179633,-119.6834139,"34.4179633000,-119.6834139000",The Training Room,Santa Barbara,CA
11251,iGFGMP5x2PSbAZJudk186Q,b_iGFGMP5x2PSbAZJudk186Q,34.436987,-119.749123,"34.4369870000,-119.7491230000",Sears Auto Center,Santa Barbara,CA
11252,wBCib_JxScMn2t2nKyZD5Q,b_wBCib_JxScMn2t2nKyZD5Q,34.413371,-119.694268,"34.4133710000,-119.6942680000",Moreton Bay Fig Tree,Santa Barbara,CA
11253,NsyU7HYnx6U6m2OygjiYyg,b_NsyU7HYnx6U6m2OygjiYyg,34.4209449,-119.699877,"34.4209449000,-119.6998770000",Float Luxury Spa,Santa Barbara,CA
11254,oRNIN69Sc8u-PIgg0_H-sg,b_oRNIN69Sc8u-PIgg0_H-sg,34.429408,-119.7162093,"34.4294080000,-119.7162093000",LunaBella Make-up & Hair,Santa Barbara,CA
11255,I2HwwRAP3nd5cYtoFO2pKw,b_I2HwwRAP3nd5cYtoFO2pKw,34.4128419,-119.8555881,"34.4128419000,-119.8555881000",Alex's Beauty Bar,Santa Barbara,CA
11256,jLn69WQupjsDKrbPw_nlGQ,b_jLn69WQupjsDKrbPw_nlGQ,34.418154,-119.697609,"34.4181540000,-119.6976090000",Yogurtland Santa Barbara,Santa Barbara,CA
11257,PgtqA056auCp5EbcZMbXPQ,b_PgtqA056auCp5EbcZMbXPQ,34.4213978,-119.6423909,"34.4213978000,-119.6423909000",Trattoria Mollie,Santa Barbara,CA
11258,YGgGefpPTFhgthvQvMAGoQ,b_YGgGefpPTFhgthvQvMAGoQ,34.4224118,-119.6893092,"34.4224118000,-119.6893092000",Lito's Take  Out,Santa Barbara,CA
11259,vTXNVK73GOvVb3js4w8SLg,b_vTXNVK73GOvVb3js4w8SLg,34.4405731,-119.7284108,"34.4405731000,-119.7284108000",Domino's Pizza,Santa Barbara,CA
11260,EJ76Y9Vz1Fh-6lMkCuIN5A,b_EJ76Y9Vz1Fh-6lMkCuIN5A,34.4231086,-119.7043973,"34.4231086000,-119.7043973000",Old Navy,Santa Barbara,CA
11261,L-mMtwcJwHlg4Vt4O1MaXQ,b_L-mMtwcJwHlg4Vt4O1MaXQ,34.4130945,-119.6924071,"34.4130945000,-119.6924071000",Santa Barbara Tourist Hostel,Santa Barbara,CA
11262,lL0wdTowBmM2GE5FxLnlwg,b_lL0wdTowBmM2GE5FxLnlwg,34.4078161142,-119.6939142184,"34.4078161142,-119.6939142184",Los Banos Del Mar Pool,Santa Barbara,CA
11263,bhcikPDl2y9rCC5Sg0INXw,b_bhcikPDl2y9rCC5Sg0INXw,34.4301385,-119.7158403,"34.4301385000,-119.7158403000",Tony the Tailor,Santa Barbara,CA
11264,OPQkUsUdLN_PPAW6IyEJLQ,b_OPQkUsUdLN_PPAW6IyEJLQ,34.419192,-119.698318,"34.4191920000,-119.6983180000",Chino's Rock & Tacos,Santa Barbara,CA
11265,bxDk3YLoMOTdmmf_4AN_4g,b_bxDk3YLoMOTdmmf_4AN_4g,34.4183468,-119.6713591,"34.4183468000,-119.6713591000",Pacific Crest Hotel Santa Barbara,Santa Barbara,CA
11266,liZlY8xqR4WTneZzGtq6MA,b_liZlY8xqR4WTneZzGtq6MA,34.417107,-119.6689954,"34.4171070000,-119.6689954000",Cabrillo Pavilion,Santa Barbara,CA
11267,0-EPTwgl6sDaPSVI39YqmQ,b_0-EPTwgl6sDaPSVI39YqmQ,34.4183945105,-119.6716672076,"34.4183945105,-119.6716672076",Old Yacht Club Inn,Santa Barbara,CA
11268,95bWaZwiJen2epQFC31_1g,b_95bWaZwiJen2epQFC31_1g,34.4220614413,-119.7036291,"34.4220614413,-119.7036291000",Santa Barbara Cigar & Tobacco,Santa Barbara,CA
11269,-JvB2PUfqNRjJZRgRpvWGg,b_-JvB2PUfqNRjJZRgRpvWGg,34.4210461,-119.7034734,"34.4210461000,-119.7034734000",Downtown Waterfront Electric Shuttle,Santa Barbara,CA
11270,OevgFa-maNijC2anmt1_mQ,b_OevgFa-maNijC2anmt1_mQ,34.4159952,-119.6957189,"34.4159952000,-119.6957189000",Holiday Inn Express Santa Barbara,Santa Barbara,CA
11271,JoHtbl1QSBdZRE05U73mow,b_JoHtbl1QSBdZRE05U73mow,34.442914,-119.807075,"34.4429140000,-119.8070750000",Patterson Self-Storage,Santa Barbara,CA
11272,-dOxca7rLtN5RR-psV10wA,b_-dOxca7rLtN5RR-psV10wA,34.418505,-119.699911,"34.4185050000,-119.6999110000",Lush,Santa Barbara,CA
11273,vi5xjfEhV6rnXrC_GbdhnA,b_vi5xjfEhV6rnXrC_GbdhnA,34.439423,-119.761667,"34.4394230000,-119.7616670000",El Rincon Bohemio,Santa Barbara,CA
11274,r5sQtvsO4OVJgEH5H3uEAg,b_r5sQtvsO4OVJgEH5H3uEAg,34.424064,-119.70583,"34.4240640000,-119.7058300000",Starbucks,Santa Barbara,CA
11275,q7q2Z1wXHHXXVf_QlLdlXA,b_q7q2Z1wXHHXXVf_QlLdlXA,34.4396992,-119.744283,"34.4396992000,-119.7442830000",Bicycle Bob's,Santa Barbara,CA
11276,9_uigKs9GCwg9dFKkq_Kfg,b_9_uigKs9GCwg9dFKkq_Kfg,34.419898,-119.699523,"34.4198980000,-119.6995230000",Starbucks,Santa Barbara,CA
11277,e5_W9B0W0rmaO-xIpWPmsA,b_e5_W9B0W0rmaO-xIpWPmsA,34.4249645,-119.706953,"34.4249645000,-119.7069530000",Kaleidoscope Flowers,Santa Barbara,CA
11278,pWD0ajl5wc0g-r3wTGMNSQ,b_pWD0ajl5wc0g-r3wTGMNSQ,34.4285836,-119.7118572,"34.4285836000,-119.7118572000",Cielo Spa Boutique,Santa Barbara,CA
11279,dEhVyrZvxw6H-Y1qGoMxkw,b_dEhVyrZvxw6H-Y1qGoMxkw,34.440693,-119.731681,"34.4406930000,-119.7316810000",Todays Nails,Santa Barbara,CA
11280,T0TAXNzN7oY1wRC8jslTjw,b_T0TAXNzN7oY1wRC8jslTjw,34.422903,-119.687689,"34.4229030000,-119.6876890000",Telegraph Brewing Company,Santa Barbara,CA
11281,R0U0K_qvwOQbQwPhhKw4Ew,b_R0U0K_qvwOQbQwPhhKw4Ew,34.4399632,-119.7295986,"34.4399632000,-119.7295986000",Steve's Patio Cafe,Santa Barbara,CA
11282,NDwoKO79_T49UEKVDlHd3A,b_NDwoKO79_T49UEKVDlHd3A,34.4224525,-119.7050212,"34.4224525000,-119.7050212000",Sustainable Wine Tours,Santa Barbara,CA
11283,iTVqzGrt98xR1c5a2pgxfQ,b_iTVqzGrt98xR1c5a2pgxfQ,34.440123,-119.7438934,"34.4401230000,-119.7438934000",Educated Car Wash,Santa Barbara,CA
11284,jWgZRpdHy8csA1sUz1auSw,b_jWgZRpdHy8csA1sUz1auSw,34.4360248,-119.7254785,"34.4360248000,-119.7254785000",Daniel's Bakery and Mexican Food,Santa Barbara,CA
11285,H4Zf42Q3I8JyQ-V5l4dJrg,b_H4Zf42Q3I8JyQ-V5l4dJrg,34.4186769,-119.6975179,"34.4186769000,-119.6975179000",Blush Lounge,Santa Barbara,CA
11286,9D7dDnaZZglUOj75xFy-nw,b_9D7dDnaZZglUOj75xFy-nw,34.4166798104,-119.707224,"34.4166798104,-119.7072240000",Artistic Nails & Spa,Santa Barbara,CA
11287,KOyZKyS6ybGNloICv1pg5w,b_KOyZKyS6ybGNloICv1pg5w,34.4397587,-119.7619213,"34.4397587000,-119.7619213000",C & S Automotive,Santa Barbara,CA
11288,8RlO6NuhWzXktp-1croq5A,b_8RlO6NuhWzXktp-1croq5A,34.4024127,-119.7235134,"34.4024127000,-119.7235134000",Szechuan Restaurant,Santa Barbara,CA
11289,soaZ7_oU7xcphlw6gpWblg,b_soaZ7_oU7xcphlw6gpWblg,34.402329,-119.72339,"34.4023290000,-119.7233900000",Starbucks,Santa Barbara,CA
11290,uSNue_cXl17-UzEjyopxKg,b_uSNue_cXl17-UzEjyopxKg,34.4356024,-119.7245736,"34.4356024000,-119.7245736000",GM Auto & Smog,Santa Barbara,CA
11291,dSH7t37AJxHIpdkTY93Kyg,b_dSH7t37AJxHIpdkTY93Kyg,34.4185181991,-119.8486228073,"34.4185181991,-119.8486228073",UCSB Recreation Center,Santa Barbara,CA
11292,xGaYXbXGwagUKPNEaVqbWw,b_xGaYXbXGwagUKPNEaVqbWw,34.4402476,-119.766991,"34.4402476000,-119.7669910000",Eller's Doughnut House & Bakery,Santa Barbara,CA
11293,t08G_MSwHGMBUlCp1I5BUQ,b_t08G_MSwHGMBUlCp1I5BUQ,34.4038985111,-119.6934379545,"34.4038985111,-119.6934379545",Sunset Kidd Sailing Cruises and Whale Watching,Santa Barbara,CA
11294,DJ8-4SHGd8c7Vl5x64GVYQ,b_DJ8-4SHGd8c7Vl5x64GVYQ,34.4173921,-119.692927,"34.4173921000,-119.6929270000",Kiwi's Auto Repair,Santa Barbara,CA
11295,fXIsVDI9SEdJO9901CGfyw,b_fXIsVDI9SEdJO9901CGfyw,34.4172918,-119.6714417,"34.4172918000,-119.6714417000",Cabrillo Inn at the Beach,Santa Barbara,CA
11296,t1GI_XU8ynUMlKbB1aRDHg,b_t1GI_XU8ynUMlKbB1aRDHg,34.419407,-119.698803,"34.4194070000,-119.6988030000",Supercuts,Santa Barbara,CA
11297,spRrhARsgEUeVvqlYg4w0Q,b_spRrhARsgEUeVvqlYg4w0Q,34.440019,-119.761455,"34.4400190000,-119.7614550000","Richard Davis, DDS",Santa Barbara,CA
11298,ounNupatqSOAuXuweSeqOA,b_ounNupatqSOAuXuweSeqOA,34.4210322,-119.6927864,"34.4210322000,-119.6927864000",iD Works,Santa Barbara,CA
11299,5IMXGbPXrMdpFPrwKYo-VQ,b_5IMXGbPXrMdpFPrwKYo-VQ,34.4402476,-119.766991,"34.4402476000,-119.7669910000",Kids Cuts,Santa Barbara,CA
11300,eHRzuUXA2jrR99ecioWU4g,b_eHRzuUXA2jrR99ecioWU4g,34.414427,-119.691952,"34.4144270000,-119.6919520000",Union Ale,Santa Barbara,CA
11301,iNHXcvalEIoNLD1pt5S2kg,b_iNHXcvalEIoNLD1pt5S2kg,34.4135868,-119.8496976,"34.4135868000,-119.8496976000",UCSB Student Health Dental Care Center,Santa Barbara,CA
11302,c7GJVA-6lQxcH6QkrRiW0w,b_c7GJVA-6lQxcH6QkrRiW0w,34.4131435,-119.6900622,"34.4131435000,-119.6900622000",Hot Spots Espresso Company,Santa Barbara,CA
11303,8xKvHgbxmxW6zeadm74Njg,b_8xKvHgbxmxW6zeadm74Njg,34.4225574,-119.7047959,"34.4225574000,-119.7047959000",Karpeles Manuscript Library Museum,Santa Barbara,CA
11304,zITiOKyBNxWrhrj67SBqEQ,b_zITiOKyBNxWrhrj67SBqEQ,34.4287212,-119.7250697,"34.4287212000,-119.7250697000","Susanne Ramos, MD",Santa Barbara,CA
11305,qhSnCD9P7pafSHqaGr5-NQ,b_qhSnCD9P7pafSHqaGr5-NQ,34.4176622,-119.697105,"34.4176622000,-119.6971050000",Aaron Brothers Art & Framing,Santa Barbara,CA
11306,0HIB2TFyVsnsCSZyLw7e7A,b_0HIB2TFyVsnsCSZyLw7e7A,34.436368,-119.7257953,"34.4363680000,-119.7257953000",YellowBird Music,Santa Barbara,CA
11307,qUH2FppY7RL96F5tXzA0hQ,b_qUH2FppY7RL96F5tXzA0hQ,34.4223696,-119.7035202,"34.4223696000,-119.7035202000",Dune Coffee Roasters - State Street,Santa Barbara,CA
11308,1xsBRB203LiYLcC3mktfdA,b_1xsBRB203LiYLcC3mktfdA,34.4152803,-119.6899095,"34.4152803000,-119.6899095000",Kunin Wines,Santa Barbara,CA
11309,N3gvFwDF2QA9HzEPsMPZ7A,b_N3gvFwDF2QA9HzEPsMPZ7A,34.41641,-119.640996,"34.4164100000,-119.6409960000",Coral Casino Beach & Cabana Club,Santa Barbara,CA
11310,NYowvk8by5WdlQZxGLLvTg,b_NYowvk8by5WdlQZxGLLvTg,34.4179633,-119.6834139,"34.4179633000,-119.6834139000",Bella Vista Designs,Santa Barbara,CA
11311,30UDzHVB5Di80kAovPr21w,b_30UDzHVB5Di80kAovPr21w,34.4229897,-119.6869988,"34.4229897000,-119.6869988000",Robyn Loves Cake,Santa Barbara,CA
11312,VvH45E73s0sln00rUhhYGg,b_VvH45E73s0sln00rUhhYGg,34.4198145782,-119.7002246703,"34.4198145782,-119.7002246703",MAC Cosmetics,Santa Barbara,CA
11313,0jpFptAehZhLl3nkhHDanA,b_0jpFptAehZhLl3nkhHDanA,34.4388519,-119.7043733,"34.4388519000,-119.7043733000",Belmond El Encanto,Santa Barbara,CA
