business_id,raw_business_id,entity,latitude,longitude,geo,name,city,state
4224,TZpGfN1prJBu7ldErjL50A,b_TZpGfN1prJBu7ldErjL50A,43.607424,-116.283725,"43.6074240000,-116.2837250000",Red Robin Gourmet Burgers and Brews,Boise,ID
4225,9wMV9GAMN8QgB7mUE7Bl_Q,b_9wMV9GAMN8QgB7mUE7Bl_Q,43.6134193,-116.2067229,"43.6134193000,-116.2067229000",Happy Fish Sushi,Boise,ID
4226,e1P-sfC54cO7WoAYRXvBxA,b_e1P-sfC54cO7WoAYRXvBxA,43.6166836893,-116.2022916859,"43.6166836893,-116.2022916859",Red Feather Lounge,Boise,ID
4227,0KE3MDT654yHN4LfxKcZYg,b_0KE3MDT654yHN4LfxKcZYg,43.6117019,-116.2032312,"43.6117019000,-116.2032312000",Boise Weekly,Boise,ID
4228,7AQ-UCLkyamF2Wg41wsw_g,b_7AQ-UCLkyamF2Wg41wsw_g,43.617149,-116.206104,"43.6171490000,-116.2061040000",Asiago's,Boise,ID
4229,B65v5G8kMbOz16YdLITHcA,b_B65v5G8kMbOz16YdLITHcA,43.6123306,-116.2427123,"43.6123306000,-116.2427123000",Chiang Mai House Thai Restaurant,Boise,ID
4230,rLT7Csuw8tfVrBUP3VVNLw,b_rLT7Csuw8tfVrBUP3VVNLw,43.5898963,-116.2913198845,"43.5898963000,-116.2913198845",Sonic Drive-In,Boise,ID
4231,L_EVdc2xdI6VSIH9LIXOig,b_L_EVdc2xdI6VSIH9LIXOig,43.6143067,-116.2016947,"43.6143067000,-116.2016947000",Reef,Boise,ID
4232,JK0dQu47K-eYqW9e2CrzXQ,b_JK0dQu47K-eYqW9e2CrzXQ,43.6140198,-116.2018065,"43.6140198000,-116.2018065000",Leku Ona,Boise,ID
4233,AW8LKjTWyD6eqn_OXM7LRg,b_AW8LKjTWyD6eqn_OXM7LRg,43.5939441,-116.1939336,"43.5939441000,-116.1939336000",Murphy's Seafood Bar & Grill,Boise,ID
4234,i1UAowqVH1cCkXudBRDwdA,b_i1UAowqVH1cCkXudBRDwdA,43.565822,-116.222317,"43.5658220000,-116.2223170000",Boise Airport,Boise,ID
4235,fhKSroLBUfASNMquHVVusg,b_fhKSroLBUfASNMquHVVusg,43.617923,-116.206753,"43.6179230000,-116.2067530000",Neurolux,Boise,ID
4236,Yeef_hlUbSIRWog3dVortg,b_Yeef_hlUbSIRWog3dVortg,43.6298459,-116.2031504,"43.6298459000,-116.2031504000",Parrilla Grill,Boise,ID
4237,GAli3uK_AvEDnpLnKIYGTA,b_GAli3uK_AvEDnpLnKIYGTA,43.6140001,-116.200823,"43.6140001000,-116.2008230000",Pengilly's Saloon,Boise,ID
4238,w_4xUt-1AyY2ZwKtnjW0Xg,b_w_4xUt-1AyY2ZwKtnjW0Xg,43.6165895082,-116.2023831706,"43.6165895082,-116.2023831706",Bittercreek Alehouse,Boise,ID
4239,ePqztYGzE6DtuKmpEt02PQ,b_ePqztYGzE6DtuKmpEt02PQ,43.6161960694,-116.2027338834,"43.6161960694,-116.2027338834",Balcony Club,Boise,ID
4240,QmKYNxwy4_dJvrZmSeAP4Q,b_QmKYNxwy4_dJvrZmSeAP4Q,43.5776822,-116.1933286,"43.5776822000,-116.1933286000",Jim's Alibi,Boise,ID
4241,d1QKAM7kSGLPQcDAxrFgDA,b_d1QKAM7kSGLPQcDAxrFgDA,43.58847,-116.2749635325,"43.5884700000,-116.2749635325",Cracker Barrel Old Country Store,Boise,ID
4242,Ps8KgiyJhPqhkjWBklPimg,b_Ps8KgiyJhPqhkjWBklPimg,43.6140596,-116.2029588,"43.6140596000,-116.2029588000",Bar Gernika,Boise,ID
4243,27E7RwQPv8XFzzIXjwPJ1Q,b_27E7RwQPv8XFzzIXjwPJ1Q,43.5982728,-116.183575,"43.5982728000,-116.1835750000",Red Robin Gourmet Burgers and Brews,Boise,ID
4244,2bXm0SynOfxDzfrdrCyXqg,b_2bXm0SynOfxDzfrdrCyXqg,43.616232,-116.202124,"43.6162320000,-116.2021240000",Old Chicago Pizza & Taproom,Boise,ID
4245,UFa2v-FmElnYeD4tnMz5aQ,b_UFa2v-FmElnYeD4tnMz5aQ,43.6086549,-116.1926999269,"43.6086549000,-116.1926999269",Carl's Jr,Boise,ID
4246,9Rq62YsocPdR1CHwUSXnvg,b_9Rq62YsocPdR1CHwUSXnvg,43.6153873,-116.2027168,"43.6153873000,-116.2027168000",Pita Pit,Boise,ID
4247,6fZWaWkvqrZNCxl_7PMDBg,b_6fZWaWkvqrZNCxl_7PMDBg,43.6407967488,-116.2085305605,"43.6407967488,-116.2085305605",Hawkins Pac-Out,Boise,ID
4248,UvkcB1iSZBdcJ-DE1z7YcQ,b_UvkcB1iSZBdcJ-DE1z7YcQ,43.5686216,-116.2218987,"43.5686216000,-116.2218987000",National Car Rental,Boise,ID
4249,b_3HJqXT-KerVsxcK__pSQ,b_b_3HJqXT-KerVsxcK__pSQ,43.6176092,-116.2078283,"43.6176092000,-116.2078283000",Owyhee Plaza Hotel,Boise,ID
4250,snTpO07JxjGhwJbE4RDFIA,b_snTpO07JxjGhwJbE4RDFIA,43.6146781,-116.2023897,"43.6146781000,-116.2023897000",Goldy's Breakfast Bistro,Boise,ID
4251,1KnmkIFa2gVwK4DavsqECA,b_1KnmkIFa2gVwK4DavsqECA,43.6167386,-116.2070272,"43.6167386000,-116.2070272000",Safari Inn Downtown,Boise,ID
4252,02_C-qiV1wJbT43mgx_F5Q,b_02_C-qiV1wJbT43mgx_F5Q,43.6163619,-116.2055328,"43.6163619000,-116.2055328000",Angell's Bar & Grill,Boise,ID
4253,YqoMDkuSbRPjzc39ty4PgA,b_YqoMDkuSbRPjzc39ty4PgA,43.6164418,-116.2021508,"43.6164418000,-116.2021508000",Mai Thai,Boise,ID
4254,GW8HQ6oJK1j5pqCATBE_Xw,b_GW8HQ6oJK1j5pqCATBE_Xw,43.6144295,-116.2018021,"43.6144295000,-116.2018021000",Main Street Bistro,Boise,ID
4255,9HUpW8t-GfzZbEmfX_kWYQ,b_9HUpW8t-GfzZbEmfX_kWYQ,43.61398,-116.203781,"43.6139800000,-116.2037810000",The Grove Hotel,Boise,ID
4256,7GSOAWAlmIvKdbAVFBL_Cw,b_7GSOAWAlmIvKdbAVFBL_Cw,43.6140706774,-116.2023421733,"43.6140706774,-116.2023421733",Bardenay Restaurant & Distillery - Boise,Boise,ID
4257,p0f4D374WNSAFq2izAHHvg,b_p0f4D374WNSAFq2izAHHvg,43.6140793,-116.2008879,"43.6140793000,-116.2008879000",Cactus Bar,Boise,ID
4258,uLM1kVK3-gYuUYkgnCoTyw,b_uLM1kVK3-gYuUYkgnCoTyw,43.59249,-116.1971303,"43.5924900000,-116.1971303000",Addie's,Boise,ID
4259,ffBF2vQBt2P32A1Yc1NMKQ,b_ffBF2vQBt2P32A1Yc1NMKQ,43.5772946,-116.1950085,"43.5772946000,-116.1950085000",Quik Wok,Boise,ID
4260,uL2ZXa2T9yOlmwtO2uUjRg,b_uL2ZXa2T9yOlmwtO2uUjRg,43.625756,-116.215092,"43.6257560000,-116.2150920000",Westside Drive-in,Boise,ID
4261,WD4pr7n-gqcYlyluI3J-Vw,b_WD4pr7n-gqcYlyluI3J-Vw,43.6194,-116.2558204,"43.6194000000,-116.2558204000",Kyoto Japanese Steak House,Boise,ID
4262,cda_2jhOS2UPS8Oj4gyvqg,b_cda_2jhOS2UPS8Oj4gyvqg,43.6167494,-116.2056361,"43.6167494000,-116.2056361000",La Vie En Rose,Boise,ID
4263,-M7aI9P2XG79_E0c3sN7gQ,b_-M7aI9P2XG79_E0c3sN7gQ,43.6170079,-116.2019627,"43.6170079000,-116.2019627000",Thomas Hammer Coffee Roasters,Boise,ID
4264,b9yo52xgvpwuWGIgOWFSdg,b_b9yo52xgvpwuWGIgOWFSdg,43.5796955,-116.2127005,"43.5796955000,-116.2127005000",Extended Stay America - Boise - Airport,Boise,ID
4265,jals67o91gcrD4DC81Vk6w,b_jals67o91gcrD4DC81Vk6w,43.6141873241,-116.1974678784,"43.6141873241,-116.1974678784",Idaho Central Credit Union,Boise,ID
4266,BWiPvVZv5fM5YGv0FX-swg,b_BWiPvVZv5fM5YGv0FX-swg,43.6179926,-116.2044116,"43.6179926000,-116.2044116000",Sturman's Smoke Shop,Boise,ID
4267,LCEiXJGTtu2dKre1RCcqYA,b_LCEiXJGTtu2dKre1RCcqYA,43.5873017,-116.2796598,"43.5873017000,-116.2796598000",Goodwood Barbecue Restaurant,Boise,ID
4268,9aFh5rYOg7CTtcMzLSN3RQ,b_9aFh5rYOg7CTtcMzLSN3RQ,43.592268,-116.281969,"43.5922680000,-116.2819690000",Lowe's Home Improvement,Boise,ID
4269,dN2Bg65U8AcPmKG1RSYYfw,b_dN2Bg65U8AcPmKG1RSYYfw,43.60465296,-116.28790379,"43.6046529600,-116.2879037900",Shari's - Boise,Boise,ID
4270,BN-t1ClpbFyJ5vOhJUrmQw,b_BN-t1ClpbFyJ5vOhJUrmQw,43.609401,-116.2859401,"43.6094010000,-116.2859401000",Fresh Off The Hook,Boise,ID
4271,3tf6oHkhN22mqFNMSPsZlQ,b_3tf6oHkhN22mqFNMSPsZlQ,43.6148150715,-116.1993270383,"43.6148150715,-116.1993270383",Flying M Coffeehouse,Boise,ID
4272,ltoSZQBHqENA1hO-hqwLtg,b_ltoSZQBHqENA1hO-hqwLtg,43.589049407,-116.2155748669,"43.5890494070,-116.2155748669",Albertsons,Boise,ID
4273,txUWPXPAGyfJZm3WsALcEg,b_txUWPXPAGyfJZm3WsALcEg,43.6154310165,-116.2038111373,"43.6154310165,-116.2038111373",Taters,Boise,ID
4274,mNEWPsCO8ARHEERFw8JREw,b_mNEWPsCO8ARHEERFw8JREw,43.6111082,-116.2050664,"43.6111082000,-116.2050664000",The Flicks: Rick's Cafe Americain,Boise,ID
4275,Q4-gXSZ6UWqR4lSHqfp7SQ,b_Q4-gXSZ6UWqR4lSHqfp7SQ,43.6180482,-116.206799,"43.6180482000,-116.2067990000",Record Exchange,Boise,ID
4276,35MHYWHCaM3GbBc_xBGmjA,b_35MHYWHCaM3GbBc_xBGmjA,43.603223,-116.272861,"43.6032230000,-116.2728610000",The Chef's Hut,Boise,ID
4277,kF89t83G376kVxW37m5pnQ,b_kF89t83G376kVxW37m5pnQ,43.6194174,-116.2625816,"43.6194174000,-116.2625816000",Flying Pie Pizzaria,Boise,ID
4278,RkpUjtq5xeTo6fZTlHG0GA,b_RkpUjtq5xeTo6fZTlHG0GA,43.5901435,-116.2539509,"43.5901435000,-116.2539509000",Big Bun Drive In,Boise,ID
4279,1-z7wd860Rii4kbEMCT8DA,b_1-z7wd860Rii4kbEMCT8DA,43.6163962,-116.2021057,"43.6163962000,-116.2021057000",Moon's Kitchen Cafe,Boise,ID
4280,Az8VRbXINCSzxDX5RctUGQ,b_Az8VRbXINCSzxDX5RctUGQ,43.6037812454,-116.2831595785,"43.6037812454,-116.2831595785",Cabela's,Boise,ID
4281,XnXVJtLSi7sNrSpmt1Y_Xw,b_XnXVJtLSi7sNrSpmt1Y_Xw,43.6169911,-116.2053433,"43.6169911000,-116.2053433000",10th Street Station,Boise,ID
4282,MX4_G40fUKCahLKe_ShgeA,b_MX4_G40fUKCahLKe_ShgeA,43.6163758,-116.2027508,"43.6163758000,-116.2027508000",Mongolian BBQ & Grill,Boise,ID
4283,jPqftT6V8XZ3zBSXGlhgqg,b_jPqftT6V8XZ3zBSXGlhgqg,43.5892563,-116.2678133,"43.5892563000,-116.2678133000",Cobby's Sandwich Shop,Boise,ID
4284,mabS8Eq8CLjMZdLl3V7GWA,b_mabS8Eq8CLjMZdLl3V7GWA,43.6150183,-116.1990435,"43.6150183000,-116.1990435000",Guido's Original New York Style Pizza Downtown,Boise,ID
4285,fhtqwbSZLUH1s2NK2Vabvw,b_fhtqwbSZLUH1s2NK2Vabvw,43.6228421,-116.1983638,"43.6228421000,-116.1983638000",Boise Co-op North End,Boise,ID
4286,jZ16PLnsC7LqvzYXIszfVw,b_jZ16PLnsC7LqvzYXIszfVw,43.6156073,-116.2035023,"43.6156073000,-116.2035023000",Brick Oven Bistro,Boise,ID
4287,SzXniO97CSOpeqCuukkOhA,b_SzXniO97CSOpeqCuukkOhA,43.6097418,-116.2064251,"43.6097418000,-116.2064251000",Boise Art Museum,Boise,ID
4288,vdj6udowibtegf8HDaU7lg,b_vdj6udowibtegf8HDaU7lg,43.6148346,-116.2050767,"43.6148346000,-116.2050767000",Alive After Five Concert Series,Boise,ID
4289,Uo1PnUEeLNQJ3dWVCUZ5CA,b_Uo1PnUEeLNQJ3dWVCUZ5CA,43.6424422,-116.2087047,"43.6424422000,-116.2087047000",Highlands Hollow Brewhouse,Boise,ID
4290,PwcYNxBGzefCM1ofAMZJ9Q,b_PwcYNxBGzefCM1ofAMZJ9Q,43.6219161,-116.2065136,"43.6219161000,-116.2065136000",DK Donuts,Boise,ID
4291,9Oj3cUQuEn46-o7H6wxA-Q,b_9Oj3cUQuEn46-o7H6wxA-Q,43.5963245,-116.2139428,"43.5963245000,-116.2139428000",Bad Boy Burgers,Boise,ID
4292,z_nmpfBHN9XPEGrXAhEKLg,b_z_nmpfBHN9XPEGrXAhEKLg,43.56867,-116.22211,"43.5686700000,-116.2221100000",Avis Car Rental,Boise,ID
4293,YXzjKRIDsrihKyn2NWnVMQ,b_YXzjKRIDsrihKyn2NWnVMQ,43.572574,-116.218251,"43.5725740000,-116.2182510000",Fairfield Inn by Marriott Boise,Boise,ID
4294,IIpnIM1Wuf3oE9aqPeodew,b_IIpnIM1Wuf3oE9aqPeodew,43.6620287,-116.3372137,"43.6620287000,-116.3372137000",Top Wok,Boise,ID
4295,2ZQTuSd7CTclZqF6BH5D3A,b_2ZQTuSd7CTclZqF6BH5D3A,43.662438,-116.335352,"43.6624380000,-116.3353520000",SpringHill Suites Boise West/Eagle,Boise,ID
4296,ynIvlvZWjKpkXaPwtHYn2A,b_ynIvlvZWjKpkXaPwtHYn2A,43.6154803,-116.2007019,"43.6154803000,-116.2007019000",The Old Spaghetti Factory,Boise,ID
4297,5C5v40wpZMYKBFvRJFD_pg,b_5C5v40wpZMYKBFvRJFD_pg,43.5888972523,-116.2776007131,"43.5888972523,-116.2776007131",Guang Zhou,Boise,ID
4298,rfVdpW6TE_xFcBzta8oE6g,b_rfVdpW6TE_xFcBzta8oE6g,43.589176,-116.277838,"43.5891760000,-116.2778380000","Regal Edwards Boise IMAX, 4DX & ScreenX",Boise,ID
4299,pyJF2Kb_uuYoHqpP2xfXTA,b_pyJF2Kb_uuYoHqpP2xfXTA,43.60841,-116.2782,"43.6084100000,-116.2782000000",Boise Towne Square,Boise,ID
4300,LsyOm7TrgNCPJ6xmHAYWyw,b_LsyOm7TrgNCPJ6xmHAYWyw,43.6189401,-116.2827789,"43.6189401000,-116.2827789000",ROMiÓS Greek and Italian Restaurant,Boise,ID
4301,iABZcR1D-bW7M02OtrYGkQ,b_iABZcR1D-bW7M02OtrYGkQ,43.633598,-116.2961895,"43.6335980000,-116.2961895000",The Cat Doctor Veterinary Hospital & Hotel,Boise,ID
4302,mUhdrtcDU9ane-kaxMHlWA,b_mUhdrtcDU9ane-kaxMHlWA,43.6071322,-116.2785123,"43.6071322000,-116.2785123000",The Cheesecake Factory,Boise,ID
4303,xArHBES2aOKasqgbxXOGxQ,b_xArHBES2aOKasqgbxXOGxQ,43.6107992,-116.2436899601,"43.6107992000,-116.2436899601",Tangos Empanadas,Boise,ID
4304,HjLYCBxJti8V-hsP_yVZ3w,b_HjLYCBxJti8V-hsP_yVZ3w,43.6161949628,-116.2027077,"43.6161949628,-116.2027077000",Taj Mahal Homestyle Indian & Pakistani Cuisine,Boise,ID
4305,qgbOfiHT_-S74ci6wpZQIw,b_qgbOfiHT_-S74ci6wpZQIw,43.6171,-116.202323,"43.6171000000,-116.2023230000",Zeppole Downtown Cafe,Boise,ID
4306,fN36I-dXUjXCEgDKRi2hjg,b_fN36I-dXUjXCEgDKRi2hjg,43.6105116,-116.329738,"43.6105116000,-116.3297380000",Treasure Valley Coffee - Boise,Boise,ID
4307,i8u6G-4FdqejdKp6hDUhow,b_i8u6G-4FdqejdKp6hDUhow,43.654901,-116.258005,"43.6549010000,-116.2580050000",River City Coffee & Cafe,Boise,ID
4308,-m2ucc0kb_S1-Y4J149AQw,b_-m2ucc0kb_S1-Y4J149AQw,43.6590216,-116.34215,"43.6590216000,-116.3421500000",West Boise YMCA and Boise City Aquatic Center,Boise,ID
4309,yBUHUbl6jfkao8EIexrqUA,b_yBUHUbl6jfkao8EIexrqUA,43.618036,-116.311563,"43.6180360000,-116.3115630000",Savers,Boise,ID
4310,xYHkgePR2RY-QfDxU4nZAg,b_xYHkgePR2RY-QfDxU4nZAg,43.6151855,-116.2860501,"43.6151855000,-116.2860501000",Cost Plus World Market,Boise,ID
4311,QtgubTRRFHtEL_fmsMQRCg,b_QtgubTRRFHtEL_fmsMQRCg,43.6073753,-116.2849968,"43.6073753000,-116.2849968000",Fujiyama,Boise,ID
4312,nwjW76lAuoFmAPo7F1aGjQ,b_nwjW76lAuoFmAPo7F1aGjQ,43.6221399,-116.2081399,"43.6221399000,-116.2081399000",World Cycle & XC Ski,Boise,ID
4313,SkVCtT6pVocxQKiSkmx5aQ,b_SkVCtT6pVocxQKiSkmx5aQ,43.5895519072,-116.3121759386,"43.5895519072,-116.3121759386",MacLife Boise Apple Premier Partner,Boise,ID
4314,49ES_VGv2UlXCFe2m466hQ,b_49ES_VGv2UlXCFe2m466hQ,43.6112459,-116.2065538,"43.6112459000,-116.2065538000",TableRock Brewpub,Boise,ID
4315,5in65oQ8raShdBAqiCLx1w,b_5in65oQ8raShdBAqiCLx1w,43.6167284,-116.202654,"43.6167284000,-116.2026540000",Pie Hole Pizza,Boise,ID
4316,hTL8J3fSb0ijEabyRxSoHg,b_hTL8J3fSb0ijEabyRxSoHg,43.61704,-116.20593,"43.6170400000,-116.2059300000",Zen Bento,Boise,ID
4317,-Cof8kRTgMxEESOqBBTE-A,b_-Cof8kRTgMxEESOqBBTE-A,43.5869896146,-116.2773571909,"43.5869896146,-116.2773571909",Hilton Garden Inn Boise Spectrum,Boise,ID
4318,6ggPL1Q7tG4dBZ5VKVs6Ew,b_6ggPL1Q7tG4dBZ5VKVs6Ew,43.61907,-116.213142,"43.6190700000,-116.2131420000",Donnie Mac's Trailer Park Cuisine,Boise,ID
4319,6djwQL1FOoe0SZONQHjhrw,b_6djwQL1FOoe0SZONQHjhrw,43.6155352,-116.2064158,"43.6155352000,-116.2064158000",Chandlers,Boise,ID
4320,-scgd9e7qe2166WscovmoA,b_-scgd9e7qe2166WscovmoA,43.5896278,-116.3137075,"43.5896278000,-116.3137075000",Walgreens,Boise,ID
4321,bzvxt0sP9OMwwks1vLSzKw,b_bzvxt0sP9OMwwks1vLSzKw,43.6068908,-116.2814285,"43.6068908000,-116.2814285000",Cafe Ole,Boise,ID
4322,W09zzFvE2vTwwPvgs0SMcg,b_W09zzFvE2vTwwPvgs0SMcg,43.5881664,-116.2758465,"43.5881664000,-116.2758465000",McGrath's Fish House,Boise,ID
4323,HQYVne0Dw5GhE0haAXwRNA,b_HQYVne0Dw5GhE0haAXwRNA,43.5963896935,-116.2130781522,"43.5963896935,-116.2130781522",Yokozuna Teriyaki,Boise,ID
4324,cY8IE8aKxnCAS3RqDYXIKg,b_cY8IE8aKxnCAS3RqDYXIKg,43.6641094,-116.2719911,"43.6641094000,-116.2719911000",Merritt's Family Restaurant,Boise,ID
4325,qQCJyOC7GmOqnpoFz4WDCA,b_qQCJyOC7GmOqnpoFz4WDCA,43.617192,-116.207032,"43.6171920000,-116.2070320000",DV 8 Salon,Boise,ID
4326,WnClhWcKwtrUD1U0cDhDgg,b_WnClhWcKwtrUD1U0cDhDgg,43.5817536,-116.2143097,"43.5817536000,-116.2143097000",Raw Sushi,Boise,ID
4327,NvmCO5xNbN41IRN5mxXUEg,b_NvmCO5xNbN41IRN5mxXUEg,43.5816698875,-116.2142678319,"43.5816698875,-116.2142678319",Willowcreek Grill & Raw Sushi Restaurant,Boise,ID
4328,jJ2tHIwMJkUTGJpATeR5gg,b_jJ2tHIwMJkUTGJpATeR5gg,43.5740087,-116.1555364,"43.5740087000,-116.1555364000",Flatbread Neapolitan Pizzeria,Boise,ID
4329,i9S34Jvd1Ijblm0TrnCVqQ,b_i9S34Jvd1Ijblm0TrnCVqQ,43.6108401187,-116.2100964169,"43.6108401187,-116.2100964169",Cottonwood Grille,Boise,ID
4330,3SM8CZuY5MiAruczCm556w,b_3SM8CZuY5MiAruczCm556w,43.5975838,-116.1836927,"43.5975838000,-116.1836927000",Barbacoa Grill,Boise,ID
4331,KXGJZQam4Qa9omxMH1U3JQ,b_KXGJZQam4Qa9omxMH1U3JQ,43.6154039891,-116.202172855,"43.6154039891,-116.2021728550",Tony's Pizzeria Teatro,Boise,ID
4332,hmb-FWyN9Cx-zL_aroSpiw,b_hmb-FWyN9Cx-zL_aroSpiw,43.6160479,-116.2010853,"43.6160479000,-116.2010853000",Le Cafe De Paris,Boise,ID
4333,g9Kjz2jJ20WGdhfqZeIgCQ,b_g9Kjz2jJ20WGdhfqZeIgCQ,43.6171131,-116.2023786,"43.6171131000,-116.2023786000",Dawson Taylor - Downtown,Boise,ID
4334,GmW-5fK83_94T0BGKAB2ZA,b_GmW-5fK83_94T0BGKAB2ZA,43.6145216,-116.2003933,"43.6145216000,-116.2003933000",Jenny's Lunch Line,Boise,ID
4335,5IuNk11gNgjlhqEZHtNGNg,b_5IuNk11gNgjlhqEZHtNGNg,43.6144271,-116.2011439,"43.6144271000,-116.2011439000",Pair Restaurant,Boise,ID
4336,eMmFlU2RHe-RCBe05n8GHA,b_eMmFlU2RHe-RCBe05n8GHA,43.5900529,-116.229852,"43.5900529000,-116.2298520000",Rockie's Diner,Boise,ID
4337,ouqfnrUwbfsVMIPV4u1U2w,b_ouqfnrUwbfsVMIPV4u1U2w,43.6044424,-116.1926761,"43.6044424000,-116.1926761000",Ram Restaurant & Brewery,Boise,ID
4338,Iv_Og5RJk3WEHwd4Ci5cUw,b_Iv_Og5RJk3WEHwd4Ci5cUw,43.6169407,-116.2026035,"43.6169407000,-116.2026035000",Cazba,Boise,ID
4339,EIZqu00QKPjOxoQCGFJglg,b_EIZqu00QKPjOxoQCGFJglg,43.6200026,-116.204843,"43.6200026000,-116.2048430000",Lock Stock & Barrel,Boise,ID
4340,YCrlaAAwOadwtd9W0cH6zg,b_YCrlaAAwOadwtd9W0cH6zg,43.618021,-116.204341,"43.6180210000,-116.2043410000",The Fixx,Boise,ID
4341,ugubnQSdlQOGyyBMx7a_Vw,b_ugubnQSdlQOGyyBMx7a_Vw,43.5685269,-116.1210895,"43.5685269000,-116.1210895000",Lucky 13,Boise,ID
4342,qjVvna_3jC8XZysovMGKIg,b_qjVvna_3jC8XZysovMGKIg,43.6180626,-116.2023987,"43.6180626000,-116.2023987000",Graeber & Company Salon and Spa,Boise,ID
4343,LD-IB5vYI18lEA-QlKY6tA,b_LD-IB5vYI18lEA-QlKY6tA,43.6225938,-116.2076002,"43.6225938000,-116.2076002000",Fanci Freez,Boise,ID
4344,zTZTx7_vhdvGk8bBe3vd3w,b_zTZTx7_vhdvGk8bBe3vd3w,43.6669169,-116.2751858,"43.6669169000,-116.2751858000",Madhuban Indian Cuisine,Boise,ID
4345,2XB1E3iB-F8Da-uc81n-uQ,b_2XB1E3iB-F8Da-uc81n-uQ,43.6135563294,-116.2068776325,"43.6135563294,-116.2068776325",Bonefish Grill,Boise,ID
4346,BmICZLFCPswY5egUK9ingg,b_BmICZLFCPswY5egUK9ingg,43.608235,-116.278618,"43.6082350000,-116.2786180000",Aladdin Egyptian Cuisine,Boise,ID
4347,JgcvaSM05Lj7Mumgb5w0FA,b_JgcvaSM05Lj7Mumgb5w0FA,43.6180705,-116.2031724,"43.6180705000,-116.2031724000",Yen Ching,Boise,ID
4348,ImhksfH_GByuzCJScbZPzA,b_ImhksfH_GByuzCJScbZPzA,43.5940851,-116.2128761,"43.5940851000,-116.2128761000",Reel Foods Fish Market & Oyster Bar,Boise,ID
4349,ELGdPtyfE_zC10VYc6Zskw,b_ELGdPtyfE_zC10VYc6Zskw,43.5977868,-116.205657,"43.5977868000,-116.2056570000",Big Jud's,Boise,ID
4350,7zzSq-37WyMeSRrN8-zd6Q,b_7zzSq-37WyMeSRrN8-zd6Q,43.595406,-116.193503,"43.5954060000,-116.1935030000",Taco Bell,Boise,ID
4351,AnBCHaZtRT8B2U9D3AtXbg,b_AnBCHaZtRT8B2U9D3AtXbg,43.5742164,-116.1553118,"43.5742164000,-116.1553118000",Tavern At Bown Crossing,Boise,ID
4352,ILA1uAisc9rS-yN2WIjV3A,b_ILA1uAisc9rS-yN2WIjV3A,43.603723,-116.204699,"43.6037230000,-116.2046990000",Boise State University,Boise,ID
4353,E0pfH_LvYGHjCM8y8TsgmA,b_E0pfH_LvYGHjCM8y8TsgmA,43.6167398,-116.2039233,"43.6167398000,-116.2039233000",Fancy Pants,Boise,ID
4354,Ccoq-XzvcRmU_MYBPuY1Vg,b_Ccoq-XzvcRmU_MYBPuY1Vg,43.6130304,-116.2054669,"43.6130304000,-116.2054669000",Cafe'ole'restaurants,Boise,ID
4355,BXiNbr6rK6HJEXLC-vJ3xw,b_BXiNbr6rK6HJEXLC-vJ3xw,43.6294955,-116.2035474,"43.6294955000,-116.2035474000",Hyde Park Pub & Grill,Boise,ID
4356,F5tx2jGpXewKTxcRDAFaoA,b_F5tx2jGpXewKTxcRDAFaoA,43.620132,-116.312551,"43.6201320000,-116.3125510000",China Grand Buffet,Boise,ID
4357,NUAMLuWJpNNxS8w6ih23pA,b_NUAMLuWJpNNxS8w6ih23pA,43.6370243572,-116.2300499983,"43.6370243572,-116.2300499983",Maz-Tech Automotive,Boise,ID
4358,0IHBQ3G-E3IJFaDSXpLlBQ,b_0IHBQ3G-E3IJFaDSXpLlBQ,43.6164331,-116.2023935,"43.6164331000,-116.2023935000",Pollo Rey Mexican Rotisserie,Boise,ID
4359,5-HsdtO1r_9a3aqfwqy3BQ,b_5-HsdtO1r_9a3aqfwqy3BQ,43.6184989,-116.2106529,"43.6184989000,-116.2106529000",Modern Hotel,Boise,ID
4360,fiCL0hm0we0CwrCgqcdGxA,b_fiCL0hm0we0CwrCgqcdGxA,43.6158307,-116.2523631,"43.6158307000,-116.2523631000",Idaho Statesman,Boise,ID
4361,uhYIm8v-y22avn9IIkPsTg,b_uhYIm8v-y22avn9IIkPsTg,43.6188602,-116.2631618,"43.6188602000,-116.2631618000",Los Mariachis,Boise,ID
4362,SPGFnlX6szNW-tfvy04RBw,b_SPGFnlX6szNW-tfvy04RBw,43.6160672,-116.2026668,"43.6160672000,-116.2026668000",Shige Japanese Cuisine,Boise,ID
4363,1ku-qpLXJLLf7jvp8SF1yA,b_1ku-qpLXJLLf7jvp8SF1yA,43.6168442,-116.2023035,"43.6168442000,-116.2023035000",Mesa Taqueria,Boise,ID
4364,pDo76a2t94988yqfaMWeBQ,b_pDo76a2t94988yqfaMWeBQ,43.6306846,-116.2031298,"43.6306846000,-116.2031298000",Java Coffee & Café,Boise,ID
4365,bSAdf5-Rup-ywsGTjaOSPQ,b_bSAdf5-Rup-ywsGTjaOSPQ,43.615552,-116.20647,"43.6155520000,-116.2064700000",Hotel 43,Boise,ID
4366,HR20EdOKyZ-lIjWv_2JJRQ,b_HR20EdOKyZ-lIjWv_2JJRQ,43.613843,-116.2054666,"43.6138430000,-116.2054666000",Proto's Pizza,Boise,ID
4367,LJbuxCLMDDw6Zgo1ZHU45w,b_LJbuxCLMDDw6Zgo1ZHU45w,43.6169785,-116.2045122,"43.6169785000,-116.2045122000",Berryhill & Co,Boise,ID
4368,7l6EfW2MU0IGY2w6heSO4w,b_7l6EfW2MU0IGY2w6heSO4w,43.610131,-116.193792,"43.6101310000,-116.1937920000",Dong Khanh Vietnamese Restaurant,Boise,ID
4369,y9MxM_-xjrQWD0WUnf_1jw,b_y9MxM_-xjrQWD0WUnf_1jw,43.6071978,-116.2439151,"43.6071978000,-116.2439151000",Sono Bana,Boise,ID
4370,4vmLw6WYQDpubW9yAGLEZA,b_4vmLw6WYQDpubW9yAGLEZA,43.620011,-116.212756,"43.6200110000,-116.2127560000",The Red Room,Boise,ID
4371,R_eXVjWKjlrf_HjJpmFmdg,b_R_eXVjWKjlrf_HjJpmFmdg,43.5901321,-116.2390465,"43.5901321000,-116.2390465000",Andrade's Restaurante Mexicano,Boise,ID
4372,2SVykxI_KVFiHQYpLfmU3g,b_2SVykxI_KVFiHQYpLfmU3g,43.6055005,-116.2121942,"43.6055005000,-116.2121942000",Papa Joe's Italian Restaurant and Bar,Boise,ID
4373,pIk9nQottFBg8hlwdJyqmg,b_pIk9nQottFBg8hlwdJyqmg,43.6048875,-116.2813392,"43.6048875000,-116.2813392000",Vietnamese Restaurant,Boise,ID
4374,FbzFYmJnWdniR4uDPk4zjA,b_FbzFYmJnWdniR4uDPk4zjA,43.613142,-116.207069,"43.6131420000,-116.2070690000",The Knitting Factory,Boise,ID
4375,-R9t30RvsG-Rtiq63yuEmg,b_-R9t30RvsG-Rtiq63yuEmg,43.6033677673,-116.2500630319,"43.6033677673,-116.2500630319",Crescent No Lawyers Bar-Grill,Boise,ID
4376,fPrMion5qXXhauWaBk4-KQ,b_fPrMion5qXXhauWaBk4-KQ,43.6152649,-116.1999433,"43.6152649000,-116.1999433000",The Melting Pot - Boise,Boise,ID
4377,tdiFlIfWn1kpqY-E_0zS0A,b_tdiFlIfWn1kpqY-E_0zS0A,43.6209861,-116.2171985,"43.6209861000,-116.2171985000",Twin Dragon,Boise,ID
4378,GQ02_oRMC1PCK-dhB2J2Lw,b_GQ02_oRMC1PCK-dhB2J2Lw,43.6331992,-116.2258006,"43.6331992000,-116.2258006000",Black Cat Tattoo,Boise,ID
4379,S8oH_nYmx9w0-cTGFRuB5g,b_S8oH_nYmx9w0-cTGFRuB5g,43.6220244,-116.1981391,"43.6220244000,-116.1981391000",Jim's Coffee Shop,Boise,ID
4380,t6n3wv1VtZpp7HD4ouWonw,b_t6n3wv1VtZpp7HD4ouWonw,43.6687298,-116.2797033,"43.6687298000,-116.2797033000",Pizzalchik,Boise,ID
4381,GbmBEJZ38EpeYMn9kbg4wA,b_GbmBEJZ38EpeYMn9kbg4wA,43.5913214,-116.2377402,"43.5913214000,-116.2377402000",The Reel Theatre,Boise,ID
4382,vtPgmaZYrqyAeW1dilpLxw,b_vtPgmaZYrqyAeW1dilpLxw,43.6406505,-116.2357594,"43.6406505000,-116.2357594000",Viking Drive In,Boise,ID
4383,3LCIlNi_61V3mEGVs4IRqA,b_3LCIlNi_61V3mEGVs4IRqA,43.6134193,-116.2067229,"43.6134193000,-116.2067229000",Ha' Penny Bridge Pub,Boise,ID
4384,VU9SakCAsp1R0TtqpA19vA,b_VU9SakCAsp1R0TtqpA19vA,43.592417,-116.1969753,"43.5924170000,-116.1969753000",Chef Roland's Cajun Cuisine,Boise,ID
4385,CjHth_OR7KJRSKZpjtWAvw,b_CjHth_OR7KJRSKZpjtWAvw,43.5902791,-116.2033224,"43.5902791000,-116.2033224000",Shangri-La Tea & Vegetarian Cafe,Boise,ID
4386,F_5ekwl8uEf8VgYxwKmqYw,b_F_5ekwl8uEf8VgYxwKmqYw,43.6193511,-116.2513244,"43.6193511000,-116.2513244000",Great Harvest Bread Co,Boise,ID
4387,_Tu8gGnttqDa23rb_CNE0g,b__Tu8gGnttqDa23rb_CNE0g,43.5852978,-116.1925606,"43.5852978000,-116.1925606000",Wok King Chinese Resturant,Boise,ID
4388,tut2mMplmMl8VLRw1kPKTA,b_tut2mMplmMl8VLRw1kPKTA,43.6129603293,-116.2062268588,"43.6129603293,-116.2062268588",Buns in the Oven,Boise,ID
4389,VgNo6Wttgq9NDdjXZSjnrw,b_VgNo6Wttgq9NDdjXZSjnrw,43.5442365,-116.3367641,"43.5442365000,-116.3367641000",Boise Ranch Golf Course,Boise,ID
4390,sxx4KozLiedkxZ79U9W5qQ,b_sxx4KozLiedkxZ79U9W5qQ,43.6189020663,-116.2119108193,"43.6189020663,-116.2119108193",Big City Coffee,Boise,ID
4391,lO2ResGaRljPnvLhLlQSSg,b_lO2ResGaRljPnvLhLlQSSg,43.6075498512,-116.279019504,"43.6075498512,-116.2790195040",Old Chicago Pizza & Taproom,Boise,ID
4392,EsmLhH23dDXcpK2432QZBg,b_EsmLhH23dDXcpK2432QZBg,43.5896486641,-116.2165886842,"43.5896486641,-116.2165886842",Panda Garden,Boise,ID
4393,88QS4sxxFXhiC-o4Bi_VmQ,b_88QS4sxxFXhiC-o4Bi_VmQ,43.5962625,-116.2129703,"43.5962625000,-116.2129703000",Lee's Candies,Boise,ID
4394,eFwFIh7olBwMHQ6ByoRH-Q,b_eFwFIh7olBwMHQ6ByoRH-Q,43.629425,-116.203008,"43.6294250000,-116.2030080000",Goody's Soda Fountain & Candy Store,Boise,ID
4395,tAv_5GiXTzw7277C7MHr-Q,b_tAv_5GiXTzw7277C7MHr-Q,43.5892999,-116.267515,"43.5892999000,-116.2675150000",Cancun Mexican Restaurant,Boise,ID
4396,Oxg3c1yliPYbcdMc62giDA,b_Oxg3c1yliPYbcdMc62giDA,43.5895554,-116.2431527,"43.5895554000,-116.2431527000",Raedeans Restaurant,Boise,ID
4397,UaNKZ_8D4ib8UOJg2WIXBA,b_UaNKZ_8D4ib8UOJg2WIXBA,43.5907063,-116.3161664,"43.5907063000,-116.3161664000",Hooligans Pub,Boise,ID
4398,n2m8q0S11Y1wRPV3-7Sl-A,b_n2m8q0S11Y1wRPV3-7Sl-A,43.6149038,-116.1969133,"43.6149038000,-116.1969133000",Chicago Connection - Downtown,Boise,ID
4399,GaqcV1K44cTmrtOGYBmrpw,b_GaqcV1K44cTmrtOGYBmrpw,43.590545,-116.3069319,"43.5905450000,-116.3069319000",Pad Thai House,Boise,ID
4400,oY5EIvb0WZ_4qwioC1eXsw,b_oY5EIvb0WZ_4qwioC1eXsw,43.60857899,-116.1925623686,"43.6085789900,-116.1925623686",Deli George,Boise,ID
4401,vm-0mL8lFKWepPqeZO0ehQ,b_vm-0mL8lFKWepPqeZO0ehQ,43.668941,-116.279493,"43.6689410000,-116.2794930000",Pho 79,Boise,ID
4402,nrFmQUHZQVCsrg1mue0_DA,b_nrFmQUHZQVCsrg1mue0_DA,43.613671298,-116.2057372928,"43.6136712980,-116.2057372928",P.F. Chang's,Boise,ID
4403,eImfyrAqORxZ_tDrJW7ctA,b_eImfyrAqORxZ_tDrJW7ctA,43.6428326,-116.2400029,"43.6428326000,-116.2400029000",The Lift Bar & Grill,Boise,ID
4404,yxihnhu-Jg-W45cgQ-lvPQ,b_yxihnhu-Jg-W45cgQ-lvPQ,43.646081,-116.2435171,"43.6460810000,-116.2435171000",44 Club,Boise,ID
4405,rEyTFs9o-xdXR-DMCLBiyg,b_rEyTFs9o-xdXR-DMCLBiyg,43.645586,-116.2426074,"43.6455860000,-116.2426074000",Flying Pie Pizzaria,Boise,ID
4406,w4fj_WNZpESDPf7hQxjvYw,b_w4fj_WNZpESDPf7hQxjvYw,43.6251437,-116.2124469,"43.6251437000,-116.2124469000",North End Chinese Rest,Boise,ID
4407,byDF67_RYSmIOuQlwAD5KA,b_byDF67_RYSmIOuQlwAD5KA,43.5898219,-116.2661422,"43.5898219000,-116.2661422000",Thai Cuisine,Boise,ID
4408,vhbTu2x_1MK6pLRInyBA_A,b_vhbTu2x_1MK6pLRInyBA_A,43.6379867,-116.2334629,"43.6379867000,-116.2334629000",The Dutch Goose,Boise,ID
4409,9d0gEJEMVjy8UVlDg-yylw,b_9d0gEJEMVjy8UVlDg-yylw,43.6163285,-116.2024838,"43.6163285000,-116.2024838000",Superb Sushi,Boise,ID
4410,neo3yvjRuRCp9tyq2DahUA,b_neo3yvjRuRCp9tyq2DahUA,43.6149037,-116.2427695,"43.6149037000,-116.2427695000",Golden Star Restaurant,Boise,ID
4411,DCeJCt69MiPfGb0Bmvb_Kg,b_DCeJCt69MiPfGb0Bmvb_Kg,43.6303082,-116.2035069,"43.6303082000,-116.2035069000",Casa Mexico,Boise,ID
4412,h4Xe1hMqUtJbh5fjwt0PhA,b_h4Xe1hMqUtJbh5fjwt0PhA,43.615324,-116.202371,"43.6153240000,-116.2023710000",Egyptian Theatre,Boise,ID
4413,1TK1Kbh-_PWLDXt6UfmnEw,b_1TK1Kbh-_PWLDXt6UfmnEw,43.6547947624,-116.2346221058,"43.6547947624,-116.2346221058",36th Street Bistro,Boise,ID
4414,7bLzkndhqE6ap3WEsn7fSg,b_7bLzkndhqE6ap3WEsn7fSg,43.5962572096,-116.1771908692,"43.5962572096,-116.1771908692",Mazzah Mediterranean Grill,Boise,ID
4415,i202SYn9_9i3-n8lmoQpsA,b_i202SYn9_9i3-n8lmoQpsA,43.5713324,-116.1914343,"43.5713324000,-116.1914343000",Camp Bow Wow Boise,Boise,ID
4416,rCj8otDGv7FxglMpeLczsw,b_rCj8otDGv7FxglMpeLczsw,43.6350075,-116.2266119,"43.6350075000,-116.2266119000",Fireside Inn,Boise,ID
4417,AIuczSOGI3zX0kwGxtPApg,b_AIuczSOGI3zX0kwGxtPApg,43.6137667,-116.283518,"43.6137667000,-116.2835180000",Romano's Macaroni Grill,Boise,ID
4418,mu6WYU41XocrLaPsH8y73g,b_mu6WYU41XocrLaPsH8y73g,43.6206843,-116.2854257,"43.6206843000,-116.2854257000",WinCo Foods,Boise,ID
4419,BZNqCyMhZJREF8rfmrZ2bA,b_BZNqCyMhZJREF8rfmrZ2bA,43.6091544213,-116.2857861444,"43.6091544213,-116.2857861444",Bangkok Thai Restaurant,Boise,ID
4420,4r4eZQBqks0Ky_OHK-LU7Q,b_4r4eZQBqks0Ky_OHK-LU7Q,43.6170470336,-116.2054670141,"43.6170470336,-116.2054670141",Bombay Grill,Boise,ID
4421,WfPmZ9hp50ttugTVgfcPpA,b_WfPmZ9hp50ttugTVgfcPpA,43.6433577229,-116.2061858995,"43.6433577229,-116.2061858995",Lulu's Pizza,Boise,ID
4422,aL5o2BTmPPP08OJ4I8Zlww,b_aL5o2BTmPPP08OJ4I8Zlww,43.6433455,-116.205912,"43.6433455000,-116.2059120000",Superb Sushi,Boise,ID
4423,f-lbFlvS49k9xZMN682pBQ,b_f-lbFlvS49k9xZMN682pBQ,43.625160932,-116.2112475022,"43.6251609320,-116.2112475022",Mazzah Mediterranean Grill,Boise,ID
4424,jNbGTU9RJ_HK-O3tdo3hKA,b_jNbGTU9RJ_HK-O3tdo3hKA,43.6052972,-116.192646,"43.6052972000,-116.1926460000",Pat's Thai Kitchen,Boise,ID
4425,f8o-iwmbIcg7UlRYhpfeEw,b_f8o-iwmbIcg7UlRYhpfeEw,43.5917067,-116.1931961,"43.5917067000,-116.1931961000",Broadway Bar Boise,Boise,ID
4426,LqaIFNWnwmy3PInuBDpAxg,b_LqaIFNWnwmy3PInuBDpAxg,43.632317,-116.2248715,"43.6323170000,-116.2248715000",Amigos Mexican Restaurant,Boise,ID
4427,07pYa1VC6TC70Fhe30s4PA,b_07pYa1VC6TC70Fhe30s4PA,43.6184242,-116.2507337,"43.6184242000,-116.2507337000",Mor Furniture for Less,Boise,ID
4428,tCKx9bkvughZdZK4vbiJ1w,b_tCKx9bkvughZdZK4vbiJ1w,43.6165534,-116.2049188,"43.6165534000,-116.2049188000",Alia's Coffee House,Boise,ID
4429,ZxnLTULBWGs8cC6xtY6yrQ,b_ZxnLTULBWGs8cC6xtY6yrQ,43.5791529,-116.175362,"43.5791529000,-116.1753620000",Siam Thai Restaurant,Boise,ID
4430,kBix8suuT2mbFnmVaiAD2Q,b_kBix8suuT2mbFnmVaiAD2Q,43.5924137,-116.2803994,"43.5924137000,-116.2803994000",Tucanos Brazilian Grill,Boise,ID
4431,HrAbUEQur4bK93ekUrHcww,b_HrAbUEQur4bK93ekUrHcww,43.6132915,-116.2558421,"43.6132915000,-116.2558421000",Saint Alphonsus Regional Medical Center - Boise,Boise,ID
4432,o0S-a4UKwWKislhyFsHKjA,b_o0S-a4UKwWKislhyFsHKjA,43.5961078,-116.1930839,"43.5961078000,-116.1930839000",Busters Restaurant,Boise,ID
4433,tNPX0ck7Hj6RchtICfF-Kg,b_tNPX0ck7Hj6RchtICfF-Kg,43.5908727,-116.2901825,"43.5908727000,-116.2901825000",Lucky Palace Chinese Restaurant,Boise,ID
4434,izTharKlAOpbSB84anaZ9g,b_izTharKlAOpbSB84anaZ9g,43.589781,-116.2804054,"43.5897810000,-116.2804054000",Chuck-A-Rama Buffet,Boise,ID
4435,EWPWK3aLsBRfXjeW7alaeg,b_EWPWK3aLsBRfXjeW7alaeg,43.612539137,-116.2052035332,"43.6125391370,-116.2052035332",Hampton Inn & Suites Boise-Downtown,Boise,ID
4436,Nf5Y8HxkN0YJlNAgTVC9UQ,b_Nf5Y8HxkN0YJlNAgTVC9UQ,43.6610251947,-116.2665980228,"43.6610251947,-116.2665980228",Hendricks Veterinary Hospital,Boise,ID
4437,qQtUsFWfgUsEu2kfaDoJLQ,b_qQtUsFWfgUsEu2kfaDoJLQ,43.5902869,-116.2599634,"43.5902869000,-116.2599634000",Meats Royale,Boise,ID
4438,THwTsxpoOmEn4j_RZ562xg,b_THwTsxpoOmEn4j_RZ562xg,43.6257155,-116.2092431,"43.6257155000,-116.2092431000",North End Dental,Boise,ID
4439,Rj8lnQml-zgEM8i50f1Vgw,b_Rj8lnQml-zgEM8i50f1Vgw,43.612829,-116.244027,"43.6128290000,-116.2440270000",Atkinson's Mirror & Glass,Boise,ID
4440,Kav5nlReVbPgQf7IfC5oLA,b_Kav5nlReVbPgQf7IfC5oLA,43.6157759,-116.2029378,"43.6157759000,-116.2029378000",The Piper Pub & Grill,Boise,ID
4441,7AkkPs8k-GApX8BwN1es7A,b_7AkkPs8k-GApX8BwN1es7A,43.6324386348,-116.2747420276,"43.6324386348,-116.2747420276",Sockeye Brewing,Boise,ID
4442,MLAElwGFXThzlMP1vJ1gNQ,b_MLAElwGFXThzlMP1vJ1gNQ,43.602805,-116.1619611,"43.6028050000,-116.1619611000",Old Idaho Penitentiary,Boise,ID
4443,Ek4C_6b5alhLBl74XNGmSA,b_Ek4C_6b5alhLBl74XNGmSA,43.6104584,-116.2078634,"43.6104584000,-116.2078634000",Boise Public Library,Boise,ID
4444,yU_Va4v79Lk8-zhO7-ANmg,b_yU_Va4v79Lk8-zhO7-ANmg,43.5812528,-116.1733747,"43.5812528000,-116.1733747000",Blue Cow Frozen Yogurt,Boise,ID
4445,PUJWUiEGUbchHwraIK2bRQ,b_PUJWUiEGUbchHwraIK2bRQ,43.6187625,-116.2604076,"43.6187625000,-116.2604076000",Zamzows,Boise,ID
4446,u-qhr1McUDRpAFAqAKSJzQ,b_u-qhr1McUDRpAFAqAKSJzQ,43.648119,-116.346022,"43.6481190000,-116.3460220000",LIFESmiles Family and Cosmetic Dentistry,Boise,ID
4447,bW8MxvFrRnZnJoU25dvdig,b_bW8MxvFrRnZnJoU25dvdig,43.5900841975,-116.2419744769,"43.5900841975,-116.2419744769",Quik-Wok,Boise,ID
4448,b0hSNSvD2evs_DEl8RSiCw,b_b0hSNSvD2evs_DEl8RSiCw,43.5924013652,-116.2431619,"43.5924013652,-116.2431619000",Jack in the Box,Boise,ID
4449,tZMocKKsBY-IKMtCDwMtDg,b_tZMocKKsBY-IKMtCDwMtDg,43.6476349,-116.2733625,"43.6476349000,-116.2733625000",Westy's Garden Lanes,Boise,ID
4450,q6uQoz0PaDBReEruFB9bUA,b_q6uQoz0PaDBReEruFB9bUA,43.617047,-116.2035868,"43.6170470000,-116.2035868000",Andy's Deli,Boise,ID
4451,7JB8oxtB1Wa0JIWHxs-DhQ,b_7JB8oxtB1Wa0JIWHxs-DhQ,43.667181,-116.27553,"43.6671810000,-116.2755300000",Jades Chopstick,Boise,ID
4452,gF89sbV7mr0SYBKetRFwwQ,b_gF89sbV7mr0SYBKetRFwwQ,43.6077228,-116.1989268,"43.6077228000,-116.1989268000",Boise River Greenbelt,Boise,ID
4453,TbxnO7v3mbfonyQ4FhLMfw,b_TbxnO7v3mbfonyQ4FhLMfw,43.614446,-116.20159,"43.6144460000,-116.2015900000",The Front Door,Boise,ID
4454,YmNSyqlJkaNg9Jl-ed4Dug,b_YmNSyqlJkaNg9Jl-ed4Dug,43.6206188928,-116.310871105,"43.6206188928,-116.3108711050",Casa Mexico,Boise,ID
4455,3xHkEBrXjrTrAY3vpxy23A,b_3xHkEBrXjrTrAY3vpxy23A,43.5887331,-116.2774152,"43.5887331000,-116.2774152000",Legends Pub & Grill,Boise,ID
4456,ZFVaWRoGVoVRRWhmsUz5-Q,b_ZFVaWRoGVoVRRWhmsUz5-Q,43.6126214,-116.2549127,"43.6126214000,-116.2549127000",Boise Valley Asthma & Allergy Clinic,Boise,ID
4457,9LIY71YSgPJD7YjYniXK8g,b_9LIY71YSgPJD7YjYniXK8g,43.6433973392,-116.2057847209,"43.6433973392,-116.2057847209",Bogus Basin Recreational Association Office,Boise,ID
4458,hWFeY5J42n8K12_nCgTJEQ,b_hWFeY5J42n8K12_nCgTJEQ,43.618358,-116.311121,"43.6183580000,-116.3111210000",Diana Gifts & Groceries,Boise,ID
4459,hHItLy-uqkxx1nqjB8LvgQ,b_hHItLy-uqkxx1nqjB8LvgQ,43.6182171,-116.2924334,"43.6182171000,-116.2924334000",Lithia Ford Lincoln of Boise,Boise,ID
4460,yPfw8ck-ZHXBV51xjJbHkg,b_yPfw8ck-ZHXBV51xjJbHkg,43.6419327,-116.2375129,"43.6419327000,-116.2375129000",Smoky Davis Meats,Boise,ID
4461,UNyFn1P2-ViqdrucNYHPGA,b_UNyFn1P2-ViqdrucNYHPGA,43.6207792566,-116.2043808684,"43.6207792566,-116.2043808684",Subway,Boise,ID
4462,PY8vAG0UUhFOENjqvzI1Og,b_PY8vAG0UUhFOENjqvzI1Og,43.6192519,-116.2508259,"43.6192519000,-116.2508259000",Skippers Seafood & Chowder House,Boise,ID
4463,0W2ZRI49t-pZu9TyqosbsA,b_0W2ZRI49t-pZu9TyqosbsA,43.6163822449,-116.2027746939,"43.6163822449,-116.2027746939",The North Face - Boise,Boise,ID
4464,STXJInQtttUpRFCm7QpB2Q,b_STXJInQtttUpRFCm7QpB2Q,43.617315,-116.201163,"43.6173150000,-116.2011630000",The Falcon Tavern,Boise,ID
4465,FhInGRnED-SYAH59p-rvlg,b_FhInGRnED-SYAH59p-rvlg,43.613549,-116.2022755,"43.6135490000,-116.2022755000",Basque Center,Boise,ID
4466,Tm_WPrYJe5fw8wUnztd9Zw,b_Tm_WPrYJe5fw8wUnztd9Zw,43.6176909,-116.2065571,"43.6176909000,-116.2065571000",Oriental Express,Boise,ID
4467,9EdwXboN2XymK0HxLFNLrw,b_9EdwXboN2XymK0HxLFNLrw,43.584883,-116.192908,"43.5848830000,-116.1929080000",Ono Hawaiian Cafe,Boise,ID
4468,067InE1pMXlEXc1OgakKUA,b_067InE1pMXlEXc1OgakKUA,43.6117917,-116.2856163,"43.6117917000,-116.2856163000",REI,Boise,ID
4469,Mp0sdZDp5IxS_ADlj0oytQ,b_Mp0sdZDp5IxS_ADlj0oytQ,43.6221324,-116.1979996,"43.6221324000,-116.1979996000",Café Vicino,Boise,ID
4470,zYeIHvxsL0E8r36rrnApjA,b_zYeIHvxsL0E8r36rrnApjA,43.5864559,-116.2713332,"43.5864559000,-116.2713332000",Flow Aquatics,Boise,ID
4471,Imtzj0HuwdxAMi6d6LSh_g,b_Imtzj0HuwdxAMi6d6LSh_g,43.6139805,-116.2037791,"43.6139805000,-116.2037791000",Emilio's,Boise,ID
4472,WemZBcPArg_PXF-oXWFijA,b_WemZBcPArg_PXF-oXWFijA,43.5960733012,-116.1773015186,"43.5960733012,-116.1773015186",The Refuge,Boise,ID
4473,6Vw97-3cBvoaxfxpIGQ4jQ,b_6Vw97-3cBvoaxfxpIGQ4jQ,43.590587,-116.193405,"43.5905870000,-116.1934050000",Mongolian BBQ,Boise,ID
4474,vJeHUxMZEXiET3ucrts0dA,b_vJeHUxMZEXiET3ucrts0dA,43.6195442,-116.2689627,"43.6195442000,-116.2689627000",Bad Boy Burgers 2,Boise,ID
4475,PaWsl4xUuqX8gMLqyuNcFw,b_PaWsl4xUuqX8gMLqyuNcFw,43.56996,-116.217547,"43.5699600000,-116.2175470000",Airport Chevron Service,Boise,ID
4476,Bzsh379eU98B4IRDogy8Wg,b_Bzsh379eU98B4IRDogy8Wg,43.503081,-116.116968,"43.5030810000,-116.1169680000",Micron Cafeteria,Boise,ID
4477,Y-nTadJ3OgWR0Qea_5R0LQ,b_Y-nTadJ3OgWR0Qea_5R0LQ,43.6337101,-116.2814497,"43.6337101000,-116.2814497000",Delsa's Ice Cream Parlour,Boise,ID
4478,k45bG75e4oT33r5vF7_9cw,b_k45bG75e4oT33r5vF7_9cw,43.6574790707,-116.2400229665,"43.6574790707,-116.2400229665",Edwards Greenhouse,Boise,ID
4479,KS3vn-NhMwEMbuqsaHo8aw,b_KS3vn-NhMwEMbuqsaHo8aw,43.6173126,-116.2068971,"43.6173126000,-116.2068971000",Montage Salon,Boise,ID
4480,bHPq-vQesglrIsvtkVdHrw,b_bHPq-vQesglrIsvtkVdHrw,43.6123533,-116.2430041,"43.6123533000,-116.2430041000",Wok-Inn Noodle,Boise,ID
4481,O3dhGRfeW75qDOcNxxHt5Q,b_O3dhGRfeW75qDOcNxxHt5Q,43.655796,-116.2585466,"43.6557960000,-116.2585466000",The Green Chile,Boise,ID
4482,pcNYFyb7Cu5C2mvAVmOtdA,b_pcNYFyb7Cu5C2mvAVmOtdA,43.651921,-116.2553688,"43.6519210000,-116.2553688000",Montego Bay,Boise,ID
4483,CO0u_7OLj_ViP9qCvcxUnA,b_CO0u_7OLj_ViP9qCvcxUnA,43.6165829986,-116.2027478765,"43.6165829986,-116.2027478765",Grape Escape,Boise,ID
4484,AzylMkpWl-OLWQLMKVRoVg,b_AzylMkpWl-OLWQLMKVRoVg,43.616496,-116.2022303,"43.6164960000,-116.2022303000",Pho Nouveau,Boise,ID
4485,_vSHGtd88l5z6nrF0H1pfQ,b__vSHGtd88l5z6nrF0H1pfQ,43.6161119,-116.2025095,"43.6161119000,-116.2025095000",The Electric Chair,Boise,ID
4486,oFQXLbxtaS0cE3HUjuoPWw,b_oFQXLbxtaS0cE3HUjuoPWw,43.626454,-116.229584,"43.6264540000,-116.2295840000",Idaho River Sports,Boise,ID
4487,MGm2k5pNm98iJRkEp9uS1w,b_MGm2k5pNm98iJRkEp9uS1w,43.6208651,-116.2219655,"43.6208651000,-116.2219655000",Capri Restaurant,Boise,ID
4488,sjT1XjpMm6HIT4VCfghJuw,b_sjT1XjpMm6HIT4VCfghJuw,43.5808115202,-116.1943764633,"43.5808115202,-116.1943764633",Old Fashioned Fruit & Vegetable,Boise,ID
4489,LZQxY8iGJZ7r4pHhQwh4Ww,b_LZQxY8iGJZ7r4pHhQwh4Ww,43.570815,-116.026955,"43.5708150000,-116.0269550000",Kodiak Grill,Boise,ID
4490,X8N3CLUe8_R6Vbw12oS09A,b_X8N3CLUe8_R6Vbw12oS09A,43.6214497,-116.2053362,"43.6214497000,-116.2053362000",Tune Tech Downtown,Boise,ID
4491,qmaI4o8RQC1SF9VsxY4VFw,b_qmaI4o8RQC1SF9VsxY4VFw,43.6159336,-116.2011758,"43.6159336000,-116.2011758000",Boise Fry Company,Boise,ID
4492,55rzwwzWmt38-zzhuADg6A,b_55rzwwzWmt38-zzhuADg6A,43.6478051,-116.2465185,"43.6478051000,-116.2465185000",Nam King Restaurant,Boise,ID
4493,QwivC4zwNpMjIZsCkY3chw,b_QwivC4zwNpMjIZsCkY3chw,43.6082426049,-116.2032591994,"43.6082426049,-116.2032591994",Zoo Boise,Boise,ID
4494,OQEPBVyxCNgMqqit4PlcUw,b_OQEPBVyxCNgMqqit4PlcUw,43.6140191,-116.2020741,"43.6140191000,-116.2020741000",The Basque Market,Boise,ID
4495,xtcF-OG3e3ykqWoHGlOfsw,b_xtcF-OG3e3ykqWoHGlOfsw,43.589609,-116.2301368,"43.5896090000,-116.2301368000",Overland Bar,Boise,ID
4496,JdxlGLDm-RJWbHx92Mi61w,b_JdxlGLDm-RJWbHx92Mi61w,43.6491987,-116.2477601,"43.6491987000,-116.2477601000",Baskin-Robbins,Boise,ID
4497,HfBbWcInRhJWJp9gJYXk4w,b_HfBbWcInRhJWJp9gJYXk4w,43.6189343,-116.2639863,"43.6189343000,-116.2639863000",Los Betos,Boise,ID
4498,XXRb2ZGf4mi2O75-8h8B-Q,b_XXRb2ZGf4mi2O75-8h8B-Q,43.6178405,-116.2054982,"43.6178405000,-116.2054982000",Sweetwater's Tropic Zone,Boise,ID
4499,pDYel_FgYXGM6DQhMNqcTw,b_pDYel_FgYXGM6DQhMNqcTw,43.6189864,-116.2463749,"43.6189864000,-116.2463749000",Nuestro Pueblo,Boise,ID
4500,N94afwH7ZAfR1k46qweOnA,b_N94afwH7ZAfR1k46qweOnA,43.603549,-116.245424,"43.6035490000,-116.2454240000",Great Clips,Boise,ID
4501,y9giq1-3cGTtFUEs2Z8sUQ,b_y9giq1-3cGTtFUEs2Z8sUQ,43.619682,-116.2503,"43.6196820000,-116.2503000000",Grocery Outlet Bargain Market,Boise,ID
4502,gCINi30rKixICJXHD6olww,b_gCINi30rKixICJXHD6olww,43.6540982,-116.2567934,"43.6540982000,-116.2567934000",Buzz Coffee & Cafe,Boise,ID
4503,H7yJc9mMcw9I6r5rl4nxZg,b_H7yJc9mMcw9I6r5rl4nxZg,43.6122359,-116.2413321,"43.6122359000,-116.2413321000",Orient Market,Boise,ID
4504,z83l8khn06lZob--b_hpCw,b_z83l8khn06lZob--b_hpCw,43.616984,-116.2064195,"43.6169840000,-116.2064195000",Mulligans,Boise,ID
4505,fUAhX06bqRtTwJFMXkzhKg,b_fUAhX06bqRtTwJFMXkzhKg,43.6121343,-116.2072568,"43.6121343000,-116.2072568000",Renewal Consignment Homewares,Boise,ID
4506,M6uH-4MntWmkUa7qA2ekjw,b_M6uH-4MntWmkUa7qA2ekjw,43.5932271,-116.2132677,"43.5932271000,-116.2132677000",Casanova Pizzeria,Boise,ID
4507,R2nbIeqaIc7m0oC7Pn5zuA,b_R2nbIeqaIc7m0oC7Pn5zuA,43.6200128,-116.2681424,"43.6200128000,-116.2681424000",Standard Restaurant Supply,Boise,ID
4508,01TorM6wcQZUZ19BOC--8g,b_01TorM6wcQZUZ19BOC--8g,43.618205,-116.282097,"43.6182050000,-116.2820970000",The Egg Factory,Boise,ID
4509,TQj3IdS1_J9po6tQvfieTg,b_TQj3IdS1_J9po6tQvfieTg,43.6524476,-116.2537571,"43.6524476000,-116.2537571000",Eddie's Diner,Boise,ID
4510,zSmS5HVHa9D9ZbFRPV0R8w,b_zSmS5HVHa9D9ZbFRPV0R8w,43.622189,-116.227287,"43.6221890000,-116.2272870000",Main Auction,Boise,ID
4511,YsFHXdsaBFC9uqC7enhxqA,b_YsFHXdsaBFC9uqC7enhxqA,43.6149256,-116.1990802,"43.6149256000,-116.1990802000",WilliB's Sandwich Saloon,Boise,ID
4512,TTd6wVi9jx7AtQ7JeeheAQ,b_TTd6wVi9jx7AtQ7JeeheAQ,43.6137711,-116.2060661,"43.6137711000,-116.2060661000",White House Black Market,Boise,ID
4513,Vtg6hPf9A9Svg1bqyaNQFg,b_Vtg6hPf9A9Svg1bqyaNQFg,43.640556,-116.2079166,"43.6405560000,-116.2079166000",McU Sports,Boise,ID
4514,fpiFvK2mQpwSZ4O5IZKeNA,b_fpiFvK2mQpwSZ4O5IZKeNA,43.6132616,-116.2853319,"43.6132616000,-116.2853319000",Hyatt Place Boise/Towne Square,Boise,ID
4515,8vtUY6iWprSSHfDIctoWWQ,b_8vtUY6iWprSSHfDIctoWWQ,43.5961568,-116.1779243,"43.5961568000,-116.1779243000",Focaccias,Boise,ID
4516,o1XFkEB34jUry4Vk_L1xdg,b_o1XFkEB34jUry4Vk_L1xdg,43.6208,-116.232737,"43.6208000000,-116.2327370000",Joe's Crab Shack,Boise,ID
4517,bBVmJz7Ci35EBNQtG45EfA,b_bBVmJz7Ci35EBNQtG45EfA,43.6132786,-116.199378,"43.6132786000,-116.1993780000",Blue Sky Bagels,Boise,ID
4518,UcKbU6x4ucvNFslKBvXczQ,b_UcKbU6x4ucvNFslKBvXczQ,43.6191551716,-116.2852372266,"43.6191551716,-116.2852372266",Five Guys,Boise,ID
4519,lRgLYQxdMI_yz3CfNElRgA,b_lRgLYQxdMI_yz3CfNElRgA,43.6597847,-116.2640221,"43.6597847000,-116.2640221000",Primary Health Medical Group State Street,Boise,ID
4520,m_maf3G3NThyC1ron-kXOA,b_m_maf3G3NThyC1ron-kXOA,43.5818308943,-116.174175099,"43.5818308943,-116.1741750990",Zeppole Cafe,Boise,ID
4521,l6Fzsau2TbPQxuaF8d804g,b_l6Fzsau2TbPQxuaF8d804g,43.6246315,-116.2128394,"43.6246315000,-116.2128394000",Smoky Mountain Pizzeria Grill,Boise,ID
4522,PyQTyIBHznJoNMGFVHrDiQ,b_PyQTyIBHznJoNMGFVHrDiQ,43.6093767249,-116.1973769116,"43.6093767249,-116.1973769116",WinCo Foods,Boise,ID
4523,bFnix_ymPvWttw1INbNq5Q,b_bFnix_ymPvWttw1INbNq5Q,43.5694750538,-116.1882479941,"43.5694750538,-116.1882479941",Fiesta Guadalajara,Boise,ID
4524,Btv6BlFSJPrqExIREmXdyw,b_Btv6BlFSJPrqExIREmXdyw,43.6132285,-116.205082,"43.6132285000,-116.2050820000",Regal Edwards Boise Downtown,Boise,ID
4525,_RCzdZusJRVKNozFSTe_UA,b__RCzdZusJRVKNozFSTe_UA,43.617499,-116.21114,"43.6174990000,-116.2111400000",Mister Car Wash,Boise,ID
4526,_fmZZLy8hWPAxYx7xt2Fdg,b__fmZZLy8hWPAxYx7xt2Fdg,43.643476,-116.206099,"43.6434760000,-116.2060990000",Mocha Moose Coffee,Boise,ID
4527,ralgFJd4x9tqU1MxgZ3ltg,b_ralgFJd4x9tqU1MxgZ3ltg,43.594649,-116.1770813,"43.5946490000,-116.1770813000",SpringHill Suites Boise ParkCenter,Boise,ID
4528,GyNGss56OYoAdg7ANI5M7A,b_GyNGss56OYoAdg7ANI5M7A,43.5924270408,-116.1650920836,"43.5924270408,-116.1650920836",Warm Springs Golf Course,Boise,ID
4529,AoEJBYLuNzQG3IGyBV72zA,b_AoEJBYLuNzQG3IGyBV72zA,43.6610839,-116.2656142,"43.6610839000,-116.2656142000",Zamzows,Boise,ID
4530,ZfhDW5fFqixPhYKEArcC6w,b_ZfhDW5fFqixPhYKEArcC6w,43.6020299,-116.2146331,"43.6020299000,-116.2146331000",Boise Depot,Boise,ID
4531,JALhNUnEV5TPN65comQLPw,b_JALhNUnEV5TPN65comQLPw,43.612988,-116.281282,"43.6129880000,-116.2812820000",Artisan Optics,Boise,ID
4532,vXfxO08JNFJTCQUQjwbCIA,b_vXfxO08JNFJTCQUQjwbCIA,43.6191072,-116.3216934,"43.6191072000,-116.3216934000",Primary Health Group West Boise,Boise,ID
4533,kfrjKapOXli5Qs0Ee0of4Q,b_kfrjKapOXli5Qs0Ee0of4Q,43.5692879549,-116.1863844726,"43.5692879549,-116.1863844726",KFC,Boise,ID
4534,nnZIsmpIQnuQY5S-MoGyvg,b_nnZIsmpIQnuQY5S-MoGyvg,43.603511,-116.245104,"43.6035110000,-116.2451040000",Baguette Deli,Boise,ID
4535,lrdbP1EQzMvg44ljKaVblw,b_lrdbP1EQzMvg44ljKaVblw,43.5901136257,-116.2462941742,"43.5901136257,-116.2462941742",Idaho Pizza Company,Boise,ID
4536,SXG5ulIEyluifarnVkrvEw,b_SXG5ulIEyluifarnVkrvEw,43.6172557,-116.2026279,"43.6172557000,-116.2026279000",The Chocolat Bar,Boise,ID
4537,7HjLI4_Yx5Thn94dY2vGTw,b_7HjLI4_Yx5Thn94dY2vGTw,43.585494,-116.2766899,"43.5854940000,-116.2766899000",J Randall Pitman Assoc Optometry,Boise,ID
4538,PJD5xFiVhhXD-Ih2uCuYoQ,b_PJD5xFiVhhXD-Ih2uCuYoQ,43.588922,-116.277957,"43.5889220000,-116.2779570000",CK Hawaiian BBQ,Boise,ID
4539,A6svWXAKjhWVzkZk5JFRqQ,b_A6svWXAKjhWVzkZk5JFRqQ,43.618644,-116.285218,"43.6186440000,-116.2852180000",IOU Sushi,Boise,ID
4540,MsFbvFtNbShbDBf6ZpJxzQ,b_MsFbvFtNbShbDBf6ZpJxzQ,43.5926977,-116.2938321,"43.5926977000,-116.2938321000",Le Coq Rouge,Boise,ID
4541,vZktWl-fkfc-dMe9_XvNhA,b_vZktWl-fkfc-dMe9_XvNhA,43.5888876,-116.2698565,"43.5888876000,-116.2698565000",Overland Park Cinemas,Boise,ID
4542,-nkHF-cspbXazYeg4wIGhA,b_-nkHF-cspbXazYeg4wIGhA,43.6011146,-116.1931681,"43.6011146000,-116.1931681000",Baja Fresh,Boise,ID
4543,ESfaL8jG45Q7qc4ZzO95YA,b_ESfaL8jG45Q7qc4ZzO95YA,43.5953018,-116.2129628,"43.5953018000,-116.2129628000",Ceramica,Boise,ID
4544,Vqcj32-COy58Y_U86Uc_pA,b_Vqcj32-COy58Y_U86Uc_pA,43.661723,-116.352417,"43.6617230000,-116.3524170000",Target,Boise,ID
4545,S1JGVt_nIqTpCyjrzQZ9Uw,b_S1JGVt_nIqTpCyjrzQZ9Uw,43.579015,-116.174505,"43.5790150000,-116.1745050000",Starbucks,Boise,ID
4546,31JlVtmcvj4LPEwdSBC0Gg,b_31JlVtmcvj4LPEwdSBC0Gg,43.5895022578,-116.2713529504,"43.5895022578,-116.2713529504",Outback Steakhouse,Boise,ID
4547,FFafyuLolYusnle5dBHcDA,b_FFafyuLolYusnle5dBHcDA,43.6175563,-116.2033513,"43.6175563000,-116.2033513000",Tanzanite Salon & Spa,Boise,ID
4548,m6BooWwYg0lf83NIR2pguw,b_m6BooWwYg0lf83NIR2pguw,43.613347,-116.206243,"43.6133470000,-116.2062430000",Liquid Lounge,Boise,ID
4549,sCT4OAUqQu0ZnBfRWR250Q,b_sCT4OAUqQu0ZnBfRWR250Q,43.589266,-116.232607,"43.5892660000,-116.2326070000",Thana's Little Market,Boise,ID
4550,uw6sdeVs1ZnAKK_1UrkfVg,b_uw6sdeVs1ZnAKK_1UrkfVg,43.5894862,-116.2529197,"43.5894862000,-116.2529197000",Kabul Market,Boise,ID
4551,tGc2cbNouGKD2DfqeDPrvQ,b_tGc2cbNouGKD2DfqeDPrvQ,43.6154886,-116.2003986,"43.6154886000,-116.2003986000",Java Downtown Boise,Boise,ID
4552,wsCC1BQEExpYZ6BnzUizQw,b_wsCC1BQEExpYZ6BnzUizQw,43.6229582,-116.2403459,"43.6229582000,-116.2403459000",Chapala Mexican Restaurant,Boise,ID
4553,a1u73fxmEcBwH1Wh0FX-qA,b_a1u73fxmEcBwH1Wh0FX-qA,43.6179102,-116.2175741,"43.6179102000,-116.2175741000",Caliente Salon,Boise,ID
4554,p5dg1GwWJmJM0-PEJ5MDGg,b_p5dg1GwWJmJM0-PEJ5MDGg,43.614062,-116.200817,"43.6140620000,-116.2008170000",China Blue,Boise,ID
4555,t5tBd4p7BA7hNDitBUXxrw,b_t5tBd4p7BA7hNDitBUXxrw,43.6119488,-116.2711098,"43.6119488000,-116.2711098000",Boise Therapeutic Massage Center,Boise,ID
4556,48NW11kZQxNVlAT4toHYHQ,b_48NW11kZQxNVlAT4toHYHQ,43.6458538,-116.2428876,"43.6458538000,-116.2428876000",Corona Village,Boise,ID
4557,PzyFUtAIa9kSK4SK0kToRg,b_PzyFUtAIa9kSK4SK0kToRg,43.6190426,-116.3065661,"43.6190426000,-116.3065661000",Asia Market,Boise,ID
4558,UmiU-fPE2uEhqreibCx9jg,b_UmiU-fPE2uEhqreibCx9jg,43.6440637,-116.3547307,"43.6440637000,-116.3547307000",Silk Touch Med Spa,Boise,ID
4559,-BFrwPGCH-22kRPvFrFk4Q,b_-BFrwPGCH-22kRPvFrFk4Q,43.599246,-116.213316,"43.5992460000,-116.2133160000",Jumpin Janet's,Boise,ID
4560,gCcNDgFt6EKXlOCRMcWQWg,b_gCcNDgFt6EKXlOCRMcWQWg,43.5998792,-116.1932624,"43.5998792000,-116.1932624000",L A Nails,Boise,ID
4561,ZnSvwSNKCJcdRJcHrt7APg,b_ZnSvwSNKCJcdRJcHrt7APg,43.6180379,-116.2031204,"43.6180379000,-116.2031204000",Yen Ching Bakery,Boise,ID
4562,9MdgRFaRZ6slOOUoi24DXQ,b_9MdgRFaRZ6slOOUoi24DXQ,43.618888,-116.2656384,"43.6188880000,-116.2656384000",Jerry's State Court Cafe,Boise,ID
4563,EIpt1m3DETgch13QoeUyXQ,b_EIpt1m3DETgch13QoeUyXQ,43.609556,-116.284327,"43.6095560000,-116.2843270000",Red Lobster,Boise,ID
4564,4yKv0SEpuJDHECFinhifWQ,b_4yKv0SEpuJDHECFinhifWQ,43.595022,-116.214032,"43.5950220000,-116.2140320000",Quinn's Restaurant & Lounge,Boise,ID
4565,HviAzkMvhZbyT8dUH9BkLQ,b_HviAzkMvhZbyT8dUH9BkLQ,43.6127584,-116.2047196,"43.6127584000,-116.2047196000",Yoi Tomo Sushi & Grill,Boise,ID
4566,pwM9o6p9GEjcjX4F2sxATA,b_pwM9o6p9GEjcjX4F2sxATA,43.6197577,-116.3201963,"43.6197577000,-116.3201963000",Golden Wheel Drive-In,Boise,ID
4567,C747DmR5MwLBjdJaURpQ7A,b_C747DmR5MwLBjdJaURpQ7A,43.6123373,-116.242838,"43.6123373000,-116.2428380000",Navajo Room,Boise,ID
4568,TonuxwX_Xg2zQ7lTK4o1-A,b_TonuxwX_Xg2zQ7lTK4o1-A,43.6028197,-116.1730589,"43.6028197000,-116.1730589000",Trolley House,Boise,ID
4569,qt6vr0QqA57QkylS9jjUmw,b_qt6vr0QqA57QkylS9jjUmw,43.62212,-116.1977226,"43.6221200000,-116.1977226000",Boise Co-op Wine Shop,Boise,ID
4570,mSAJEUM6soxsZ9Uk3kXlmQ,b_mSAJEUM6soxsZ9Uk3kXlmQ,43.5876261,-116.2141535,"43.5876261000,-116.2141535000",Brewer's Haven,Boise,ID
4571,Vi3iLbWumFETUmxEsDKxAA,b_Vi3iLbWumFETUmxEsDKxAA,43.6080055,-116.2788425,"43.6080055000,-116.2788425000",SEPHORA,Boise,ID
4572,0HAkgEHkJaazbxlX88m5BA,b_0HAkgEHkJaazbxlX88m5BA,43.6206359,-116.2053417,"43.6206359000,-116.2053417000",Horsethief Reservoir Camp,Boise,ID
4573,yoMDanqO1OL90COVuheNfQ,b_yoMDanqO1OL90COVuheNfQ,43.5745415,-116.1541943,"43.5745415000,-116.1541943000",Cravin's Candy Emporium,Boise,ID
4574,M3rLXeznjXLEvij3PENo0w,b_M3rLXeznjXLEvij3PENo0w,43.6413643,-116.2074656,"43.6413643000,-116.2074656000",Greenwood's Ski Haus,Boise,ID
4575,CVDx_x4hEx90nSgeTDo8rA,b_CVDx_x4hEx90nSgeTDo8rA,43.6130044468,-116.2061752675,"43.6130044468,-116.2061752675",Atomic Treasures,Boise,ID
4576,ss6zeWt9oWKRllwU61gG-g,b_ss6zeWt9oWKRllwU61gG-g,43.614452,-116.200809,"43.6144520000,-116.2008090000",Jimmy John's,Boise,ID
4577,JdhXCnAG77iY6f0TLPaQ6A,b_JdhXCnAG77iY6f0TLPaQ6A,43.613286,-116.205998,"43.6132860000,-116.2059980000",Solid Grill and Bar,Boise,ID
4578,HJhy636kx3WPwRsxkQ2Q4A,b_HJhy636kx3WPwRsxkQ2Q4A,43.5605448,-116.2736973,"43.5605448000,-116.2736973000",Diggs Pizza,Boise,ID
4579,1y04-UmlwvvftHMjWnVTmA,b_1y04-UmlwvvftHMjWnVTmA,43.5415725,-116.1540716,"43.5415725000,-116.1540716000",Taco Del Mar,Boise,ID
4580,53VbEK23N-l-gEW7hKsH-Q,b_53VbEK23N-l-gEW7hKsH-Q,43.6446118,-116.2427258,"43.6446118000,-116.2427258000",Burger N Brew,Boise,ID
4581,ENZhK09_750n8qiqKYnuPw,b_ENZhK09_750n8qiqKYnuPw,43.5914681,-116.2952351,"43.5914681000,-116.2952351000",Idaho Athletic Club,Boise,ID
4582,ZmX07whU2YiV1rObSMgLuQ,b_ZmX07whU2YiV1rObSMgLuQ,43.554699,-116.098827,"43.5546990000,-116.0988270000",Ben's Crow Inn,Boise,ID
4583,ev0_8V_rqvBdlHarBT0AFA,b_ev0_8V_rqvBdlHarBT0AFA,43.614199,-116.1999584,"43.6141990000,-116.1999584000",Bandanna Running and Walking,Boise,ID
4584,fpkUFbzLskJHWmyRYas6OA,b_fpkUFbzLskJHWmyRYas6OA,43.5985818,-116.1867623,"43.5985818000,-116.1867623000",Doubletree Club Hotel Boise,Boise,ID
4585,OF4fWjf2OnRGJBaIHttLqg,b_OF4fWjf2OnRGJBaIHttLqg,43.5885611,-116.2804103,"43.5885611000,-116.2804103000",Johnny Carino's,Boise,ID
4586,JgF69cz8aDZoSl1R0AwhWQ,b_JgF69cz8aDZoSl1R0AwhWQ,43.6615340126,-116.2261983411,"43.6615340126,-116.2261983411",Ruth Melichar Bird Center - Animals In Distress Association,Boise,ID
4587,dNs4CuiJklpPc68vudoPQA,b_dNs4CuiJklpPc68vudoPQA,43.62270787,-116.2028564258,"43.6227078700,-116.2028564258",Cathedral of the Rockies,Boise,ID
4588,OjPNpLY7PQVYyIkC2SjydA,b_OjPNpLY7PQVYyIkC2SjydA,43.6213230213,-116.2214067578,"43.6213230213,-116.2214067578",Gils K9 Bar,Boise,ID
4589,rZDxWixVRtf-zapNmtSX-g,b_rZDxWixVRtf-zapNmtSX-g,43.6028065,-116.2540731,"43.6028065000,-116.2540731000",Rosendahl Foot and Shoe Center,Boise,ID
4590,Hh0r152Uszpm1xjmkpCzzA,b_Hh0r152Uszpm1xjmkpCzzA,43.6200257895,-116.2750771636,"43.6200257895,-116.2750771636",Idaho Pizza Company,Boise,ID
4591,x9ptZAtg1zWT6SGozxTvzg,b_x9ptZAtg1zWT6SGozxTvzg,43.611928,-116.2956348,"43.6119280000,-116.2956348000",Blimpie,Boise,ID
4592,PKQ8u65he4JlUpUCS200cQ,b_PKQ8u65he4JlUpUCS200cQ,43.6077882,-116.2124161,"43.6077882000,-116.2124161000",Roast Coffee Bar & Roasting Facility,Boise,ID
4593,uySZsXxR0pStL_8tDZSt-Q,b_uySZsXxR0pStL_8tDZSt-Q,43.612175,-116.2750057,"43.6121750000,-116.2750057000",Elements Massage,Boise,ID
4594,hu0-K0-gzU2E9DmIQqlQdg,b_hu0-K0-gzU2E9DmIQqlQdg,43.6197703886,-116.292115335,"43.6197703886,-116.2921153350",Popeyes Louisiana Kitchen,Boise,ID
4595,Tq3Zzz9Z0XlAY_SMZi2MAg,b_Tq3Zzz9Z0XlAY_SMZi2MAg,43.623561,-116.208446,"43.6235610000,-116.2084460000",Westco Martinizing Dry Cleaning,Boise,ID
4596,XWbWhTXkyzfhwh4dbfwEAA,b_XWbWhTXkyzfhwh4dbfwEAA,43.624277,-116.212336,"43.6242770000,-116.2123360000",Starbucks,Boise,ID
4597,zpw_DlkyGrDT6IJEMrhAMQ,b_zpw_DlkyGrDT6IJEMrhAMQ,43.6172279,-116.2025576,"43.6172279000,-116.2025576000",City Peanut Shop,Boise,ID
4598,xzcSspTmIdP5KJ5b-2j4Zw,b_xzcSspTmIdP5KJ5b-2j4Zw,43.6198636965,-116.2971945536,"43.6198636965,-116.2971945536",Bronco Motors Hyundai,Boise,ID
4599,w_r3vEPD-CimLOInLL_D1g,b_w_r3vEPD-CimLOInLL_D1g,43.5813751,-116.1733708,"43.5813751000,-116.1733708000",Eddie's Wood-Fired Dogs,Boise,ID
4600,vD9_8q3Nrm1BrWN1gQTnPw,b_vD9_8q3Nrm1BrWN1gQTnPw,43.61915,-116.285182,"43.6191500000,-116.2851820000",Sub Zero Nitrogen Ice Cream,Boise,ID
4601,rch4DnNkRSmxGiMivXRbbQ,b_rch4DnNkRSmxGiMivXRbbQ,43.6469827,-116.3537723,"43.6469827000,-116.3537723000",Papa Murphy's,Boise,ID
4602,geE947c4ZKDZmeNRV4bVPQ,b_geE947c4ZKDZmeNRV4bVPQ,43.6196593,-116.3385687,"43.6196593000,-116.3385687000",Choice Cuts Inc,Boise,ID
4603,1bosKG476JOb-l58MXrEhg,b_1bosKG476JOb-l58MXrEhg,43.6158669,-116.2197906,"43.6158669000,-116.2197906000",Pantry Restaurant,Boise,ID
4604,PB8NfxXaAMcCUm4EpLzQUQ,b_PB8NfxXaAMcCUm4EpLzQUQ,43.6031539,-116.2829429,"43.6031539000,-116.2829429000",Smashburger,Boise,ID
4605,y-yh4sucDYPAjulbmmyaIQ,b_y-yh4sucDYPAjulbmmyaIQ,43.6049188,-116.2828961,"43.6049188000,-116.2828961000",Chili's,Boise,ID
4606,1o17rmxKwkVsgQSUl0c2qw,b_1o17rmxKwkVsgQSUl0c2qw,43.5634275,-116.1128832,"43.5634275000,-116.1128832000",Idaho Shakespeare Festival,Boise,ID
4607,ucPc6Vs4py-6AdsHYEXbpQ,b_ucPc6Vs4py-6AdsHYEXbpQ,43.612076,-116.279679,"43.6120760000,-116.2796790000",Applebee's Grill + Bar,Boise,ID
4608,AxJ9nqj9ssbpuz7OLvsZgw,b_AxJ9nqj9ssbpuz7OLvsZgw,43.6050561,-116.2124705,"43.6050561000,-116.2124705000",Elmer's Restaurant,Boise,ID
4609,uC4zsu0YPwMYM-moGNaoKg,b_uC4zsu0YPwMYM-moGNaoKg,43.5798978,-116.174843,"43.5798978000,-116.1748430000",Northern Lights Cafe,Boise,ID
4610,UlPrFIsS08II5RUEVaOezg,b_UlPrFIsS08II5RUEVaOezg,43.580131,-116.1754308,"43.5801310000,-116.1754308000",Eastside Tavern,Boise,ID
4611,jBZamZljJvwv6jrTj0lldQ,b_jBZamZljJvwv6jrTj0lldQ,43.5744668,-116.1542454,"43.5744668000,-116.1542454000",Eastside Cycles,Boise,ID
4612,m8w3D-iivWLznMpT2-b9nw,b_m8w3D-iivWLznMpT2-b9nw,43.569166,-116.222578,"43.5691660000,-116.2225780000",Delta Airlines,Boise,ID
4613,6jCTcacVWUmnV0BNcIAKgA,b_6jCTcacVWUmnV0BNcIAKgA,43.5917239,-116.2466913,"43.5917239000,-116.2466913000",Mongolian Bistro,Boise,ID
4614,LKPbZdn-P9ZqPTY6-9XT5g,b_LKPbZdn-P9ZqPTY6-9XT5g,43.602032,-116.186316,"43.6020320000,-116.1863160000",The MK Morrison Knudsen Nature Center,Boise,ID
4615,0vlisQJ0jKFB16KYi_q3LA,b_0vlisQJ0jKFB16KYi_q3LA,43.599493,-116.193049,"43.5994930000,-116.1930490000",Starbucks,Boise,ID
4616,Wr3we2lNGIK4oL2CIkQuLg,b_Wr3we2lNGIK4oL2CIkQuLg,43.5901568,-116.234109,"43.5901568000,-116.2341090000",Ada Veterinary Hospital,Boise,ID
4617,kLnOdN3_HuF1iXjtkb79aw,b_kLnOdN3_HuF1iXjtkb79aw,43.6075508711,-116.1914321411,"43.6075508711,-116.1914321411",Courtyard by Marriott Boise Downtown,Boise,ID
4618,dJ2CzwEGQdOo3dcPWVwOPQ,b_dJ2CzwEGQdOo3dcPWVwOPQ,43.630023,-116.203129,"43.6300230000,-116.2031290000",13th Street Pub & Grill,Boise,ID
4619,VqaoU90R49F_zTs8HqDjhw,b_VqaoU90R49F_zTs8HqDjhw,43.6179344,-116.2153308,"43.6179344000,-116.2153308000",Inkvision,Boise,ID
4620,WKeqp6Yj41w3HXLqWQPzVw,b_WKeqp6Yj41w3HXLqWQPzVw,43.600348,-116.193383,"43.6003480000,-116.1933830000",Pie Hole,Boise,ID
4621,fL3i--HWKZlvKaLOZaowUQ,b_fL3i--HWKZlvKaLOZaowUQ,43.5390437,-116.1611433,"43.5390437000,-116.1611433000",Boise Factory Outlet,Boise,ID
4622,X1X2ZOKUgD-kW1C3L86bCw,b_X1X2ZOKUgD-kW1C3L86bCw,43.6037615742,-116.2819352604,"43.6037615742,-116.2819352604",Plato's Closet Boise,Boise,ID
4623,lkoZ7SnAtWXeYJ9iGxD-1A,b_lkoZ7SnAtWXeYJ9iGxD-1A,43.617105,-116.20577,"43.6171050000,-116.2057700000",Ben & Jerry’s,Boise,ID
4624,wcsGUJIf16NXYu187CANWg,b_wcsGUJIf16NXYu187CANWg,43.6080262818,-116.282823399,"43.6080262818,-116.2828233990",Olive Garden Italian Restaurant,Boise,ID
4625,DB8-IvAryyddpIuZWwpGNA,b_DB8-IvAryyddpIuZWwpGNA,43.600637,-116.161354,"43.6006370000,-116.1613540000",Idaho Botanical Garden,Boise,ID
4626,CUtMf3Bm0OAR7RpdPrs66w,b_CUtMf3Bm0OAR7RpdPrs66w,43.614671,-116.243037,"43.6146710000,-116.2430370000",Pho Tam,Boise,ID
4627,fm6fmMb_jOl_q_qXJRUEKQ,b_fm6fmMb_jOl_q_qXJRUEKQ,43.6158386,-116.2026816,"43.6158386000,-116.2026816000",Pamper Nails & Spa,Boise,ID
4628,-B5LbC_57Vhu7wB3hcFZTw,b_-B5LbC_57Vhu7wB3hcFZTw,43.61066,-116.2054986,"43.6106600000,-116.2054986000",Idaho State Museum,Boise,ID
4629,Eto7duDaxGiOvtakWiGEqg,b_Eto7duDaxGiOvtakWiGEqg,43.5897352,-116.2669542,"43.5897352000,-116.2669542000",Gyro Shack,Boise,ID
4630,jvsdP8Sm9z56xyrMXansbA,b_jvsdP8Sm9z56xyrMXansbA,43.6122348,-116.24172,"43.6122348000,-116.2417200000",Bosnia Express Boex,Boise,ID
4631,0MRxCrYwOVdza3lEa4_Plg,b_0MRxCrYwOVdza3lEa4_Plg,43.6161421,-116.2034852,"43.6161421000,-116.2034852000",Flatbread Neapolitan Pizzeria,Boise,ID
4632,AyGJNTLh9abu8R14mYPAjA,b_AyGJNTLh9abu8R14mYPAjA,43.569326,-116.214193,"43.5693260000,-116.2141930000",Kopper Kitchen,Boise,ID
4633,GE5fcC2PP1BgW1T6a9Z0BA,b_GE5fcC2PP1BgW1T6a9Z0BA,43.6141262,-116.2010801,"43.6141262000,-116.2010801000",Dirty Little Roddy's,Boise,ID
4634,7bJGh3PkW9tr3rXC6P2uwA,b_7bJGh3PkW9tr3rXC6P2uwA,43.616975858,-116.2024678449,"43.6169758580,-116.2024678449",The Matador,Boise,ID
4635,rVwgZhpuqcyEdY__hIL4pQ,b_rVwgZhpuqcyEdY__hIL4pQ,43.584883,-116.192908,"43.5848830000,-116.1929080000",The Shak Hawaiian Cafe,Boise,ID
4636,temqEyyQwjZlLOr5gUmAnQ,b_temqEyyQwjZlLOr5gUmAnQ,43.6093683352,-116.2745290675,"43.6093683352,-116.2745290675",Sizzler,Boise,ID
4637,0GaQYfej_vd1AqRNbGLgqQ,b_0GaQYfej_vd1AqRNbGLgqQ,43.6179926,-116.2044116,"43.6179926000,-116.2044116000",Trip Taylor Bookseller,Boise,ID
4638,G-5IdsKUCNtNoAbxSLnTZQ,b_G-5IdsKUCNtNoAbxSLnTZQ,43.5907191,-116.1929806,"43.5907191000,-116.1929806000",Mister Car Wash,Boise,ID
4639,vaHrFZME6ZfNQsvHau_zXA,b_vaHrFZME6ZfNQsvHau_zXA,43.6620401,-116.3371589,"43.6620401000,-116.3371589000",Sunshine Bagel Bakery,Boise,ID
4640,SryENT0PAcWQealsjFl33Q,b_SryENT0PAcWQealsjFl33Q,43.5762623,-116.147824,"43.5762623000,-116.1478240000",Habitat Veterinary Hospital,Boise,ID
4641,KAZodlE7Dyad2plZ_cVkkQ,b_KAZodlE7Dyad2plZ_cVkkQ,43.6245375,-116.2120799,"43.6245375000,-116.2120799000",Shu's Idaho Running Company,Boise,ID
4642,3g6XqkBikTTbZmTukbeGnw,b_3g6XqkBikTTbZmTukbeGnw,43.6086015,-116.1956172,"43.6086015000,-116.1956172000",George's Cycles & Fitness,Boise,ID
4643,4omezJL9NznkCOFS810qrw,b_4omezJL9NznkCOFS810qrw,43.565278,-116.1759781,"43.5652780000,-116.1759781000",Monterra Townhomes,Boise,ID
4644,WiA-hPgwSb5EN_a2qjTXpg,b_WiA-hPgwSb5EN_a2qjTXpg,43.603614,-116.286309,"43.6036140000,-116.2863090000",Best Buy - Boise,Boise,ID
4645,wQ2swVqW5iZl6exUQGvF0Q,b_wQ2swVqW5iZl6exUQGvF0Q,43.590742,-116.287656,"43.5907420000,-116.2876560000",Einstein's Oilery,Boise,ID
4646,OI_A8VRmMVxIq_ZeNaLVeg,b_OI_A8VRmMVxIq_ZeNaLVeg,43.6468932,-116.353767,"43.6468932000,-116.3537670000",Starbucks,Boise,ID
4647,qsBqkb6RJorvywRczMpiUg,b_qsBqkb6RJorvywRczMpiUg,43.6499473,-116.2476458,"43.6499473000,-116.2476458000",Sportsmans Barbershop,Boise,ID
4648,XVFUNtPWYpxhoWPtBQHFdQ,b_XVFUNtPWYpxhoWPtBQHFdQ,43.60459858,-116.28475773,"43.6045985800,-116.2847577300",Cafe Rio Mexican Grill,Boise,ID
4649,b86JGwP6H1uEXqjHVlrj5w,b_b86JGwP6H1uEXqjHVlrj5w,43.5957896,-116.2129451,"43.5957896000,-116.2129451000",Rooster's Eatery,Boise,ID
4650,l6cY2ndR-6GmqhVeuA0VgQ,b_l6cY2ndR-6GmqhVeuA0VgQ,43.625559,-116.211032,"43.6255590000,-116.2110320000",Janjou Patisserie,Boise,ID
4651,-1K1J_D9eT2dR6BNvQ2Tnw,b_-1K1J_D9eT2dR6BNvQ2Tnw,43.5907667,-116.2827997,"43.5907667000,-116.2827997000",Ultra Touch Car Wash,Boise,ID
4652,lMXfJCYU1SI2HN_GQso-ig,b_lMXfJCYU1SI2HN_GQso-ig,43.591683,-116.312573,"43.5916830000,-116.3125730000",Ridgeline Bike & Ski,Boise,ID
4653,pyOOxah5FFNAkENc5ajbyw,b_pyOOxah5FFNAkENc5ajbyw,43.5908318,-116.3154722,"43.5908318000,-116.3154722000",Moxie Java and More,Boise,ID
4654,hgbSjUZ9J4yauE_v6nuIyg,b_hgbSjUZ9J4yauE_v6nuIyg,43.5739231,-116.1548354,"43.5739231000,-116.1548354000",Locavore,Boise,ID
4655,r7n3w8fxv7i-XySSfzBYrQ,b_r7n3w8fxv7i-XySSfzBYrQ,43.624976,-116.2093472,"43.6249760000,-116.2093472000",Albertsons,Boise,ID
4656,98zOMYJJ0FhbcOonPN9B5A,b_98zOMYJJ0FhbcOonPN9B5A,43.6221851,-116.1981709,"43.6221851000,-116.1981709000",North End Barber Shop,Boise,ID
4657,KsWStqDcBo-0vnwefSBE0Q,b_KsWStqDcBo-0vnwefSBE0Q,43.5451318646,-116.3128873644,"43.5451318646,-116.3128873644",Garbonzos Pizza,Boise,ID
4658,-f7yjjrgCB1zsjt9SnGMdg,b_-f7yjjrgCB1zsjt9SnGMdg,43.6031620644,-116.2430213612,"43.6031620644,-116.2430213612",Chf Home Furnishings,Boise,ID
4659,qUXBvqbqMue4_cit2yBbVA,b_qUXBvqbqMue4_cit2yBbVA,43.6075126,-116.2819117,"43.6075126000,-116.2819117000",Verizon,Boise,ID
4660,wKwCbAACZRAqyZkQzeBNeg,b_wKwCbAACZRAqyZkQzeBNeg,43.9939002,-92.4623722,"43.9939002000,-92.4623722000",Broadway Veterinary Hospital,Boise,ID
4661,NeAd48Rr2monn9af9vY-KQ,b_NeAd48Rr2monn9af9vY-KQ,43.5981842,-116.1860447,"43.5981842000,-116.1860447000",La Tapatia Restaurant,Boise,ID
4662,PNPREi-W9kVr37KWqD11rg,b_PNPREi-W9kVr37KWqD11rg,43.644399,-116.2419468,"43.6443990000,-116.2419468000",The Bodacious Bean,Boise,ID
4663,xCGbDuoSdExS-twmCoBD2A,b_xCGbDuoSdExS-twmCoBD2A,43.5768788,-116.1932196,"43.5768788000,-116.1932196000",Companions Animal Hospital,Boise,ID
4664,BYu24etj9zM3mRD2YukSXw,b_BYu24etj9zM3mRD2YukSXw,43.6361297,-116.2759185,"43.6361297000,-116.2759185000",Asian Grocery Outlet,Boise,ID
4665,7x0nyMCz7C2xHgAXl7z8Fw,b_7x0nyMCz7C2xHgAXl7z8Fw,43.608582,-116.2781046,"43.6085820000,-116.2781046000",Apple Boise Towne Square,Boise,ID
4666,_3y3VvOwAqU0w-yz9j9Orw,b__3y3VvOwAqU0w-yz9j9Orw,43.6479133,-116.246021,"43.6479133000,-116.2460210000",Big O Tires,Boise,ID
4667,6yn3D1GdD1NvugrZcFqa6g,b_6yn3D1GdD1NvugrZcFqa6g,43.6170357,-116.2033463,"43.6170357000,-116.2033463000",Anthropologie,Boise,ID
4668,XYKMkKAf6ypIUd2YXAZpAQ,b_XYKMkKAf6ypIUd2YXAZpAQ,43.617054,-116.2020852,"43.6170540000,-116.2020852000",Baguette Deli,Boise,ID
4669,gAjymSgZ8NXv7Y_2o7QWKg,b_gAjymSgZ8NXv7Y_2o7QWKg,43.618982,-116.295862,"43.6189820000,-116.2958620000",Peterson Toyota,Boise,ID
4670,5fCpLBp4DeG5uZ3RkhJUYg,b_5fCpLBp4DeG5uZ3RkhJUYg,43.5897014,-116.2928683,"43.5897014000,-116.2928683000",Sushi Ya,Boise,ID
4671,tP9Sn0KzL2GzImUGchXYMQ,b_tP9Sn0KzL2GzImUGchXYMQ,43.5903599,-116.2375654,"43.5903599000,-116.2375654000",Ishtar Market and Restaurant,Boise,ID
4672,vJDSCoLi-p_rkwMc1X3cdw,b_vJDSCoLi-p_rkwMc1X3cdw,43.592903,-116.243965,"43.5929030000,-116.2439650000",Burger Time,Boise,ID
4673,4Z3MCsXLGi9Y7ZHdh9FHIg,b_4Z3MCsXLGi9Y7ZHdh9FHIg,43.6108398,-116.2859164,"43.6108398000,-116.2859164000",LensCrafters,Boise,ID
4674,UmT001RZ6qX3EAuFO8jr8g,b_UmT001RZ6qX3EAuFO8jr8g,43.6180517,-116.3083079,"43.6180517000,-116.3083079000",Internet Auto Rent & Sales,Boise,ID
4675,M5wOIpka_2e5W3RXm_G3KQ,b_M5wOIpka_2e5W3RXm_G3KQ,43.5893212,-116.2804627,"43.5893212000,-116.2804627000",Fuddruckers,Boise,ID
4676,JgyGbZKl9OVvDS_umSHlEQ,b_JgyGbZKl9OVvDS_umSHlEQ,43.619046,-116.262551,"43.6190460000,-116.2625510000",Taco Bell,Boise,ID
4677,6rdfC4ESbWEBeKbyQziZ1w,b_6rdfC4ESbWEBeKbyQziZ1w,43.6047076,-116.2824641,"43.6047076000,-116.2824641000",Starbucks,Boise,ID
4678,6U8tN-4x4HsUJfTo6HSU8g,b_6U8tN-4x4HsUJfTo6HSU8g,43.53949,-116.165328,"43.5394900000,-116.1653280000",PODS Moving & Storage,Boise,ID
4679,k6IiU_AZOZc6myOXfV1-IA,b_k6IiU_AZOZc6myOXfV1-IA,43.6648176611,-116.2779280667,"43.6648176611,-116.2779280667",Idaho Pizza Company,Boise,ID
4680,QfM1wsSD-RyTfixsiJRJyw,b_QfM1wsSD-RyTfixsiJRJyw,43.5888844,-116.312904,"43.5888844000,-116.3129040000",Hastings Books Music & Video,Boise,ID
4681,IySkqpmUZ-IWcue3r9LyiQ,b_IySkqpmUZ-IWcue3r9LyiQ,43.618739,-116.265165,"43.6187390000,-116.2651650000",A-1 Video Games and Jewelry Exchange,Boise,ID
4682,UrUmhdZLsWcVoIXV9keiVg,b_UrUmhdZLsWcVoIXV9keiVg,43.6196882,-116.2700606,"43.6196882000,-116.2700606000",Chicago Connection - Fairview,Boise,ID
4683,TC_iAswrOu81fv1zMNlgyA,b_TC_iAswrOu81fv1zMNlgyA,43.58998,-116.3138975,"43.5899800000,-116.3138975000",Hugo's Deli,Boise,ID
4684,31uu55dhOGzPHAJslZp7uA,b_31uu55dhOGzPHAJslZp7uA,43.5915577,-116.3116912,"43.5915577000,-116.3116912000",Great Wall Restaurant,Boise,ID
4685,msL8cR7IUjK7f4gmPA7CWQ,b_msL8cR7IUjK7f4gmPA7CWQ,43.6167623,-116.2028283,"43.6167623000,-116.2028283000",Fatty's Bar,Boise,ID
4686,4kzHY2gNaEtwMMdwR0PQ_g,b_4kzHY2gNaEtwMMdwR0PQ_g,43.6195093,-116.2654029,"43.6195093000,-116.2654029000",Taco Veloz,Boise,ID
4687,bnf_heNHK8s9RUc0prursQ,b_bnf_heNHK8s9RUc0prursQ,43.604676,-116.2915681,"43.6046760000,-116.2915681000",Jalapeño's Bar & Grill - Franklin,Boise,ID
4688,qYAATvFwMHmY4G4OVuTs9w,b_qYAATvFwMHmY4G4OVuTs9w,43.6189056,-116.3058484,"43.6189056000,-116.3058484000",Boise Automotive Service,Boise,ID
4689,TZBzWcuDv4JCNJQu2vPjCw,b_TZBzWcuDv4JCNJQu2vPjCw,43.5681738,-116.189697,"43.5681738000,-116.1896970000",Bodies In Motion,Boise,ID
4690,p3hwoEvtIH6cQjDKh-8eOg,b_p3hwoEvtIH6cQjDKh-8eOg,43.6202654,-116.2173075,"43.6202654000,-116.2173075000",Lucky Dog Tavern,Boise,ID
4691,nrDxYHzp-c0OK_ZIbDWjCA,b_nrDxYHzp-c0OK_ZIbDWjCA,43.6340247,-116.2023147,"43.6340247000,-116.2023147000",Camel's Back Park,Boise,ID
4692,q_fXyD3Lx2WuNULWlaakhA,b_q_fXyD3Lx2WuNULWlaakhA,43.6138295,-116.2026715,"43.6138295000,-116.2026715000",Basque Museum & Cultural Center,Boise,ID
4693,cQhx2T4Cv3o6_AoZSHR8qA,b_cQhx2T4Cv3o6_AoZSHR8qA,43.5676939,-116.186119,"43.5676939000,-116.1861190000",Bed Bath & Beyond,Boise,ID
4694,9zAWuGB1JXF76pn1_biPBw,b_9zAWuGB1JXF76pn1_biPBw,43.607484,-116.2776437,"43.6074840000,-116.2776437000",JCPenney,Boise,ID
4695,9p2FDdVHRscS9HrK_qRatw,b_9p2FDdVHRscS9HrK_qRatw,43.611887,-116.286609,"43.6118870000,-116.2866090000",Golden Corral Buffet & Grill,Boise,ID
4696,lrCdxxGIz9p4xWKz3H1tSQ,b_lrCdxxGIz9p4xWKz3H1tSQ,43.613005,-116.204601,"43.6130050000,-116.2046010000",Office Depot,Boise,ID
4697,BOTNvKWla9A5mFgFYGMKjQ,b_BOTNvKWla9A5mFgFYGMKjQ,43.5900158,-116.2873861,"43.5900158000,-116.2873861000",Primos,Boise,ID
4698,foM-SJ5C9DiVC5AmeBrV9A,b_foM-SJ5C9DiVC5AmeBrV9A,43.6106802,-116.2838088,"43.6106802000,-116.2838088000",T.G.I. Friday's,Boise,ID
4699,JF_ncYoA6TBTPCprqZP05A,b_JF_ncYoA6TBTPCprqZP05A,43.5863862,-116.194191,"43.5863862000,-116.1941910000",Les Schwab Tire Center,Boise,ID
4700,j8NhrBzy1op0BfVGdSOiXQ,b_j8NhrBzy1op0BfVGdSOiXQ,43.588937,-116.278166,"43.5889370000,-116.2781660000",The Creperie Cafe,Boise,ID
4701,7e5Ez0o3swBIh6rgXARwJA,b_7e5Ez0o3swBIh6rgXARwJA,43.6648054,-116.2730117847,"43.6648054000,-116.2730117847",Stag Hair Care,Boise,ID
4702,OvgdMgK7kn0e14EMpkl5zA,b_OvgdMgK7kn0e14EMpkl5zA,43.6308042,-116.2229354,"43.6308042000,-116.2229354000",27th St. Automotive,Boise,ID
4703,XjBdSdoeccJBteLOJxMF1A,b_XjBdSdoeccJBteLOJxMF1A,43.630547,-116.297019,"43.6305470000,-116.2970190000",Cinco De Mayo,Boise,ID
4704,rx0MXs2W9qbPHIOf0aWAug,b_rx0MXs2W9qbPHIOf0aWAug,43.6661641,-116.2744096,"43.6661641000,-116.2744096000",The Egg Factory,Boise,ID
4705,n5cVdnvhOsZa-UC_cu2Asw,b_n5cVdnvhOsZa-UC_cu2Asw,43.6479393,-116.313438,"43.6479393000,-116.3134380000",McMillan Medical Center & Urgent Care,Boise,ID
4706,Cj-B39-f573L_I3Ta1D8Pw,b_Cj-B39-f573L_I3Ta1D8Pw,43.5728502,-116.2141606,"43.5728502000,-116.2141606000",Castle Ranch Steakhouse,Boise,ID
4707,Cgb8x1G4mr79Tv2CZc7e2Q,b_Cgb8x1G4mr79Tv2CZc7e2Q,43.6485768,-116.2474797,"43.6485768000,-116.2474797000",Salt Tears Coffehouse and Noshery,Boise,ID
4708,khVgwowtBDRWHp77qDFmqQ,b_khVgwowtBDRWHp77qDFmqQ,43.585089,-116.276677,"43.5850890000,-116.2766770000",Costco Wholesale,Boise,ID
4709,jbJTF1zVmZsk4hea8hoeVA,b_jbJTF1zVmZsk4hea8hoeVA,43.616389,-116.203056,"43.6163890000,-116.2030560000",Fork,Boise,ID
4710,A1wvCgoq8k0fY8tyjknNTw,b_A1wvCgoq8k0fY8tyjknNTw,43.6197029,-116.2321836,"43.6197029000,-116.2321836000",Tepanyaki Japanese Steak House,Boise,ID
4711,uTviHVYdX6yen-vNuCebbg,b_uTviHVYdX6yen-vNuCebbg,43.6200571,-116.2887116,"43.6200571000,-116.2887116000",Marie Callender's Restaurant & Bakery,Boise,ID
4712,3jHRK5vphvtY0Z6yrxO0lQ,b_3jHRK5vphvtY0Z6yrxO0lQ,43.6385884,-116.232335,"43.6385884000,-116.2323350000",Asian Wok,Boise,ID
4713,zwjWB0vnJhVcSehP_LS82A,b_zwjWB0vnJhVcSehP_LS82A,43.6485608,-116.2474673,"43.6485608000,-116.2474673000",20th Century Lanes,Boise,ID
4714,Zey_Oi4AbA_PQBcecQFdYQ,b_Zey_Oi4AbA_PQBcecQFdYQ,43.5681696051,-116.1783625839,"43.5681696051,-116.1783625839",Fred Meyer,Boise,ID
4715,PeJV_10X0adYAAzfUX-DSQ,b_PeJV_10X0adYAAzfUX-DSQ,43.6148012,-116.2022952,"43.6148012000,-116.2022952000",Lunchbox Wax Boise - Downtown,Boise,ID
4716,_KAH54jgvIfP7uQZ4IRl2A,b__KAH54jgvIfP7uQZ4IRl2A,43.6234626,-116.2085382,"43.6234626000,-116.2085382000",Norge Laundry and Dry Cleaning Village,Boise,ID
4717,8DM3JNgGbJC9vevUpVDujg,b_8DM3JNgGbJC9vevUpVDujg,43.618124,-116.205429,"43.6181240000,-116.2054290000",The Huddle Sports Bar & Grill,Boise,ID
4718,yuQFaYy6VVQiDTotUorYMA,b_yuQFaYy6VVQiDTotUorYMA,43.5923962,-116.1939393,"43.5923962000,-116.1939393000",Idaho Pizza Company,Boise,ID
4719,JqmCBRv0sWxexD4grjMn3Q,b_JqmCBRv0sWxexD4grjMn3Q,43.5599186,-116.2409534,"43.5599186000,-116.2409534000",Idaho Humane Society,Boise,ID
4720,ZEwDxSvdBPKlH7SMrGbp4g,b_ZEwDxSvdBPKlH7SMrGbp4g,43.577204,-116.1949221,"43.5772040000,-116.1949221000",Sally Beauty Supply,Boise,ID
4721,ul9EBz73-T5d5gZNM3icpg,b_ul9EBz73-T5d5gZNM3icpg,43.6413459,-116.233820489,"43.6413459000,-116.2338204890",Boise Kennels,Boise,ID
4722,q3nQcgx2KFYiAnTLfIx18w,b_q3nQcgx2KFYiAnTLfIx18w,43.602896,-116.244377,"43.6028960000,-116.2443770000",Mandarin Palace,Boise,ID
4723,nW6GD59wEt7ySoFllUAPig,b_nW6GD59wEt7ySoFllUAPig,43.606885,-116.2076385,"43.6068850000,-116.2076385000",Morrison Center for the Performing Arts,Boise,ID
4724,TsDRKR088EVr7yD8JLhrIA,b_TsDRKR088EVr7yD8JLhrIA,43.6039139,-116.2155021,"43.6039139000,-116.2155021000",Anniversary Inn Boise,Boise,ID
4725,36GHBB97lmuzFgW1VJnOKA,b_36GHBB97lmuzFgW1VJnOKA,43.621516,-116.2180547,"43.6215160000,-116.2180547000",Sushi Joy,Boise,ID
4726,VdSpgPWjv9KuQlAXgNDOEg,b_VdSpgPWjv9KuQlAXgNDOEg,43.6189158,-116.283032,"43.6189158000,-116.2830320000",Allay Spa,Boise,ID
4727,WDajKjxU-J8D_1ieX2T2Eg,b_WDajKjxU-J8D_1ieX2T2Eg,43.5856989,-116.223131,"43.5856989000,-116.2231310000",Little Dutch Garden,Boise,ID
4728,zK1xA5rL7a5o0nCIlvvkSg,b_zK1xA5rL7a5o0nCIlvvkSg,43.5964468,-116.2142598,"43.5964468000,-116.2142598000",Vista Bar,Boise,ID
4729,lCjNNCJKMEeAHjSUFqEH5A,b_lCjNNCJKMEeAHjSUFqEH5A,43.61981,-116.33944,"43.6198100000,-116.3394400000",Stonehenge Produce,Boise,ID
4730,XgPaGKEO34UhLtJcaByMxA,b_XgPaGKEO34UhLtJcaByMxA,43.6055005,-116.2121942,"43.6055005000,-116.2121942000",Papa's Cup of Joe,Boise,ID
4731,Ne3Df85pShJzqiaHdjB1Dw,b_Ne3Df85pShJzqiaHdjB1Dw,43.5864721799,-116.2810617685,"43.5864721799,-116.2810617685",Homewood Suites by Hilton Boise,Boise,ID
4732,5sSlpSebsSFF7RNpi3bWvQ,b_5sSlpSebsSFF7RNpi3bWvQ,43.5895084,-116.2292233,"43.5895084000,-116.2292233000",Orange Hair Salon & Spa,Boise,ID
4733,zF4oTmVhgMMUARO6dtLxXw,b_zF4oTmVhgMMUARO6dtLxXw,43.6478323,-116.3520706,"43.6478323000,-116.3520706000",All Pro Lawn Service,Boise,ID
4734,W-7fNvYFwhlcWUUXiRAI1g,b_W-7fNvYFwhlcWUUXiRAI1g,43.6477747,-116.247657,"43.6477747000,-116.2476570000",Thriftway Home Center & Ace Hardware,Boise,ID
4735,JMhyYTlfvZB_xYQVpsCyAg,b_JMhyYTlfvZB_xYQVpsCyAg,43.5728572,-116.2156323,"43.5728572000,-116.2156323000",Super 8 by Wyndham Boise,Boise,ID
4736,7V9tzovEB26FILijEVaLwg,b_7V9tzovEB26FILijEVaLwg,43.6662622,-116.2750783,"43.6662622000,-116.2750783000",Los Betos,Boise,ID
4737,J--R8_P_gfIHkz15R4axTw,b_J--R8_P_gfIHkz15R4axTw,43.5908777,-116.3110271,"43.5908777000,-116.3110271000",Country Donuts,Boise,ID
4738,K4I8PyxqI57ABlV_rn8PEQ,b_K4I8PyxqI57ABlV_rn8PEQ,43.6620287,-116.3372137,"43.6620287000,-116.3372137000",Guido's Original New York Style Pizza,Boise,ID
4739,DgaaiJq0ji-Wyx7yYLUVwQ,b_DgaaiJq0ji-Wyx7yYLUVwQ,43.601484,-116.193054,"43.6014840000,-116.1930540000",Chili's,Boise,ID
4740,hvvxTFbnrd28Ddebgc8SeA,b_hvvxTFbnrd28Ddebgc8SeA,43.6001424,-116.1931984,"43.6001424000,-116.1931984000",Suds Tavern,Boise,ID
4741,Ot6uKBOfpYU5kvzhSVcg2Q,b_Ot6uKBOfpYU5kvzhSVcg2Q,43.5787397,-116.1940603,"43.5787397000,-116.1940603000",Jack in the Box,Boise,ID
4742,RqUzQ0r_9OROd6YRS_wlow,b_RqUzQ0r_9OROd6YRS_wlow,43.6139581,-116.2241636,"43.6139581000,-116.2241636000",Ann Morrison Park,Boise,ID
4743,BWPPAgytXrqVxjeL7l-XVA,b_BWPPAgytXrqVxjeL7l-XVA,43.609744065,-116.2718367361,"43.6097440650,-116.2718367361",Residence Inn by Marriott Boise West,Boise,ID
4744,btHprfNAOx7akqU-VDLDzA,b_btHprfNAOx7akqU-VDLDzA,43.5894202,-116.2624841,"43.5894202000,-116.2624841000",Tres Bonne Cuisine,Boise,ID
4745,cul9zG3Oy-B9dKLqRg58FQ,b_cul9zG3Oy-B9dKLqRg58FQ,43.596665,-116.193059,"43.5966650000,-116.1930590000",Del Taco,Boise,ID
4746,4iMFHtxAHR7OuPurl1_uMg,b_4iMFHtxAHR7OuPurl1_uMg,43.6104358,-116.206718,"43.6104358000,-116.2067180000",Julia Davis Park,Boise,ID
4747,hUHJegei0-5QgCn5KGzvSA,b_hUHJegei0-5QgCn5KGzvSA,43.6192042,-116.2099976,"43.6192042000,-116.2099976000",Hurless Brothers Foreign Car Service,Boise,ID
4748,lbvhjs3ShUHi9cTcORiYwA,b_lbvhjs3ShUHi9cTcORiYwA,43.5747791719,-116.1547672749,"43.5747791719,-116.1547672749",Bier:Thirty Bottle & Bistro,Boise,ID
4749,MKfdvSIBmpb_u_I7O8wDeg,b_MKfdvSIBmpb_u_I7O8wDeg,43.611894,-116.295581,"43.6118940000,-116.2955810000",Maru Sushi,Boise,ID
4750,JQ9N64X8FiQWT0NIz0U3DQ,b_JQ9N64X8FiQWT0NIz0U3DQ,43.5917967,-116.2451833,"43.5917967000,-116.2451833000",Albertsons,Boise,ID
4751,pvNLUAKJDDe5sxlZlZhsPQ,b_pvNLUAKJDDe5sxlZlZhsPQ,43.596364,-116.181923,"43.5963640000,-116.1819230000",Mallard Family Dental Center,Boise,ID
4752,qi-6Fd1m16YwUQJNUHJfCQ,b_qi-6Fd1m16YwUQJNUHJfCQ,43.597226462,-116.1776927548,"43.5972264620,-116.1776927548",Gem State Dermatology,Boise,ID
4753,-SGvS9V0Yc5Ler2HrgtYJw,b_-SGvS9V0Yc5Ler2HrgtYJw,43.6620371,-116.3362615,"43.6620371000,-116.3362615000",Lindy's Steak House,Boise,ID
4754,rpsnU3gry9wl3w8XmN_9Pg,b_rpsnU3gry9wl3w8XmN_9Pg,43.574013,-116.216018,"43.5740130000,-116.2160180000",Applebee's Grill + Bar,Boise,ID
4755,2FA2THDOEJjJHjF5opkd7g,b_2FA2THDOEJjJHjF5opkd7g,43.6053747,-116.2137912,"43.6053747000,-116.2137912000",Residence Inn Boise Downtown/University,Boise,ID
4756,IawT1emmoua-NJNMQHIvqg,b_IawT1emmoua-NJNMQHIvqg,43.6127523,-116.1923716,"43.6127523000,-116.1923716000",St Luke's Boise Medical Center,Boise,ID
4757,V9ZR9Y3dm1In75HYsaHwnQ,b_V9ZR9Y3dm1In75HYsaHwnQ,43.619398,-116.2252123,"43.6193980000,-116.2252123000",The Symposion,Boise,ID
4758,l86c7xYxAIztpGILAddmvg,b_l86c7xYxAIztpGILAddmvg,43.5516566,-116.29879,"43.5516566000,-116.2987900000",The Kilted Kod,Boise,ID
4759,gpB-jutBs-6JdL2HJK6LgA,b_gpB-jutBs-6JdL2HJK6LgA,43.5815658,-116.2735161,"43.5815658000,-116.2735161000",Fast Glass,Boise,ID
4760,GSDxAWLxm5OtVptFVVVpOg,b_GSDxAWLxm5OtVptFVVVpOg,43.6111732,-116.2955918,"43.6111732000,-116.2955918000",The Human Bean,Boise,ID
4761,sAKi_OzRy_F9DHYgHsHJEw,b_sAKi_OzRy_F9DHYgHsHJEw,43.6354077,-116.3147102,"43.6354077000,-116.3147102000",Sam's Place,Boise,ID
4762,dqyijU3ditWPJKxPgR3qAQ,b_dqyijU3ditWPJKxPgR3qAQ,43.5897931,-116.2695546,"43.5897931000,-116.2695546000",Eddie's Restaurant,Boise,ID
4763,l9QTHlTFmZhTw7Hdb1QyFA,b_l9QTHlTFmZhTw7Hdb1QyFA,43.6441651,-116.2783749,"43.6441651000,-116.2783749000",Pho Bac,Boise,ID
4764,HJGCJyJreTSyYdI5hvYTxw,b_HJGCJyJreTSyYdI5hvYTxw,43.6033203,-116.1851597,"43.6033203000,-116.1851597000",Kristin Armstrong Municipal Park,Boise,ID
4765,eFtK6N21KDkG16f9SG37FQ,b_eFtK6N21KDkG16f9SG37FQ,43.6188668,-116.2852083,"43.6188668000,-116.2852083000",Four Corners,Boise,ID
4766,F16ebDcC8G4jg0NEnNQc3Q,b_F16ebDcC8G4jg0NEnNQc3Q,43.591626,-116.195873,"43.5916260000,-116.1958730000",Idaho Eyecare Center,Boise,ID
4767,MKN29e2Cg3zyCuzmbSk02g,b_MKN29e2Cg3zyCuzmbSk02g,43.6147021,-116.1963672,"43.6147021000,-116.1963672000",Capitol Dental,Boise,ID
4768,PaB1RhsPKZBblFCCP0ZF8Q,b_PaB1RhsPKZBblFCCP0ZF8Q,43.5818189016,-116.2133121509,"43.5818189016,-116.2133121509",Dutch Bros Coffee,Boise,ID
4769,-fXwu3Xc3jI4cq_uptjBCQ,b_-fXwu3Xc3jI4cq_uptjBCQ,43.6161987601,-116.2085895033,"43.6161987601,-116.2085895033",Archie's Place,Boise,ID
4770,ljVBqXIel3xrM_CXtM8Xqg,b_ljVBqXIel3xrM_CXtM8Xqg,43.6144916,-116.2860104,"43.6144916000,-116.2860104000",Joann - Boise,Boise,ID
4771,zhmHiJYLhdIDYA1WOr3itQ,b_zhmHiJYLhdIDYA1WOr3itQ,43.6189826,-116.282941,"43.6189826000,-116.2829410000",The Lion's Den Salon for Men,Boise,ID
4772,me3DDLH1v6d7LS_dXJnF6g,b_me3DDLH1v6d7LS_dXJnF6g,43.6172663,-116.2057671,"43.6172663000,-116.2057671000",Robert Riebe's Shoe Repair,Boise,ID
4773,UfETwTB6vJa6HmnbVrPZaQ,b_UfETwTB6vJa6HmnbVrPZaQ,43.58934,-116.269085,"43.5893400000,-116.2690850000",Woodcraft Supply,Boise,ID
4774,OHBBeHXOnqYM6O9a6trpag,b_OHBBeHXOnqYM6O9a6trpag,43.5903982,-116.2677889,"43.5903982000,-116.2677889000",Taco Time,Boise,ID
4775,01Vnpln40zgSK6H6pAcd5Q,b_01Vnpln40zgSK6H6pAcd5Q,43.6170503,-116.2041161,"43.6170503000,-116.2041161000",Bacon Boise,Boise,ID
4776,YFlc7Zmbk_h6GiAriTnxcg,b_YFlc7Zmbk_h6GiAriTnxcg,43.6040309967,-116.2903087958,"43.6040309967,-116.2903087958",Viziato,Boise,ID
4777,F2T2Ef5kcZuyTyUcJyh0rQ,b_F2T2Ef5kcZuyTyUcJyh0rQ,43.5870789,-116.278549,"43.5870789000,-116.2785490000",Timeout Sports Pub & Restaurant,Boise,ID
4778,dBgswyYc_lRk5vbzIMgDhQ,b_dBgswyYc_lRk5vbzIMgDhQ,43.6320897,-116.2863998,"43.6320897000,-116.2863998000",A Taste of Thai,Boise,ID
4779,PYZRr0xCIiSHSGZ3RzRcFg,b_PYZRr0xCIiSHSGZ3RzRcFg,43.6567061,-116.278613,"43.6567061000,-116.2786130000",Memorial Stadium,Boise,ID
4780,IFRZxJeTb_2GbclWpz0NTA,b_IFRZxJeTb_2GbclWpz0NTA,43.6106745197,-116.2824849724,"43.6106745197,-116.2824849724",David's Bridal,Boise,ID
4781,N4D_ttKAx6tcj4Q0Jnvoaw,b_N4D_ttKAx6tcj4Q0Jnvoaw,43.5812,-116.1727444,"43.5812000000,-116.1727444000",Papa Murphy's,Boise,ID
4782,5YFLeso3PLK9ruyB_Ue3ZA,b_5YFLeso3PLK9ruyB_Ue3ZA,43.5702496,-116.2214842,"43.5702496000,-116.2214842000",Maui Tacos,Boise,ID
4783,UvyaUO8zwFj8AMhcq5TDEA,b_UvyaUO8zwFj8AMhcq5TDEA,43.6804587,-116.3070397,"43.6804587000,-116.3070397000",Bob's Texas BBQ,Boise,ID
4784,bKioXtU1Z2i3Q1oa78JJUg,b_bKioXtU1Z2i3Q1oa78JJUg,43.6190551,-116.2094664,"43.6190551000,-116.2094664000",Idaho Mountain Touring,Boise,ID
4785,47khVvigq-3l5ntvLJRECQ,b_47khVvigq-3l5ntvLJRECQ,43.517093,-116.256341,"43.5170930000,-116.2563410000",The Peregrine Fund's World Center for Birds of Prey,Boise,ID
4786,js3il_26yE_MDwzXUfBmmg,b_js3il_26yE_MDwzXUfBmmg,43.530185,-116.0593412,"43.5301850000,-116.0593412000",Lucky Peak State Park,Boise,ID
4787,Si2ToIE073ze2U4KOCmtJQ,b_Si2ToIE073ze2U4KOCmtJQ,43.6038375,-116.2852373,"43.6038375000,-116.2852373000",TJ Maxx Home Goods,Boise,ID
4788,903rDtK-EQi9A_jwttuAcQ,b_903rDtK-EQi9A_jwttuAcQ,43.6688582488,-116.2776831963,"43.6688582488,-116.2776831963",Albertsons,Boise,ID
4789,T7oDsacxvoHdHQmBZOjwuA,b_T7oDsacxvoHdHQmBZOjwuA,43.6189873,-116.2912352,"43.6189873000,-116.2912352000",Confucius Restaurant,Boise,ID
4790,QgAvtXqgqz7x3YzrlNZRtQ,b_QgAvtXqgqz7x3YzrlNZRtQ,43.592279,-116.284745,"43.5922790000,-116.2847450000",Walmart Supercenter,Boise,ID
4791,GWykf3nN8kiW-Nv3pIeKeg,b_GWykf3nN8kiW-Nv3pIeKeg,43.5442365,-116.3367641,"43.5442365000,-116.3367641000",Sandbagger Grill Boise Ranch,Boise,ID
4792,7ME2oxEbpHT1pEkDUksU4Q,b_7ME2oxEbpHT1pEkDUksU4Q,43.5763045,-116.3135853,"43.5763045000,-116.3135853000",Five Mile Farm & Greenhouse,Boise,ID
4793,AbFmB9JxE40z4w2bO9XBgw,b_AbFmB9JxE40z4w2bO9XBgw,43.5901428499,-116.2413856842,"43.5901428499,-116.2413856842",Burger King,Boise,ID
4794,bwDeI0YRqn7rToBwH4ptKQ,b_bwDeI0YRqn7rToBwH4ptKQ,43.593852489,-116.2141993,"43.5938524890,-116.2141993000",McDonald's,Boise,ID
4795,LiVPnlUuLGNOpGH_pt5VZg,b_LiVPnlUuLGNOpGH_pt5VZg,43.5898645,-116.3129273,"43.5898645000,-116.3129273000",Papa Murphy's,Boise,ID
4796,EV5T8sHbtITq0Yegs5jxTA,b_EV5T8sHbtITq0Yegs5jxTA,43.6021881,-116.1739166,"43.6021881000,-116.1739166000",Natatorium Pool and Hydrotube,Boise,ID
4797,zi-QER97KRnFsZqr56mL1w,b_zi-QER97KRnFsZqr56mL1w,43.5906529,-116.2801387,"43.5906529000,-116.2801387000",Panda Express,Boise,ID
4798,1uR8FrUDrJFwtdUu06_amA,b_1uR8FrUDrJFwtdUu06_amA,43.6059605,-116.2115655,"43.6059605000,-116.2115655000",Tree City Juice & Smoothie Cafe,Boise,ID
4799,8vZNr9K5tD4x2URAsZLuoA,b_8vZNr9K5tD4x2URAsZLuoA,43.561631,-116.3347163,"43.5616310000,-116.3347163000",Twisted Timber Tavern,Boise,ID
4800,eZHDt_Rvr8OwzAZg6tSIBg,b_eZHDt_Rvr8OwzAZg6tSIBg,43.6143384,-116.2016751,"43.6143384000,-116.2016751000",Tom Grainey's,Boise,ID
4801,qriFlPk04-_qGVCTHlA48Q,b_qriFlPk04-_qGVCTHlA48Q,43.5908116,-116.2835764,"43.5908116000,-116.2835764000",Great Clips,Boise,ID
4802,ZvrQDco7tIYXNoVSgmeb0g,b_ZvrQDco7tIYXNoVSgmeb0g,43.5793821,-116.193177,"43.5793821000,-116.1931770000",Tire Choice Auto Service Centers,Boise,ID
4803,O-GjSaJVPcQnKJBX9P_jrQ,b_O-GjSaJVPcQnKJBX9P_jrQ,43.6566415,-116.25879,"43.6566415000,-116.2587900000",Kim Nails,Boise,ID
4804,-DJmkn9HGCpCTF9G1ozklw,b_-DJmkn9HGCpCTF9G1ozklw,43.5771753,-116.1937003,"43.5771753000,-116.1937003000",Broadway Deli,Boise,ID
4805,5K14YgvK1EmvUBf_kac8oQ,b_5K14YgvK1EmvUBf_kac8oQ,43.5880279,-116.2796936,"43.5880279000,-116.2796936000",On the Border Mexican Grill & Cantina,Boise,ID
4806,eqkMWSnLKPkpFvW0XCQd4A,b_eqkMWSnLKPkpFvW0XCQd4A,43.6041344568,-116.2136991621,"43.6041344568,-116.2136991621",TownePlace Suites by Marriott Boise Downtown,Boise,ID
4807,TP7y7xy78CpqRTrPglDrJQ,b_TP7y7xy78CpqRTrPglDrJQ,43.5688732,-116.2095314,"43.5688732000,-116.2095314000",Inn America - Boise,Boise,ID
4808,bCtt_sEcWZuy_yju5o06Qw,b_bCtt_sEcWZuy_yju5o06Qw,43.6145202756,-116.2053380218,"43.6145202756,-116.2053380218",Boise Centre,Boise,ID
4809,o07dqR5eZhjeAAlqfs7JNA,b_o07dqR5eZhjeAAlqfs7JNA,43.610121,-116.193995,"43.6101210000,-116.1939950000",Aspen Leaf Yogurt,Boise,ID
4810,tO9QasiWipDQ2ErZ0LlhOw,b_tO9QasiWipDQ2ErZ0LlhOw,43.5868179,-116.2708835,"43.5868179000,-116.2708835000",Wings Center,Boise,ID
4811,RTfy6koLz76SG0zNzw4CGw,b_RTfy6koLz76SG0zNzw4CGw,43.61337,-116.215271,"43.6133700000,-116.2152710000",Payette Brewing,Boise,ID
4812,NdEsVsWbM-e3YjsWcAADUQ,b_NdEsVsWbM-e3YjsWcAADUQ,43.6500649,-116.2726011,"43.6500649000,-116.2726011000",Expo Idaho,Boise,ID
4813,w324yC7fgiHgLUN7PiCFNQ,b_w324yC7fgiHgLUN7PiCFNQ,43.6118138,-116.2878682,"43.6118138000,-116.2878682000",Undone Hair Salon,Boise,ID
4814,lVH0oTopk7RE8D-IkLxUiQ,b_lVH0oTopk7RE8D-IkLxUiQ,43.61916,-116.26474,"43.6191600000,-116.2647400000",Firestone Complete Auto Care,Boise,ID
4815,ga-hs3xkgg_wgzmCAeTdBQ,b_ga-hs3xkgg_wgzmCAeTdBQ,43.6383835,-116.2335018,"43.6383835000,-116.2335018000",Bikes 2 Boards,Boise,ID
4816,49n_49WxVQCj-h3wxRmJcw,b_49n_49WxVQCj-h3wxRmJcw,43.6666128,-116.2756528,"43.6666128000,-116.2756528000",Papa Murphy's,Boise,ID
4817,xT-9Msri9Sr1RI1hjGnFfA,b_xT-9Msri9Sr1RI1hjGnFfA,43.6195723424,-116.2132120513,"43.6195723424,-116.2132120513",Eyes of the World Imports,Boise,ID
4818,Os_-n--xyTSqES0gNjLZOg,b_Os_-n--xyTSqES0gNjLZOg,43.6073843,-116.2851354,"43.6073843000,-116.2851354000",Eyemart Express,Boise,ID
4819,I2MJ5H6q__7AgSXbu3I_5Q,b_I2MJ5H6q__7AgSXbu3I_5Q,43.6185461,-116.2121166,"43.6185461000,-116.2121166000",Liquor Store,Boise,ID
4820,bnS8kEUS0LJ3XcTvfRhi_A,b_bnS8kEUS0LJ3XcTvfRhi_A,43.6070046,-116.2824992,"43.6070046000,-116.2824992000",Jared Galleria of Jewelry,Boise,ID
4821,uRKic74vdysr19utOlI_Ww,b_uRKic74vdysr19utOlI_Ww,43.6062,-116.2816,"43.6062000000,-116.2816000000",Petco,Boise,ID
4822,ClyAKzVLro49EJ71med6yQ,b_ClyAKzVLro49EJ71med6yQ,43.6189897,-116.2640767,"43.6189897000,-116.2640767000",Burger Express,Boise,ID
4823,sdk-4BqnjpYWk0WOEEyf_g,b_sdk-4BqnjpYWk0WOEEyf_g,43.6171898,-116.2068505,"43.6171898000,-116.2068505000",Foot Dynamics,Boise,ID
4824,neLXzas5EUzI75JMarKBXg,b_neLXzas5EUzI75JMarKBXg,43.6546549124,-116.2954562883,"43.6546549124,-116.2954562883",The Recycled Room Consignment Interiors,Boise,ID
4825,WPleSelT-dnFxDnnOeOi6A,b_WPleSelT-dnFxDnnOeOi6A,43.6122575,-116.2420116,"43.6122575000,-116.2420116000",Emerald Lanes,Boise,ID
4826,1LLXrKlTbnKGVLvJQ72Xpw,b_1LLXrKlTbnKGVLvJQ72Xpw,43.6144211,-116.2014836,"43.6144211000,-116.2014836000",The Brickyard,Boise,ID
4827,MYMLQfzRv8x7aO-bv9vpFg,b_MYMLQfzRv8x7aO-bv9vpFg,43.6139398936,-116.2053884805,"43.6139398936,-116.2053884805",Five Guys,Boise,ID
4828,v329SpQrzgDfmSXP1pnt_g,b_v329SpQrzgDfmSXP1pnt_g,43.646729,-116.2665094,"43.6467290000,-116.2665094000",Keto Heating & Cooling,Boise,ID
4829,Ww9FIzWJTwiN6Vlh_RdoNA,b_Ww9FIzWJTwiN6Vlh_RdoNA,43.5908169,-116.2133656,"43.5908169000,-116.2133656000",Cucina Di Paolo,Boise,ID
4830,zCPAtigemIDxlga4HigLgQ,b_zCPAtigemIDxlga4HigLgQ,43.647095,-116.226491,"43.6470950000,-116.2264910000",Flash Heating and Home Repair,Boise,ID
4831,pO26EJWkGf1J_QkI-B7Eeg,b_pO26EJWkGf1J_QkI-B7Eeg,43.6337262,-116.2644997,"43.6337262000,-116.2644997000",The Gyro House,Boise,ID
4832,Nz_FSXFlkWkd3sWWkQdLJA,b_Nz_FSXFlkWkd3sWWkQdLJA,43.5739352,-116.217681,"43.5739352000,-116.2176810000",Holiday Inn Boise Airport,Boise,ID
4833,58k-qntpJFpyNFk09BGTzw,b_58k-qntpJFpyNFk09BGTzw,43.606686,-116.2823,"43.6066860000,-116.2823000000",Chipotle Mexican Grill,Boise,ID
4834,a7GH7t5cJy62O6IevecFkA,b_a7GH7t5cJy62O6IevecFkA,43.6212581,-116.21644,"43.6212581000,-116.2164400000",Red Lion Hotel Boise Downtowner,Boise,ID
4835,ZgmxyyWoWZhpE2YxufsEDQ,b_ZgmxyyWoWZhpE2YxufsEDQ,43.6117,-116.28086,"43.6117000000,-116.2808600000",IHOP,Boise,ID
4836,2aKfrOkUAM3m6PHJ6GqG4A,b_2aKfrOkUAM3m6PHJ6GqG4A,43.6112667,-116.2463306,"43.6112667000,-116.2463306000",Michael's Automotive,Boise,ID
4837,8wMzew0BbsQoeV_E4ViGsQ,b_8wMzew0BbsQoeV_E4ViGsQ,43.589294,-116.244297,"43.5892940000,-116.2442970000",Rite Aid,Boise,ID
4838,MFHsaLHnXpi43mJ51gjljQ,b_MFHsaLHnXpi43mJ51gjljQ,43.6182469,-116.2820175,"43.6182469000,-116.2820175000",City Buffet,Boise,ID
4839,VDTIyOQhI0NOjbGM9-UuQw,b_VDTIyOQhI0NOjbGM9-UuQw,43.6345470205,-116.3162987669,"43.6345470205,-116.3162987669",Albertsons,Boise,ID
4840,CWE-NfyMgi28ePUiansSdQ,b_CWE-NfyMgi28ePUiansSdQ,43.6072576,-116.2127303,"43.6072576000,-116.2127303000",Jim's Appliance & Furniture,Boise,ID
4841,kAAhqAExQQWOfOs1anICDg,b_kAAhqAExQQWOfOs1anICDg,43.6226827,-116.2098472,"43.6226827000,-116.2098472000",Rite Aid,Boise,ID
4842,XY1Z51R35sjJjUvLjldgEQ,b_XY1Z51R35sjJjUvLjldgEQ,43.600007,-116.1932561,"43.6000070000,-116.1932561000",Cobby's,Boise,ID
4843,KifRv8R3irtkB3e7nPIsMw,b_KifRv8R3irtkB3e7nPIsMw,43.5912947,-116.2432695,"43.5912947000,-116.2432695000",Miracle Tire and Total Car Care,Boise,ID
4844,lZKrUxex0K7xrLqfGWE6GA,b_lZKrUxex0K7xrLqfGWE6GA,43.607748,-116.286466,"43.6077480000,-116.2864660000",Sparklight,Boise,ID
4845,oImpUwBZlC63aFolRI8k-g,b_oImpUwBZlC63aFolRI8k-g,43.578148,-116.286874,"43.5781480000,-116.2868740000",Escape the Crate,Boise,ID
4846,ll8mojCKQkHXOpOC_LJkxA,b_ll8mojCKQkHXOpOC_LJkxA,43.6199326067,-116.2754406281,"43.6199326067,-116.2754406281",Hastings Books Music & Video,Boise,ID
4847,xytyAuAsUcSIgRSEuLAwjg,b_xytyAuAsUcSIgRSEuLAwjg,43.5660966178,-116.2239619153,"43.5660966178,-116.2239619153",Horizon Air,Boise,ID
4848,RcwANDRKgt5lzsRiH0y2Wg,b_RcwANDRKgt5lzsRiH0y2Wg,43.6394119,-116.2337965,"43.6394119000,-116.2337965000",Jiffy Lube,Boise,ID
4849,sZs1UrdLUMQ6khJGXSvObg,b_sZs1UrdLUMQ6khJGXSvObg,43.609381,-116.242945,"43.6093810000,-116.2429450000",McDonald's,Boise,ID
4850,tUfpWscvsljtGr3yMpOT5Q,b_tUfpWscvsljtGr3yMpOT5Q,43.5916659,-116.279426,"43.5916659000,-116.2794260000",Oxford Suites Boise,Boise,ID
4851,xfONeBdgRX5lsOt7g2AbvA,b_xfONeBdgRX5lsOt7g2AbvA,43.6299282,-116.2035412,"43.6299282000,-116.2035412000",Euphoria Salon-Hyde Park,Boise,ID
4852,65JS8RlYtSKfp7Ys7G0ZHA,b_65JS8RlYtSKfp7Ys7G0ZHA,43.591149,-116.309521,"43.5911490000,-116.3095210000",Jiffy Lube,Boise,ID
4853,BYPpaYGiBr1dGlF1pOH9-Q,b_BYPpaYGiBr1dGlF1pOH9-Q,43.5895494918,-116.2812567626,"43.5895494918,-116.2812567626",Carl's Jr,Boise,ID
4854,ro_Z_-uBfidjBt-Qx_o1Hg,b_ro_Z_-uBfidjBt-Qx_o1Hg,43.5907747,-116.2837109,"43.5907747000,-116.2837109000",U-Swirl,Boise,ID
4855,V12ed_LCJvd9qHcQZnz5gg,b_V12ed_LCJvd9qHcQZnz5gg,43.5889809,-116.2329785,"43.5889809000,-116.2329785000",AutoZone Auto Parts,Boise,ID
4856,AcmxBZ52mY4BsjWUenEHKQ,b_AcmxBZ52mY4BsjWUenEHKQ,43.5398112,-116.1557847,"43.5398112000,-116.1557847000",Jack in the Box,Boise,ID
4857,DJUsZL7ofSIFV0Ik--WblQ,b_DJUsZL7ofSIFV0Ik--WblQ,43.602911,-116.195851,"43.6029110000,-116.1958510000",Albertsons Stadium,Boise,ID
4858,y_s9BsVRsAp3hzNVXUichQ,b_y_s9BsVRsAp3hzNVXUichQ,43.618952,-116.273614,"43.6189520000,-116.2736140000",Starbucks,Boise,ID
4859,iZedtF9CGBYCDdxF6QAZCQ,b_iZedtF9CGBYCDdxF6QAZCQ,43.6201006355,-116.3388257649,"43.6201006355,-116.3388257649",Great Harvest Bread Co Meridian,Boise,ID
4860,VIJr3yyGUoeJ5rPHUQAHbw,b_VIJr3yyGUoeJ5rPHUQAHbw,43.6152191162,-116.2746734619,"43.6152191162,-116.2746734619",Panache Hair Studio & Day Spa,Boise,ID
4861,wP4LKr67hg1T82GR59eVgg,b_wP4LKr67hg1T82GR59eVgg,43.5993391,-116.1939283,"43.5993391000,-116.1939283000",Ladd Family Pharmacy,Boise,ID
4862,gNejDfOC9jm1cFftEy6OPg,b_gNejDfOC9jm1cFftEy6OPg,43.5959412569,-116.1786678055,"43.5959412569,-116.1786678055",Smoky Mountain Pizzeria Grill,Boise,ID
4863,g0f1DL-VI0KGxJXBEFYQRw,b_g0f1DL-VI0KGxJXBEFYQRw,43.5924907,-116.1971059,"43.5924907000,-116.1971059000",Cosmic Pizza,Boise,ID
4864,djJEgAHvnopw4AAWdISO6A,b_djJEgAHvnopw4AAWdISO6A,43.5725949819,-116.217488,"43.5725949819,-116.2174880000",Hampton Inn Boise - Airport,Boise,ID
4865,OGPz7hxR8CP2UpooFc6PFw,b_OGPz7hxR8CP2UpooFc6PFw,43.610581,-116.285758,"43.6105810000,-116.2857580000",Target,Boise,ID
4866,-KGU26T6bW8Hr-XSPWX4ow,b_-KGU26T6bW8Hr-XSPWX4ow,43.5825053,-116.1713499,"43.5825053000,-116.1713499000",Westco Martinizing Dry Cleaning,Boise,ID
4867,HV4573Oo5PYDU5M1jk7yYA,b_HV4573Oo5PYDU5M1jk7yYA,43.603729,-116.256457,"43.6037290000,-116.2564570000",The Dog House,Boise,ID
4868,0x0jyG9wEbnY3X0tGkwBgQ,b_0x0jyG9wEbnY3X0tGkwBgQ,43.5676174,-116.21371,"43.5676174000,-116.2137100000",Idaho Cab Co,Boise,ID
4869,bDWomEUt-uOBYk5m068JPA,b_bDWomEUt-uOBYk5m068JPA,43.6674854,-116.2783902,"43.6674854000,-116.2783902000",Sunrise Family Restaurant,Boise,ID
4870,dR1xOl806avUFBW7vJEuHg,b_dR1xOl806avUFBW7vJEuHg,43.6642745,-116.2777551,"43.6642745000,-116.2777551000",D & B Supply,Boise,ID
4871,CJM_OsaI9qlmZTjb4OQEjQ,b_CJM_OsaI9qlmZTjb4OQEjQ,43.5378858,-116.1594078,"43.5378858000,-116.1594078000",Idaho Ice World,Boise,ID
4872,ivyqby3Wle-QIMaieKmHog,b_ivyqby3Wle-QIMaieKmHog,43.6036458949,-116.245054,"43.6036458949,-116.2450540000",Fred Meyer,Boise,ID
4873,KMJwUFT2nK6uBfaBULv_mg,b_KMJwUFT2nK6uBfaBULv_mg,43.6199306,-116.3171239,"43.6199306000,-116.3171239000",Sugar Rush Cupcakery,Boise,ID
4874,zAHwr8T05SOG93UzVonfNA,b_zAHwr8T05SOG93UzVonfNA,43.6145322,-116.2013951,"43.6145322000,-116.2013951000",Humpin Hannah's,Boise,ID
4875,NthNU5XEuP_57ZMR8d_Izg,b_NthNU5XEuP_57ZMR8d_Izg,43.5951278,-116.2130086,"43.5951278000,-116.2130086000",Papa Murphy's,Boise,ID
4876,-BWNwPx6dtSRXXqFnCgO5Q,b_-BWNwPx6dtSRXXqFnCgO5Q,43.6194491737,-116.2633013492,"43.6194491737,-116.2633013492",Q's Billiards & Eatery,Boise,ID
4877,iUBWpw-YOjBf-f3IdsApRQ,b_iUBWpw-YOjBf-f3IdsApRQ,43.6203640893,-116.3215612074,"43.6203640893,-116.3215612074",Larry H. Miller Subaru Boise,Boise,ID
4878,SodX2x5WpHYetiVEL6mNfw,b_SodX2x5WpHYetiVEL6mNfw,43.6161455,-116.2016447,"43.6161455000,-116.2016447000",CenturyLink - Boise,Boise,ID
4879,gveFc3Z1veVt_MS-HwzE4Q,b_gveFc3Z1veVt_MS-HwzE4Q,43.6088353199,-116.28208,"43.6088353199,-116.2820800000",Men's Wearhouse,Boise,ID
4880,d-GMRJpaCyyBn1Gq0yosHw,b_d-GMRJpaCyyBn1Gq0yosHw,43.5713937532,-116.1883089714,"43.5713937532,-116.1883089714",EZ Nail & Spa,Boise,ID
4881,guvNNiQurBpsjTxi96zaOw,b_guvNNiQurBpsjTxi96zaOw,43.6201786,-116.311617,"43.6201786000,-116.3116170000",Domino's Pizza,Boise,ID
4882,wVeeI1h9Wo17SYeWDcX7SQ,b_wVeeI1h9Wo17SYeWDcX7SQ,43.59133,-116.28023,"43.5913300000,-116.2802300000",Sport Clips Haircuts of Overland & I-84,Boise,ID
4883,mkXJKCb8bbaiqzY1MGzosw,b_mkXJKCb8bbaiqzY1MGzosw,43.6220224,-116.2349721,"43.6220224000,-116.2349721000",The Riverside Hotel ,Boise,ID
4884,3PceHdSbhZV6lT6wpM96yg,b_3PceHdSbhZV6lT6wpM96yg,43.6182928,-116.3129361,"43.6182928000,-116.3129361000",Kmart,Boise,ID
4885,BrD8yPqnivir_-PpZ8pjQA,b_BrD8yPqnivir_-PpZ8pjQA,43.6148629032,-116.2022489433,"43.6148629032,-116.2022489433",Goldy's Corner,Boise,ID
4886,_0XbSqyzlUE8yVxvfYTtcQ,b__0XbSqyzlUE8yVxvfYTtcQ,43.6164069,-116.2050292,"43.6164069000,-116.2050292000",North Shore Hot Dog,Boise,ID
4887,b4FADWEztjbpF29P47RJTQ,b_b4FADWEztjbpF29P47RJTQ,43.6087622,-116.2847686,"43.6087622000,-116.2847686000",Ross Dress for Less,Boise,ID
4888,ZpJqZKyksIAiOO79n5EYpQ,b_ZpJqZKyksIAiOO79n5EYpQ,43.5811916,-116.1733761,"43.5811916000,-116.1733761000",Johnny's Fit Club,Boise,ID
4889,c9FooMGTgEdIa0KalhikEw,b_c9FooMGTgEdIa0KalhikEw,43.5902891,-116.2884954,"43.5902891000,-116.2884954000",VIP GameStore,Boise,ID
4890,Jz06FYetr7puuM4_WrZ8gA,b_Jz06FYetr7puuM4_WrZ8gA,43.5759748,-116.2844675,"43.5759748000,-116.2844675000",Ada Animal Hospital,Boise,ID
4891,rvbqvQod-USx8EpjXtJNdw,b_rvbqvQod-USx8EpjXtJNdw,43.5744177367,-116.1549925804,"43.5744177367,-116.1549925804",Boise Fry Company,Boise,ID
4892,6KpBE-zJW4I3VuEjhFj3Tg,b_6KpBE-zJW4I3VuEjhFj3Tg,43.619152,-116.2132897,"43.6191520000,-116.2132897000",A Tavola,Boise,ID
4893,7TzBf-cZT2qXbfCt1yU8Rw,b_7TzBf-cZT2qXbfCt1yU8Rw,43.6172143,-116.2066405,"43.6172143000,-116.2066405000",The Crux,Boise,ID
4894,6XT6OcqGU-8BXKFp7zHoRA,b_6XT6OcqGU-8BXKFp7zHoRA,43.625567,-116.2109944,"43.6255670000,-116.2109944000",Queen Nails & Spa,Boise,ID
4895,1bupwb_7eGLWtu66xD1MIw,b_1bupwb_7eGLWtu66xD1MIw,43.605527,-116.2732164,"43.6055270000,-116.2732164000",Aquarium Of Boise,Boise,ID
4896,BKKOSJVhqvDNfbD7ELOqHg,b_BKKOSJVhqvDNfbD7ELOqHg,43.6143507,-116.2006725,"43.6143507000,-116.2006725000",Wiseguy Pizza Pie,Boise,ID
4897,KblHsI7JwwCDPZYF3inOlQ,b_KblHsI7JwwCDPZYF3inOlQ,43.662468,-116.3421639,"43.6624680000,-116.3421639000",Burger King,Boise,ID
4898,qiiMG7Lgvv4yVZVzckwmLQ,b_qiiMG7Lgvv4yVZVzckwmLQ,43.616347,-116.202755,"43.6163470000,-116.2027550000",Capital City Public Market,Boise,ID
4899,AUu9t9yMMkXmu0cLxOCUEA,b_AUu9t9yMMkXmu0cLxOCUEA,43.6147051,-116.2837657,"43.6147051000,-116.2837657000",Baja Fresh,Boise,ID
4900,Okp9reNh6b53JwtjTlQAdw,b_Okp9reNh6b53JwtjTlQAdw,43.5937796423,-116.213413775,"43.5937796423,-116.2134137750",Jack in the Box,Boise,ID
4901,ZH-D4qbLggBSvwpF0zXrQQ,b_ZH-D4qbLggBSvwpF0zXrQQ,43.6192456,-116.2546881,"43.6192456000,-116.2546881000",The Original Pancake House,Boise,ID
4902,LzujgmlZDn3DtFbtbwmisA,b_LzujgmlZDn3DtFbtbwmisA,43.62221,-116.2199622,"43.6222100000,-116.2199622000",Valley Glass - Boise,Boise,ID
4903,6QVxSFKlw30xCyJaasql9g,b_6QVxSFKlw30xCyJaasql9g,43.590058,-116.28516,"43.5900580000,-116.2851600000",Starbucks,Boise,ID
4904,mx63XH-3ky3Voak73Uoehw,b_mx63XH-3ky3Voak73Uoehw,43.5916149,-116.2866788,"43.5916149000,-116.2866788000",Chapala Mexican Restaurant,Boise,ID
4905,k8qejGcTA2cSQhuFcJH7WA,b_k8qejGcTA2cSQhuFcJH7WA,43.5822483476,-116.1742830276,"43.5822483476,-116.1742830276",MickeyRay's,Boise,ID
4906,kJyikjENbRl27-AsyS17nw,b_kJyikjENbRl27-AsyS17nw,43.608627,-116.278843,"43.6086270000,-116.2788430000",Victoria's Secret,Boise,ID
4907,exU2fOCg0neg-1Y6d7X71Q,b_exU2fOCg0neg-1Y6d7X71Q,43.599882,-116.193852,"43.5998820000,-116.1938520000",Burger Belly,Boise,ID
4908,1MjXWrcC431oZ_Fg7tFs_w,b_1MjXWrcC431oZ_Fg7tFs_w,43.62051,-116.228437,"43.6205100000,-116.2284370000",Cottonwood Suites Boise Riverside Downtown,Boise,ID
4909,vcFQGtE8M5h7YkkX50BH6w,b_vcFQGtE8M5h7YkkX50BH6w,43.615480065,-116.203805846,"43.6154800650,-116.2038058460",Costa Vida Fresh Mexican Grill,Boise,ID
4910,Nm8bahGf75QNvtRTAMCuRA,b_Nm8bahGf75QNvtRTAMCuRA,43.6197068,-116.3384898,"43.6197068000,-116.3384898000",Jake's Gluten Free Market & Bakery,Boise,ID
4911,3L-cbPMvNbsG9vmOF5QHEQ,b_3L-cbPMvNbsG9vmOF5QHEQ,43.603023,-116.187203,"43.6030230000,-116.1872030000",Idaho Center For Reproductive Medicine,Boise,ID
4912,nJEhY6tDLTnjv110_kww7Q,b_nJEhY6tDLTnjv110_kww7Q,43.60512,-116.192948,"43.6051200000,-116.1929480000",Extreme Pizza - Boise,Boise,ID
4913,-TRXiliBZ2O2_BKyKQ32HA,b_-TRXiliBZ2O2_BKyKQ32HA,43.6562033682,-116.2585391,"43.6562033682,-116.2585391000",Gyro Shack,Boise,ID
4914,5G3LzQ_pouGBbuShPPP8_Q,b_5G3LzQ_pouGBbuShPPP8_Q,43.574756,-116.274507,"43.5747560000,-116.2745070000",Idaho Pizza Company,Boise,ID
4915,MwJ7FHmLvHFZ48Oc8OVH2A,b_MwJ7FHmLvHFZ48Oc8OVH2A,43.647891,-116.3524128,"43.6478910000,-116.3524128000",Great Clips,Boise,ID
4916,14zx--dbLEAMy-61N9pG-Q,b_14zx--dbLEAMy-61N9pG-Q,43.584808,-116.273402,"43.5848080000,-116.2734020000",Batteries Plus Bulbs,Boise,ID
4917,iOQY4L_dj1QGWnxyc3KiGA,b_iOQY4L_dj1QGWnxyc3KiGA,43.6109745,-116.2069309,"43.6109745000,-116.2069309000",FedEx Office Print & Ship Center,Boise,ID
4918,8Kb9cDo8f3D4YtcKYSljag,b_8Kb9cDo8f3D4YtcKYSljag,43.597409,-116.299916,"43.5974090000,-116.2999160000",Mr. Rooter Plumbing of Boise,Boise,ID
4919,rjmHFpYYA_sgEUqTf95Siw,b_rjmHFpYYA_sgEUqTf95Siw,43.6084736684,-116.1991978527,"43.6084736684,-116.1991978527",Discovery Center of Idaho,Boise,ID
4920,gQRmDtfYFjGQz4yXVf_MOw,b_gQRmDtfYFjGQz4yXVf_MOw,43.591119,-116.237723,"43.5911190000,-116.2377230000",Antique World Mall And The Annex,Boise,ID
4921,fH-S-F55ApH7uP9ryqKLRg,b_fH-S-F55ApH7uP9ryqKLRg,43.6031837,-116.2763861,"43.6031837000,-116.2763861000",Calvary Chapel,Boise,ID
4922,vY5S0gOQFAPPrWcP9Km-3A,b_vY5S0gOQFAPPrWcP9Km-3A,43.6167264,-116.2852257,"43.6167264000,-116.2852257000",Barnes & Noble Booksellers,Boise,ID
4923,02nnU52BBCgHzr7XfugPjQ,b_02nnU52BBCgHzr7XfugPjQ,43.5856335,-116.1739438,"43.5856335000,-116.1739438000",Idaho Central Credit Union,Boise,ID
4924,G4aYMNkWN7VWr5OaIP2zCw,b_G4aYMNkWN7VWr5OaIP2zCw,43.6059532153,-116.2751832308,"43.6059532153,-116.2751832308",Denver Mattress,Boise,ID
4925,dceY14dPu2nEWOFDJAXV5A,b_dceY14dPu2nEWOFDJAXV5A,43.6057195344,-116.2750732603,"43.6057195344,-116.2750732603",Furniture Row,Boise,ID
4926,Kv4ZJap3bjEQhJ40RyMXVg,b_Kv4ZJap3bjEQhJ40RyMXVg,43.6484654,-116.3141997,"43.6484654000,-116.3141997000",Body Renew,Boise,ID
4927,f8TyUEoSWQEgH257GkzlXw,b_f8TyUEoSWQEgH257GkzlXw,43.5403916,-116.1562406,"43.5403916000,-116.1562406000",Bob's Sunrise Cafe,Boise,ID
4928,BwVE0AeLXexg5wESQTJ1jA,b_BwVE0AeLXexg5wESQTJ1jA,43.6670567257,-116.2813299894,"43.6670567257,-116.2813299894",Planet Fitness - Boise - Garden City,Boise,ID
4929,JXnwb9RlHdpKJpOriyAQtQ,b_JXnwb9RlHdpKJpOriyAQtQ,43.6098397,-116.2829555,"43.6098397000,-116.2829555000",Nordstrom Rack,Boise,ID
4930,5izU6MrKkDa73cf4LVho9g,b_5izU6MrKkDa73cf4LVho9g,43.581926,-116.169284,"43.5819260000,-116.1692840000",Westside Drive-In,Boise,ID
4931,gf0hWSKB38InSJBKioqKrQ,b_gf0hWSKB38InSJBKioqKrQ,43.6672157,-116.2749716,"43.6672157000,-116.2749716000",The Northgate Reel Theatre,Boise,ID
4932,evsWCgIJ9oOkIrAQB8IIQQ,b_evsWCgIJ9oOkIrAQB8IIQQ,43.581448,-116.19297,"43.5814480000,-116.1929700000",Polish A Day Spa,Boise,ID
4933,Hv2-FYU1eO89xSLqiLrGTA,b_Hv2-FYU1eO89xSLqiLrGTA,43.634546,-116.31827,"43.6345460000,-116.3182700000",Major Appliance Repair Service,Boise,ID
4934,4pt7e4SNv9DGkqNSER-OWQ,b_4pt7e4SNv9DGkqNSER-OWQ,43.5893722,-116.2308286,"43.5893722000,-116.2308286000",Chicago Connection - Overland,Boise,ID
4935,D7R90bZXgHyxCENGP2cF6w,b_D7R90bZXgHyxCENGP2cF6w,43.6173901,-116.2193111,"43.6173901000,-116.2193111000",St Luke's,Boise,ID
4936,-uylurvQI3bx5EXb9RrCsg,b_-uylurvQI3bx5EXb9RrCsg,43.5921666,-116.3146995,"43.5921666000,-116.3146995000",Animal Medical Center of Boise,Boise,ID
4937,MexGn09Jtm6_lsmhw_9KDw,b_MexGn09Jtm6_lsmhw_9KDw,43.624805,-116.211937,"43.6248050000,-116.2119370000",Supercuts,Boise,ID
4938,tZ_lWpM_VJrpg41rl7QDRg,b_tZ_lWpM_VJrpg41rl7QDRg,43.6154111893,-116.2027890679,"43.6154111893,-116.2027890679",Taphouse,Boise,ID
4939,-7BCcSWikq0TAyViUFTUIQ,b_-7BCcSWikq0TAyViUFTUIQ,43.5873919,-116.2731657,"43.5873919000,-116.2731657000",Les Schwab Tire Center,Boise,ID
4940,sn5UrzCqdHb0AX3YWhRMhA,b_sn5UrzCqdHb0AX3YWhRMhA,43.589214,-116.269802,"43.5892140000,-116.2698020000",All About Games,Boise,ID
4941,Zz-HA_K_BjP8UrEWT6YbXg,b_Zz-HA_K_BjP8UrEWT6YbXg,43.6100848947,-116.2087053817,"43.6100848947,-116.2087053817",Idaho Anne Frank Human Rights Memorial,Boise,ID
4942,mxSD-ijR1IXCliF_m9G4wg,b_mxSD-ijR1IXCliF_m9G4wg,43.6156468396,-116.2015234348,"43.6156468396,-116.2015234348",Caffe Capri,Boise,ID
4943,RdFrIkJ2sE0k4FytsBtMQg,b_RdFrIkJ2sE0k4FytsBtMQg,43.6032585,-116.252751,"43.6032585000,-116.2527510000",Grover's Pay & Pack Electric and Plumbing,Boise,ID
4944,TyNqrUGYSrAUrtGZOPGMcg,b_TyNqrUGYSrAUrtGZOPGMcg,43.6190834,-116.3152416,"43.6190834000,-116.3152416000",Pizza Hut,Boise,ID
4945,YFLmE4oLGC1U6hinBzfZYg,b_YFLmE4oLGC1U6hinBzfZYg,43.5981644,-116.1857122,"43.5981644000,-116.1857122000",Happy Nail,Boise,ID
4946,Zh72tafMZnVBE0FbXixahg,b_Zh72tafMZnVBE0FbXixahg,43.5959401,-116.2129861,"43.5959401000,-116.2129861000",Dollar Tree,Boise,ID
4947,5sOMd3nyHdgswomKgGD3jQ,b_5sOMd3nyHdgswomKgGD3jQ,43.568764,-116.221955,"43.5687640000,-116.2219550000",Enterprise Rent-A-Car,Boise,ID
